region,address,price,total_area,kitchen_area,living_area,rooms_count,floor,floors_number,build_date,is_complete,completion_year,house_material,parking,decoration,balcony,longitude,latitude,passenger_elevator,cargo_elevator,metro,metro_distance,metro_transport,district,is_apartments,is_auction
kzn,"Республика Татарстан, Казань, Советский район, жилой комплекс Светлая Долина",8303760,48.56,8.6,27.2,2,19,25,empty,0,2025,monolith,empty,without,empty,49.2405413082094,55.7987501492074,4,4,"Горки,Проспект Победы,Аметьево","8,9,9","transport,transport,transport","Малые Клыки,Советский",0,0
kzn,"Республика Татарстан, Казань, улица Аметьевская Магистраль, 18к2",14399000,65.1,11.8,34.0,2,20,27,2019,empty,empty,monolithBrick,underground,empty,empty,49.171425,55.766927,4,4,"Аметьево,Горки,Суконная слобода","4,4,5","walk,transport,transport",Советский,0,1
kzn,"Республика Татарстан, Казань, улица Петра Полушкина",9796080,48.02,8.5,27.6,2,3,22,empty,0,2026,monolith,empty,empty,empty,49.2085453253462,55.7833457209088,12,empty,"Горки,Аметьево,Проспект Победы","4,5,6","transport,transport,transport",Советский,0,0
kzn,"Республика Татарстан, Казань, улица Аметьевская Магистраль, 18к3",8399000,42.0,14.5,empty,1,24,29,2020,empty,empty,empty,underground,empty,empty,49.172575,55.766445,4,empty,"Аметьево,Горки,Суконная слобода","5,20,5","walk,walk,transport","Танкодром,Советский",0,1
kzn,"Республика Татарстан, Казань, жилой комплекс Нокса Парк, 8",8279236,53.0,17.8,23.3,2,5,17,empty,0,2025,panel,open,empty,1,49.22608800992485,55.80569239864893,2,empty,"Горки,Аметьево,Суконная слобода","8,9,9","transport,transport,transport","Малые Клыки,Советский",0,0
kzn,"Республика Татарстан, Казань, улица Аметьевская Магистраль, 18к3",9500000,51.0,22.0,empty,2,21,26,2020,empty,empty,monolithBrick,underground,empty,empty,49.172575,55.766445,4,4,"Аметьево,Горки,Суконная слобода","5,2,3","walk,transport,transport","Танкодром,Советский",0,1
kzn,"Республика Татарстан, Казань, улица Петра Полушкина",8496800,32.68,8.4,14.4,1,4,17,empty,0,2024,monolith,empty,empty,1,49.2107983809194,55.7841921431468,4,4,"Горки,Аметьево,Проспект Победы","4,5,6","transport,transport,transport",Советский,0,0
kzn,"Россия, Республика Татарстан, Казань, Федосеевская улица, 54",69990000,141.1,empty,empty,4,3,4,2011,empty,empty,brick,underground,empty,0,49.119089,55.802153,0,0,"Кремлёвская,Площадь Тукая,Суконная слобода","17,5,8","walk,transport,transport","Центр,Вахитовский",0,1
kzn,"Республика Татарстан, Казань, жилой комплекс Нокса Парк, 7",6909460,32.9,15.6,9.1,1,3,12,empty,0,2025,panel,open,empty,empty,49.2259646283,55.8062634067,1,1,"Горки,Аметьево,Суконная слобода","8,9,9","transport,transport,transport",Советский,0,0
kzn,"Россия, Республика Татарстан, Казань, улица Солидарности, 21",4270000,31.1,4.0,24.1,1,6,9,1979,empty,empty,brick,empty,empty,empty,49.231217,55.859882999999996,1,empty,"Суконная слобода,Горки,Площадь Тукая","18,19,19","transport,transport,transport","Дербышки,Советский",0,1
kzn,"Республика Татарстан, Казань, Южно-Промышленная улица",7727000,47.3,empty,empty,2,3,18,empty,0,2026,monolithBrick,empty,empty,empty,49.12177333083945,55.71736632804304,empty,7,"Аметьево,Горки,Проспект Победы","9,10,10","transport,transport,transport",Приволжский,0,0
kzn,"Россия, Республика Татарстан, Казань, улица Николая Столбова, 1/3",69990000,120.0,35.0,empty,3,3,5,2020,empty,empty,brick,underground,empty,2,49.113484,55.786075,1,1,"Площадь Тукая,Кремлёвская,Суконная слобода","10,17,6","walk,walk,transport","Татарская слобода,Вахитовский",empty,1
kzn,"Республика Татарстан, Казань, Южно-Промышленная улица",6365000,36.4,empty,empty,1,3,18,empty,0,2026,monolithBrick,empty,empty,empty,49.12177333083945,55.71736632804304,empty,7,"Аметьево,Горки,Проспект Победы","9,10,10","transport,transport,transport",Приволжский,0,0
kzn,"Россия, Республика Татарстан, Казань, улица Хусаина Мавлютова, 9",5800000,30.2,6.5,14.4,1,5,9,1986,empty,empty,brick,ground,empty,1,49.189562,55.75517,1,empty,"Горки,Проспект Победы,Аметьево","7,18,6","walk,walk,transport","Горки-1,Приволжский",0,1
kzn,"Республика Татарстан, Казань, улица Петра Полушкина",8556600,32.91,8.9,14.4,1,3,17,empty,0,2024,monolith,empty,empty,empty,49.210937855788245,55.78351500722186,2,5,"Горки,Аметьево,Проспект Победы","4,5,6","transport,transport,transport",Советский,0,0
kzn,"Россия, Республика Татарстан, Казань, Минская улица, 30",7500000,52.7,9.0,33.4,2,4,9,1988,empty,empty,brick,empty,empty,1,49.228441,55.772132,1,0,"Горки,Дубравная,Проспект Победы","7,8,9","transport,transport,transport","Азино-2,Советский",0,1
kzn,"Республика Татарстан, Казань, Фермское шоссе",8892000,48.5,empty,empty,2,4,14,empty,0,2026,monolithBrick,empty,empty,empty,49.1576464034,55.7182984219,empty,empty,"Проспект Победы,Дубравная,Горки","7,7,8","transport,transport,transport",Приволжский,0,0
kzn,"Республика Татарстан, Казань городской округ, Казань, Муштари ул, 30а",7500000,36.8,5.9,24.0,2,2,3,1901,empty,empty,brick,empty,empty,0,49.136175,55.794143,0,0,,,,Вахитовский,empty,1
kzn,"Республика Татарстан, Казань, улица Аметьевская Магистраль, 18",15000000,67.9,19.2,30.3,2,12,25,empty,1,2021,empty,underground,empty,empty,49.174336,55.767565,4,2,"Аметьево,Горки,Суконная слобода","8,2,3","walk,transport,transport",Советский,0,0
kzn,"Республика Татарстан, Казань городской округ, Казань, Андрея Адо ул, 15",9999000,86.7,13.6,46.4,3,12,19,2015,empty,empty,monolith,empty,empty,0,49.184271,55.714957,1,0,,,,Приволжский,empty,1
kzn,"Республика Татарстан, Казань, Фермское шоссе",6843000,36.9,empty,empty,1,4,14,empty,0,2026,monolithBrick,empty,empty,empty,49.1576464033624,55.7182984218839,empty,empty,"Проспект Победы,Дубравная,Горки","7,7,8","transport,transport,transport",Приволжский,0,0
kzn,"Россия, Республика Татарстан, Казань, улица Щапова, 43",79990000,150.0,empty,empty,4,4,5,2015,empty,empty,brick,underground,empty,1,49.136445,55.791865,1,1,"Площадь Тукая,Суконная слобода,Кремлёвская","15,5,5","walk,transport,transport",Вахитовский,empty,1
kzn,"Республика Татарстан, Казань, улица Алексея Козина",22352941,71.37,18.0,23.9,2,10,28,empty,0,2025,monolith,empty,without,empty,49.1425905258247,55.8121643119849,1,1,"Козья слобода,Кремлёвская,Площадь Тукая","4,4,5","transport,transport,transport",Ново-Савиновский,0,0
kzn,"Россия, Республика Татарстан, Казань, улица Гудованцева, 47",3100000,25.1,3.9,18.9,1,4,5,1973,empty,empty,brick,empty,empty,0,49.020562,55.877637,0,0,"Авиастроительная,Северный Вокзал,Яшьлек","10,13,13","transport,transport,transport","Жилплощадка,Московский",0,1
kzn,"Республика Татарстан, Казань, улица Алексея Козина",16471390,50.66,20.5,12.6,1,3,28,empty,0,2025,monolith,empty,without,empty,49.1425905258247,55.8121643119849,1,1,"Козья слобода,Кремлёвская,Площадь Тукая","4,4,5","transport,transport,transport",Ново-Савиновский,0,0
kzn,"Республика Татарстан, Казань, улица Симонова, 11",9699000,53.6,10.4,28.8,2,9,10,2024,empty,empty,monolithBrick,underground,empty,1,49.089939,55.865131,1,1,"Авиастроительная,Северный Вокзал,Яшьлек","15,7,7","walk,transport,transport","Караваево,Авиастроительный",0,1
kzn,"Республика Татарстан, Казань, улица Дулата Али",12941833,44.47,empty,21.9,2,2,10,empty,0,2026,monolith,empty,empty,empty,49.0969114232168,55.7656682060518,7,empty,"Площадь Тукая,Суконная слобода,Кремлёвская","4,5,5","transport,transport,transport",Вахитовский,0,0
kzn,"Россия, Республика Татарстан, Казань, улица Рихарда Зорге, 52",4400000,30.0,6.5,16.0,1,1,5,1972,empty,empty,panel,ground,empty,0,49.199731,55.753174,0,0,"Горки,Проспект Победы,Дубравная","11,11,5","walk,walk,transport","Горки-1,Приволжский",0,1
kzn,"Республика Татарстан, Казань, улица Крылова",10902136,58.69,empty,29.1,2,3,25,empty,0,2025,monolith,underground,empty,empty,49.2051142024,55.7757387148,empty,empty,"Горки,Аметьево,Проспект Победы","3,4,4","transport,transport,transport","Дальний,Советский",0,0
kzn,"Россия, Республика Татарстан, Казань, Вахитовский район, улица Калинина, 3",10700000,60.7,6.0,empty,3,2,5,1969,empty,empty,brick,ground,empty,1,49.13631,55.781833,0,0,"Суконная слобода,Площадь Тукая,Кремлёвская","8,12,6","walk,walk,transport","Суконная слобода,Вахитовский",0,1
kzn,"Республика Татарстан, Казань, улица Дулата Али",11256420,36.28,empty,15.7,1,2,15,empty,0,2026,monolith,empty,empty,empty,49.0969114232168,55.7656682060518,7,empty,"Площадь Тукая,Суконная слобода,Кремлёвская","4,5,5","transport,transport,transport",Вахитовский,0,0
kzn,"Россия, Республика Татарстан, Казань, улица Коротченко, 22",16290000,64.0,11.0,39.0,2,2,6,2019,empty,empty,brick,empty,empty,empty,49.10124,55.791056,1,empty,"Кремлёвская,Площадь Тукая,Козья слобода","12,4,7","walk,transport,transport","Центр,Вахитовский",0,1
kzn,"Республика Татарстан, Казань, улица Крылова",9307751,40.53,empty,17.0,1,11,16,empty,0,2025,monolith,underground,empty,empty,49.2066323327,55.775415192,empty,empty,"Горки,Аметьево,Проспект Победы","3,4,4","transport,transport,transport",Советский,0,0
kzn,"Россия, Республика Татарстан, Казань, улица Рихарда Зорге, 43",6000000,36.9,7.0,17.1,1,6,9,1974,empty,empty,panel,empty,empty,1,49.204555,55.753914,1,empty,"Проспект Победы,Горки,Дубравная","6,14,18","walk,walk,walk","Горки-1,Приволжский",0,1
kzn,"Республика Татарстан, Казань, улица Алексея Козина",17225935,58.98,20.8,22.8,2,18,24,empty,0,2024,monolith,empty,without,empty,49.1419199735711,55.8134541391244,3,3,"Козья слобода,Кремлёвская,Площадь Тукая","4,4,5","transport,transport,transport",Ново-Савиновский,0,0
kzn,"Россия, Республика Татарстан, Казань, Ново-Азинская улица, 35",4700000,30.7,5.8,18.0,1,4,5,1966,empty,empty,brick,empty,empty,0,49.196048,55.811665,0,0,"Суконная слобода,Козья слобода,Горки","9,10,11","transport,transport,transport","кварталы 29,30,Советский",0,1
kzn,"Республика Татарстан, Казань, улица Шаляпина, 32",21840495,61.15,empty,empty,2,8,9,empty,0,2023,monolithBrick,empty,rough,empty,49.139122,55.770178,empty,3,"Суконная слобода,Площадь Тукая,Аметьево","12,3,3","walk,transport,transport",Приволжский,0,0
kzn,"Республика Татарстан, Казань городской округ, Казань, Алексея Козина ул, 3б",11560000,63.35,13.0,33.0,2,7,18,2016,empty,empty,brick,empty,empty,0,49.136229,55.815119,1,0,,,,"кварталы 68, 69,Ново-Савиновский",empty,1
kzn,"Республика Татарстан, Казань, Советский район, жилой комплекс Светлая Долина",10679820,75.21,12.5,42.3,3,5,19,empty,0,2024,monolith,empty,empty,1,49.2394791534411,55.7995690407037,2,empty,"Горки,Проспект Победы,Аметьево","8,9,9","transport,transport,transport","Малые Клыки,Советский",0,0
kzn,"Россия, Республика Татарстан, Казань, улица Красной Позиции, 35",4690000,31.0,7.0,empty,1,3,5,1966,empty,empty,brick,ground,empty,0,49.166511,55.781134,empty,empty,"Горки,Суконная слобода,Площадь Тукая","6,6,7","transport,transport,transport",Советский,0,1
kzn,"Республика Татарстан, Казань, улица Алексея Козина",12508564,40.37,20.1,8.8,1,14,24,empty,0,2024,monolith,empty,without,empty,49.1419199735711,55.8134541391244,3,3,"Козья слобода,Кремлёвская,Площадь Тукая","4,4,5","transport,transport,transport",Ново-Савиновский,0,0
kzn,"Россия, Республика Татарстан, Казань, улица Симонова, 45",7699000,38.0,17.3,empty,1,9,10,2023,empty,empty,brick,underground,empty,1,49.089939,55.865131,1,1,"Авиастроительная,Яшьлек","11,7","walk,transport","Караваево,Авиастроительный",0,1
kzn,"Республика Татарстан, Казань, улица Петра Полушкина",14154520,75.29,9.7,40.6,3,2,17,empty,0,2026,monolith,empty,empty,empty,49.2085024100017,55.784119592628,9,empty,"Горки,Аметьево,Проспект Победы","4,5,6","transport,transport,transport",Советский,0,0
kzn,"Республика Татарстан, Казань городской округ, Казань, Азата Аббасова ул, 19",9500000,53.0,16.0,29.0,3,1,10,2022,empty,empty,brick,empty,empty,0,49.252768,55.788429,1,0,,,,Советский,empty,1
kzn,"Республика Татарстан, Казань, улица Шаляпина, 32",17569693,51.5,empty,empty,1,5,9,empty,0,2023,monolithBrick,empty,rough,empty,49.139122,55.770178,empty,3,"Суконная слобода,Площадь Тукая,Аметьево","12,3,3","walk,transport,transport",Приволжский,0,0
kzn,"Республика Татарстан, Казань, улица Родины, 24В",8050000,38.3,10.1,14.6,1,4,20,2021,empty,empty,monolithBrick,empty,empty,1,49.193595,55.762662,1,1,"Горки,Дубравная,Аметьево","15,6,7","walk,transport,transport",Советский,0,1
kzn,"Республика Татарстан, Казань, жилой комплекс Нокса Парк, 6",8701635,60.9,4.1,37.0,3,15,17,empty,0,2024,panel,open,empty,1,49.225396,55.806348,2,empty,"Горки,Аметьево,Суконная слобода","8,9,9","transport,transport,transport",Советский,0,0
kzn,"Республика Татарстан, Казань, улица Мансура Хасанова, 15",7350000,35.99,9.6,14.3,1,19,19,2023,empty,empty,empty,ground,empty,empty,49.184657,55.778892,1,1,"Горки,Суконная слобода,Аметьево","7,7,10","transport,transport,transport",Советский,0,1
kzn,"Республика Татарстан, Казань, улица Шаляпина",22599479,76.97,empty,44.3,2,2,10,empty,0,2026,monolithBrick,underground,empty,empty,49.14602836378382,55.77400507398286,empty,2,"Суконная слобода,Аметьево,Площадь Тукая","6,2,3","walk,transport,transport",Приволжский,0,0
kzn,"Россия, Республика Татарстан, Казань, улица Карбышева, 12А",8795000,47.36,12.5,20.4,1,10,23,2023,empty,empty,monolith,empty,empty,empty,49.171021,55.752364,1,1,"Горки,Проспект Победы,Суконная слобода","4,6,6","transport,transport,transport","Горки-1,Приволжский",0,1
kzn,"Республика Татарстан, Казань, улица Шаляпина",10462215,28.04,empty,11.9,1,2,10,empty,0,2026,monolithBrick,underground,empty,empty,49.14602836378382,55.77400507398286,empty,2,"Суконная слобода,Аметьево,Площадь Тукая","6,2,3","walk,transport,transport",Приволжский,0,0
kzn,"Россия, Республика Татарстан, Казань, Приволжский район, микрорайон Горки-3, микрорайон Экопарк Дубрава, улица Абубекира Терегулова, 8",11980000,62.8,10.6,32.0,2,9,16,2022,empty,empty,monolithBrick,underground,empty,empty,49.208094,55.736402,1,1,"Дубравная,Проспект Победы,Горки","18,7,8","walk,transport,transport","Горки-3,Приволжский",0,1
kzn,"Республика Татарстан, Казань, улица Аделя Кутуя",10480000,57.42,11.3,29.8,2,2,24,empty,0,2024,monolithBrick,empty,empty,empty,49.1941913477924,55.7636604751246,1,2,"Горки,Аметьево,Проспект Победы","7,3,3","walk,transport,transport",Советский,0,0
kzn,"Татарстан Респ., Казань г., Приволжский, Кул Гали ул., д.10",5000000,42.0,8.0,26.6,2,7,9,1990,empty,empty,brick,empty,empty,0,49.22863,55.750297,1,empty,,,,"9,10,11,Приволжский",empty,1
kzn,"Республика Татарстан, Казань, Ягодинская улица",13215522,69.15,empty,29.5,2,3,8,empty,0,2025,monolith,empty,empty,empty,49.0746052129,55.8105400631,empty,empty,"Козья слобода,Яшьлек,Кремлёвская","2,3,4","transport,transport,transport","Ягодная слобода,Кировский",0,0
kzn,"Татарстан Респ., Казань г., Советский, Галии Кайбицкой ул., д.5",8199000,68.0,9.7,42.4,3,7,8,1998,empty,empty,panel,empty,empty,0,49.231729,55.780628,1,empty,,,,"Азино-1,Советский",empty,1
kzn,"Республика Татарстан, Казань, Кировский район, микрорайон Адмиралтейская Слобода, Большая улица, 76",17713082,75.03,19.5,31.2,2,2,7,empty,0,2025,monolithBrick,empty,empty,empty,49.05791435581946,55.79649528513446,empty,1,"Кремлёвская,Козья слобода,Яшьлек","5,5,6","transport,transport,transport","Адмиралтейская слобода,Кировский",0,0
kzn,"Татарстан Респ., Казань г., Ново-Савиновский, Голубятникова ул., д.16",4700000,36.5,6.6,24.9,2,5,9,1989,empty,empty,brick,empty,empty,0,49.111795,55.83755,2,empty,,,,Ново-Савиновский,empty,1
kzn,"Республика Татарстан, Казань, Южно-Промышленная улица",9402000,66.8,empty,empty,3,4,18,empty,0,2026,monolithBrick,empty,empty,empty,49.12177333083945,55.71736632804304,empty,7,"Аметьево,Горки,Проспект Победы","9,10,10","transport,transport,transport",Приволжский,0,0
kzn,"Республика Татарстан, Казань, Рихарда Зорге ул, 121",6700000,50.2,8.6,31.4,2,7,9,1986,empty,empty,panel,empty,empty,0,49.224399,55.741744,1,0,,,,"7,8,Приволжский",empty,1
kzn,"Республика Татарстан, Казань, Адмиралтейская улица",13165000,56.53,19.8,25.8,2,7,8,empty,0,2025,monolithBrick,empty,empty,empty,49.0559795423,55.8032668647,10,empty,"Козья слобода,Яшьлек,Кремлёвская","5,5,5","transport,transport,transport","Адмиралтейская слобода,Кировский",0,0
kzn,"Татарстан Респ., Казань г., Приволжский, Юлиуса Фучика ул., д.38",7500000,56.0,9.0,28.0,2,2,9,1978,empty,empty,block,empty,empty,0,49.221946,55.745767,1,empty,"Дубравная,Проспект Победы","4,14","walk,walk","7,8,Приволжский",empty,1
kzn,"Республика Татарстан, Казань, Ягодинская улица",9521325,35.6,empty,15.6,1,12,18,empty,0,2025,monolith,empty,empty,empty,49.0746052129333,55.8105400631182,empty,empty,"Козья слобода,Яшьлек,Кремлёвская","2,3,4","transport,transport,transport","Ягодная слобода,Кировский",0,0
kzn,"Татарстан Респ., Казань г., Вахитовский, Чернышевского ул., д.24/23",13900000,78.0,13.0,45.0,3,5,6,empty,empty,empty,brick,empty,empty,2,49.106719,55.790863,empty,empty,,,,"Центр,Вахитовский",empty,1
kzn,"Республика Татарстан, Казань, Кировский район, микрорайон Адмиралтейская Слобода, Большая улица, 62",11150000,38.81,16.5,12.0,1,2,7,empty,0,2025,monolithBrick,empty,empty,empty,49.0602498221,55.7967413504,empty,1,"Кремлёвская,Козья слобода,Яшьлек","4,5,6","transport,transport,transport","Адмиралтейская слобода,Кировский",0,0
kzn,"Татарстан,Казань,Приволжский, Детский проезд, 8",4500000,32.43,empty,empty,1,7,19,2023,empty,empty,empty,empty,empty,1,49.199794,55.678352,1,1,,,,Приволжский,empty,1
kzn,"Республика Татарстан, Казань, улица Габдуллы Тукая",18816000,67.2,empty,empty,2,3,4,empty,0,2025,monolithBrick,empty,empty,empty,49.11855565012221,55.772898856636345,3,empty,"Площадь Тукая,Суконная слобода,Кремлёвская","2,2,4","transport,transport,transport","Татарская слобода,Вахитовский",0,0
kzn,"Татарстан,Казань,Советский Район, Сабира Ахтямова, 1 к 2",7590000,30.8,empty,empty,1,18,19,2020,empty,empty,empty,empty,empty,1,49.215766,55.787599,1,1,,,,Советский,empty,1
kzn,"Республика Татарстан, Казань, улица Мансура Хасанова, 15",9790000,52.05,11.0,27.2,2,2,19,empty,0,2023,monolithBrick,empty,empty,empty,49.184657,55.778892,2,2,"Аметьево,Горки,Суконная слобода","3,3,4","transport,transport,transport",Советский,0,0
kzn,"Татарстан,Казань,Советский Район, Анаса Тазетдинова, 4",5799000,34.6,empty,empty,1,3,6,2023,empty,empty,empty,empty,empty,1,49.230462,55.807643,1,1,,,,Советский,empty,1
kzn,"Республика Татарстан, Казань, улица Габдуллы Тукая",14649000,51.4,empty,empty,1,2,4,empty,0,2025,monolithBrick,empty,empty,empty,49.11855565012221,55.772898856636345,3,empty,"Площадь Тукая,Суконная слобода,Кремлёвская","2,2,4","transport,transport,transport","Татарская слобода,Вахитовский",0,0
kzn,"Татарстан,Казань,Приволжский, Братьев Батталовых, 20 к 2",6999000,32.0,empty,empty,1,17,25,2019,empty,empty,empty,empty,empty,1,49.186696,55.722041,1,1,,,,Приволжский,empty,1
kzn,"Казань, район Ново-Савиновский, улица Сибгата Хакима",18080000,74.46,20.0,30.5,2,2,21,empty,0,2024,monolithBrick,empty,empty,empty,49.1444954293,55.8148569678,10,6,"Козья слобода,Кремлёвская,Площадь Тукая","4,5,5","transport,transport,transport","кварталы 68, 69,Ново-Савиновский",0,0
kzn,"Татарстан Респ., Казань г., Советский, Разведчика Ахмерова ул., д.5",12990000,53.4,11.0,27.0,2,9,10,2019,empty,empty,brick,empty,empty,1,49.180687,55.797351,1,empty,,,,"Октябрьский городок,Советский",empty,1
kzn,"Республика Татарстан, Казань, Фермское шоссе",10566000,63.2,empty,empty,3,2,14,empty,0,2026,monolithBrick,empty,empty,empty,49.1576464034,55.7182984219,empty,empty,"Проспект Победы,Дубравная,Горки","7,7,8","transport,transport,transport",Приволжский,0,0
kzn,"Татарстан Респ., Казань г., Ново-Савиновский, Алексея Козина ул., д.2",29600000,94.5,25.2,48.0,3,3,20,2021,empty,empty,monolithBrick,empty,empty,0,49.136867,55.813455,1,1,Козья слобода,7,transport,Ново-Савиновский,empty,1
kzn,"Республика Татарстан, Казань, улица Аметьевская Магистраль, 18",14900000,96.5,15.3,50.8,3,4,25,empty,1,2021,empty,underground,fine,empty,49.174336,55.767565,4,2,"Аметьево,Горки,Суконная слобода","8,2,3","walk,transport,transport",Советский,0,0
kzn,"Татарстан,Казань,Советский Район, Интернациональная, 11б",7800000,67.6,empty,empty,2,5,5,2012,empty,empty,empty,empty,empty,1,49.267518,55.810916,0,0,,,,"Константиновка,Советский",empty,1
kzn,"Казань, район Ново-Савиновский, улица Сибгата Хакима",14430000,41.57,13.6,15.2,1,16,21,empty,0,2024,monolithBrick,empty,empty,empty,49.14449542928602,55.81485696776656,10,6,"Козья слобода,Кремлёвская,Площадь Тукая","4,5,5","transport,transport,transport","кварталы 68, 69,Ново-Савиновский",0,0
kzn,"Татарстан Респ., Казань г., Кировский, 25-го Октября ул., д.2/7",5800000,43.6,3.9,31.7,2,2,5,1968,empty,empty,brick,empty,empty,0,49.06484,55.815165,empty,empty,"Яшьлек,Козья слобода","5,6","transport,transport","Пороховая слобода,Кировский",empty,1
kzn,"Республика Татарстан, Казань, улица Николая Ершова",13500000,57.42,13.9,27.5,2,5,10,empty,0,2024,monolith,empty,empty,empty,49.1806648929576,55.8024059306262,4,empty,,,,"Куба,Советский",0,0
kzn,"Республика Татарстан, Казань, Тансык ул, 5",5995000,62.7,15.0,34.0,2,2,18,2018,empty,empty,monolith,empty,empty,0,48.880057,55.867667,1,0,,,,Кировский,empty,1
kzn,"Республика Татарстан, Казань, Вознесенский тракт",12059942,58.94,empty,28.5,2,15,22,empty,0,2026,monolith,empty,empty,empty,49.20370696566657,55.77704103241694,2,7,"Горки,Аметьево,Проспект Победы","3,4,5","transport,transport,transport","Дальний,Советский",0,0
kzn,"Татарстан Респ., Казань г., Приволжский, Карбышева ул., д.58а",8790000,79.9,14.0,48.6,3,5,9,2004,empty,empty,panel,empty,empty,0,49.176797,55.75512,1,empty,,,,"Горки-1,Приволжский",empty,1
kzn,"Республика Татарстан, Казань, жилой комплекс Сиберово",9499050,49.5,14.3,21.1,2,3,10,empty,0,2026,monolith,open,empty,empty,49.1898767566498,55.8183604467516,2,9,"Площадь Тукая,Суконная слобода,Козья слобода","8,8,9","transport,transport,transport",Советский,0,0
kzn,"Татарстан Респ., Казань г., Кировский, Ильгама Шакирова пр-кт., д.12/4",6890000,70.0,13.6,39.5,3,6,18,2020,empty,empty,panel,empty,empty,1,48.903467,55.859312,2,empty,,,,"Залесный,Кировский",empty,1
kzn,"Республика Татарстан, Казань, улица Алексея Козина",29127489,97.78,26.8,40.0,3,5,28,empty,0,2025,monolith,empty,without,empty,49.1425905258247,55.8121643119849,1,1,"Козья слобода,Кремлёвская,Площадь Тукая","4,4,5","transport,transport,transport",Ново-Савиновский,0,0
kzn,"Татарстан Респ., Казань г., Советский, Даурская ул., д.10",5290000,30.2,7.0,18.2,1,1,5,empty,empty,empty,brick,empty,empty,0,49.14629,55.763361,empty,empty,Аметьево,8,transport,Приволжский,empty,1
kzn,"Республика Татарстан, Казань, улица Михаила Миля",8170000,48.2,10.0,22.9,2,2,15,empty,0,2025,monolithBrick,empty,empty,empty,49.0933374603,55.8458816437,empty,empty,"Северный Вокзал,Авиастроительная,Яшьлек","13,19,3","walk,walk,transport",Авиастроительный,0,0
kzn,"Татарстан,Казань,Ново-Савиновский, Адоратского, 3",17500000,145.0,empty,empty,4,10,10,2008,empty,empty,empty,empty,empty,1,49.146784,55.822367,1,1,,,,"кварталы 68, 69,Ново-Савиновский",empty,1
kzn,"Республика Татарстан, Казань, улица Николая Ершова",10400000,39.3,15.0,13.5,1,5,10,empty,0,2024,monolith,empty,empty,empty,49.180664893,55.8024059306,4,empty,,,,"Куба,Советский",0,0
kzn,"Татарстан,Казань,Советский Район, Проспект Победы, 139а к 2",10200000,57.0,empty,empty,2,7,16,2018,empty,empty,empty,empty,empty,1,49.213852,55.775793,1,1,,,,Советский,empty,1
kzn,"Республика Татарстан, Казань, Вознесенский тракт",8221417,30.14,empty,15.6,1,13,14,empty,0,2026,monolith,empty,empty,empty,49.20370696566657,55.77704103241694,2,7,"Горки,Аметьево,Проспект Победы","3,4,5","transport,transport,transport","Дальний,Советский",0,0
kzn,"Татарстан Респ., Казань г., Советский, Родины ул., д.26, к.г",9700000,54.8,11.0,31.0,2,1,24,2021,empty,empty,monolithBrick,empty,empty,1,49.191098,55.763868,2,empty,,,,Советский,empty,1
kzn,"Республика Татарстан, Казань, улица Мансура Хасанова, 13",9780000,52.01,11.0,27.2,2,2,19,empty,0,2023,monolithBrick,empty,empty,empty,49.183696,55.779378,3,9,"Аметьево,Горки,Суконная слобода","3,3,4","transport,transport,transport",Советский,0,0
kzn,"Татарстан,Казань,Советский Район, Зур Урам, 1к к 2",13550000,98.1,empty,empty,3,7,7,2016,empty,empty,empty,empty,empty,1,49.20089,55.802057,1,0,,,,Советский,empty,1
kzn,"Республика Татарстан, Казань, жилой комплекс Сиберово",7335900,33.0,15.1,10.2,1,2,14,empty,0,2026,monolith,open,empty,empty,49.1898767566498,55.8183604467516,2,9,"Площадь Тукая,Суконная слобода,Козья слобода","8,8,9","transport,transport,transport",Советский,0,0
kzn,"Татарстан,Казань,Ново-Савиновский, Абсалямова, 13",32000000,130.4,empty,75.0,3,8,10,2008,empty,empty,empty,empty,empty,0,49.109585,55.817633,1,0,,,,Ново-Савиновский,empty,1
kzn,"Республика Татарстан, Казань, улица Михаила Миля",6520000,33.24,10.2,10.9,1,8,15,empty,0,2025,monolithBrick,empty,empty,empty,49.0933374603262,55.8458816437237,empty,empty,"Северный Вокзал,Авиастроительная,Яшьлек","13,19,3","walk,walk,transport",Авиастроительный,0,0
kzn,"Татарстан Респ., Казань г., Советский, Азата Аббасова ул., д.23а",6400000,34.3,12.0,16.0,1,4,10,empty,empty,empty,brick,empty,empty,0,49.254726,55.786404,1,empty,"Горки,Проспект Победы","8,8","transport,transport",Советский,empty,1
kzn,"Республика Татарстан, Казань, улица Бурхана Шахиди",8208000,17.1,empty,empty,1,2,5,empty,0,2026,monolithBrick,empty,empty,empty,49.103952406081675,55.78680733222093,2,2,"Кремлёвская,Площадь Тукая,Суконная слобода","15,19,4","walk,walk,transport","Татарская слобода,Вахитовский",0,0
kzn,"Татарстан,Казань,Вахитовский, Большая Красная, 8",28400000,127.6,empty,empty,4,2,7,2007,empty,empty,empty,empty,empty,1,49.111319,55.798287,1,0,,,,"Центр,Вахитовский",empty,1
kzn,"Республика Татарстан, Казань, улица Аделя Кутуя",8040000,37.59,12.0,14.4,1,4,19,empty,0,2025,monolithBrick,empty,empty,empty,49.1862272408723,55.7778054230159,3,3,"Аметьево,Горки,Суконная слобода","3,3,4","transport,transport,transport",Советский,0,0
kzn,"Татарстан,Казань,Вахитовский, Бехтерева, 9а",21700000,120.0,empty,empty,3,5,9,2016,empty,empty,empty,empty,empty,0,49.119359,55.799674,1,0,,,,"Центр,Вахитовский",empty,1
kzn,"Республика Татарстан, Казань, улица Дулата Али",14390423,53.49,empty,32.8,3,10,15,empty,0,2026,monolith,empty,empty,empty,49.0969114232168,55.7656682060518,7,empty,"Площадь Тукая,Суконная слобода,Кремлёвская","4,5,5","transport,transport,transport",Вахитовский,0,0
kzn,"Татарстан,Казань,Советский Район, Мансура Хасанова, 19",8625000,49.88,empty,empty,2,12,20,2023,empty,empty,empty,empty,empty,1,49.227624,55.809241,1,1,Аметьево,3,transport,Советский,empty,1
kzn,"Республика Татарстан, Казань, улица Крылова",13652254,73.24,empty,37.8,3,15,25,empty,0,2025,monolith,underground,empty,empty,49.2041271495,55.7758082571,empty,empty,"Горки,Аметьево,Проспект Победы","3,4,4","transport,transport,transport","Дальний,Советский",0,0
kzn,"Татарстан,Казань,Советский Район, Стадионная, ЖК &quot;Смородина&quot;",3990000,25.0,5.0,empty,1,5,20,empty,empty,empty,empty,empty,empty,1,49.231352,55.870587,1,1,"Авиастроительная,Северный Вокзал,Козья слобода","14,15,15","transport,transport,transport","Дербышки,Советский",empty,1
kzn,"Республика Татарстан, Казань, Кировский район, микрорайон Адмиралтейская Слобода, Большая улица, 62",20170613,90.63,27.1,37.4,3,2,7,empty,0,2025,monolithBrick,empty,empty,empty,49.06024982208952,55.79674135044062,empty,1,"Кремлёвская,Козья слобода,Яшьлек","4,5,6","transport,transport,transport","Адмиралтейская слобода,Кировский",0,0
kzn,"Татарстан Респ., Казань г., Советский, Минская ул., д.37",10990000,65.0,13.4,33.0,2,4,10,2010,empty,empty,brick,empty,empty,0,49.237829,55.772563,1,empty,,,,"Азино-2,Советский",empty,1
kzn,"Республика Татарстан, Казань, улица Алексея Козина",28334406,87.68,28.0,36.0,3,14,24,empty,0,2024,monolith,empty,without,empty,49.1419199735711,55.8134541391244,3,3,"Козья слобода,Кремлёвская,Площадь Тукая","4,4,5","transport,transport,transport",Ново-Савиновский,0,0
kzn,"Татарстан,Казань,Кировский район, Шоссейная, 57 к 3",25990000,88.3,empty,47.1,3,22,25,2021,empty,empty,empty,empty,empty,1,49.089687,55.807749,1,1,,,,"Ягодная слобода,Кировский",empty,1
kzn,"Республика Татарстан, Казань, Адмиралтейская улица",11615000,49.92,16.2,22.6,2,2,8,empty,0,2025,monolithBrick,empty,empty,empty,49.0559795423,55.8032668647,10,empty,"Козья слобода,Яшьлек,Кремлёвская","5,5,5","transport,transport,transport","Адмиралтейская слобода,Кировский",0,0
kzn,"Татарстан,Казань,Кировский район, Чкалова, 9",6500000,46.3,empty,33.0,2,4,5,1970,empty,empty,empty,empty,empty,1,49.060708,55.820966,0,0,,,,"Пороховая слобода,Кировский",empty,1
kzn,"Республика Татарстан, Казань, улица Николая Ершова",17506720,54.88,6.4,30.8,2,3,20,empty,0,2026,monolithBrick,empty,empty,empty,49.17303114819275,55.79436295342587,empty,8,"Суконная слобода,Площадь Тукая,Аметьево","4,5,5","transport,transport,transport","Октябрьский городок,Советский",0,0
kzn,"Татарстан Респ., Казань г., Вахитовский, Амирхана Еники ул., д.17, литер Б",10050000,43.0,10.5,19.6,1,7,10,2012,empty,empty,monolith,empty,empty,0,49.152426,55.784638,1,empty,Суконная слобода,15,walk,"Калуга,Вахитовский",empty,1
kzn,"Республика Татарстан, Казань, улица Шаляпина, 32",28088558,81.14,empty,empty,3,9,9,empty,0,2023,monolithBrick,empty,rough,empty,49.139122,55.770178,empty,3,"Суконная слобода,Площадь Тукая,Аметьево","12,3,3","walk,transport,transport",Приволжский,0,0
kzn,"Татарстан,Казань,Приволжский, Военный городок - 2, 118",5700000,42.8,empty,empty,2,3,5,1974,empty,empty,empty,empty,empty,1,49.155875,55.752156,0,0,,,,"Теплоконтроль,Приволжский",empty,1
kzn,"Республика Татарстан, Казань, улица Галиаскара Камала",16043400,59.42,14.9,29.5,2,2,9,empty,0,2024,monolithBrick,empty,empty,empty,49.1069988860219,55.7805728270074,11,11,"Площадь Тукая,Кремлёвская,Суконная слобода","19,3,3","walk,transport,transport","Татарская слобода,Вахитовский",0,0
kzn,"Татарстан,Казань,Московский, Соловецких юнг, 1",17700000,98.7,empty,empty,3,13,15,2006,empty,empty,empty,empty,empty,1,49.079339,55.824354,1,1,,,,Московский,empty,1
kzn,"Республика Татарстан, Казань, Адмиралтейская улица",10302000,40.28,9.6,14.3,1,5,8,empty,0,2025,monolithBrick,empty,empty,empty,49.0559795423273,55.8032668647335,10,empty,"Козья слобода,Яшьлек,Кремлёвская","5,5,5","transport,transport,transport","Адмиралтейская слобода,Кировский",0,0
kzn,"Татарстан,Казань,Вахитовский, Качалова, 104 к 2",6500000,43.4,empty,empty,2,5,5,1966,empty,empty,empty,empty,empty,1,49.148877,55.772082,0,0,,,,Приволжский,empty,1
kzn,"Бирюзовая улица, 1, Казань, Республика Татарстан",7717300,69.3,empty,39.0,3,5,24,empty,0,2025,monolith,empty,empty,empty,48.894789,55.81957,empty,empty,,,,"Юдино,Кировский",0,0
kzn,"Татарстан Респ., Казань г., Приволжский, Абубекира Терегулова ул., д.10, к.а",14670000,82.2,14.2,47.0,3,2,9,2017,empty,empty,brick,empty,empty,0,49.206343,55.736174,2,empty,"Дубравная,Проспект Победы","19,7","walk,transport","Горки-3,Приволжский",empty,1
kzn,"Республика Татарстан, Казань, улица Николая Ершова",11328660,34.02,3.3,21.1,1,4,20,empty,0,2026,monolithBrick,empty,empty,empty,49.17303114819275,55.79436295342587,empty,8,"Суконная слобода,Площадь Тукая,Аметьево","4,5,5","transport,transport,transport","Октябрьский городок,Советский",0,0
kzn,"Татарстан,Казань,Приволжский, Оренбургский тракт, 138б",5200000,30.1,empty,empty,1,4,10,1997,empty,empty,empty,empty,empty,1,49.187577,55.728768,1,1,,,,"Солнечный,Приволжский",empty,1
kzn,"Республика Татарстан, Казань, улица Азата Аббасова",8627000,52.53,9.8,26.4,2,2,10,empty,0,2025,monolith,empty,empty,empty,49.250436086615544,55.7877395470497,15,empty,"Горки,Проспект Победы,Дубравная","7,7,8","transport,transport,transport",Советский,0,0
kzn,"Татарстан,Казань,Кировский район, Железнодорожников, 24",5600000,57.2,empty,42.6,3,4,5,1965,empty,empty,empty,empty,empty,1,48.895364,55.821563,0,0,,,,"Юдино,Кировский",empty,1
kzn,"Республика Татарстан, Казань, улица Галиаскара Камала",12535083,47.78,12.4,17.4,1,2,9,empty,0,2024,monolithBrick,empty,empty,empty,49.106998886,55.780572827,11,11,"Площадь Тукая,Кремлёвская,Суконная слобода","19,3,3","walk,transport,transport","Татарская слобода,Вахитовский",0,0
kzn,"Татарстан,Казань,Кировский район, Фрунзе, 9а",16500000,124.1,empty,69.6,4,1,9,2009,empty,empty,empty,empty,empty,1,49.049182,55.823186,1,0,,,,"Пороховая слобода,Кировский",empty,1
kzn,"Республика Татарстан, Казань, улица Серова",12000000,57.76,14.3,28.8,2,5,10,empty,0,2024,brick,empty,empty,empty,49.0742472724877,55.8247568649974,4,empty,"Яшьлек,Козья слобода,Северный Вокзал","10,3,3","walk,transport,transport",Московский,0,0
kzn,"Татарстан,Казань,Вахитовский, Хади Такташа, 123",12500000,81.8,empty,44.6,3,2,18,2013,empty,empty,empty,empty,empty,0,49.135564,55.766749,1,1,,,,Приволжский,empty,1
kzn,"Республика Татарстан, Казань, улица Азата Аббасова",7394000,35.67,9.7,14.0,1,2,10,empty,0,2025,monolith,empty,empty,empty,49.2504360866,55.787739547,15,empty,"Горки,Проспект Победы,Дубравная","7,7,8","transport,transport,transport",Советский,0,0
kzn,"Татарстан,Казань,Советский Район, Минская, 56",7000000,49.5,empty,empty,2,9,10,2003,empty,empty,empty,empty,empty,1,49.244377,55.770031,1,1,,,,"Азино-2,Советский",empty,1
kzn,"Республика Татарстан, Казань, Ачинская улица",10500000,56.74,11.9,32.8,2,2,9,empty,0,2024,monolith,empty,empty,empty,49.15236463361853,55.73851593074694,empty,empty,"Аметьево,Горки,Проспект Победы","5,5,6","transport,transport,transport","Теплоконтроль,Приволжский",0,0
kzn,"Татарстан,Казань,Советский Район, Академика Глушко, 19",7049000,51.8,empty,31.0,2,2,9,2000,empty,empty,empty,empty,empty,1,49.231235,55.785888,1,1,,,,"Азино-1,Советский",empty,1
kzn,"Республика Татарстан, Казань, улица Разведчика Ахмерова, 3",11000000,39.98,18.4,12.6,1,2,19,empty,1,2019,brick,empty,empty,empty,49.179546,55.797933,empty,empty,"Суконная слобода,Аметьево","5,6","transport,transport","Октябрьский городок,Советский",0,0
kzn,"Татарстан,Казань,Вахитовский, Островского, 88",16749000,49.7,empty,empty,2,5,5,1955,empty,empty,empty,empty,empty,1,49.130237,55.780932,0,0,,,,"Суконная слобода,Вахитовский",empty,1
kzn,"Республика Татарстан, Казань, улица Аделя Кутуя",12600000,73.78,7.9,48.5,3,23,24,empty,0,2024,monolithBrick,empty,empty,empty,49.1941913477924,55.7636604751246,1,2,"Горки,Аметьево,Проспект Победы","7,3,3","walk,transport,transport",Советский,0,0
kzn,"Татарстан,Казань,Советский Район, Родины, 26В",7500000,30.2,empty,empty,1,8,24,2021,empty,empty,empty,empty,empty,1,49.191952,55.764344,1,1,,,,Советский,empty,1
kzn,"Республика Татарстан, Казань, улица Серова",10500000,38.9,15.9,12.2,1,5,10,empty,0,2024,brick,empty,empty,empty,49.0742472724877,55.8247568649974,4,empty,"Яшьлек,Козья слобода,Северный Вокзал","10,3,3","walk,transport,transport",Московский,0,0
kzn,"Республика Татарстан, Казань, Ягодинская улица",17622311,87.9,empty,51.4,3,9,15,empty,0,2025,monolith,empty,empty,empty,49.0745944840974,55.8112952682667,empty,empty,"Козья слобода,Яшьлек,Кремлёвская","2,3,4","transport,transport,transport","Ягодная слобода,Кировский",0,0
kzn,"Республика Татарстан, Казань, Кировский район, микрорайон Адмиралтейская Слобода, Большая улица, 76",19071936,84.9,18.0,35.3,3,2,7,empty,0,2025,monolithBrick,empty,empty,empty,49.05791435581946,55.79649528513446,empty,1,"Кремлёвская,Козья слобода,Яшьлек","5,5,6","transport,transport,transport","Адмиралтейская слобода,Кировский",0,0
kzn,"Татарстан,Казань,Советский Район, Зур Урам, 1 к 4",11300000,53.1,empty,empty,2,7,10,2021,empty,empty,empty,empty,empty,1,49.203818,55.802538,1,1,,,,Советский,empty,1
kzn,"Республика Татарстан, Казань, Ачинская улица",7800000,28.95,7.2,12.0,1,6,9,empty,0,2024,monolith,empty,empty,empty,49.15236463361853,55.73851593074694,empty,empty,"Аметьево,Горки,Проспект Победы","5,5,6","transport,transport,transport","Теплоконтроль,Приволжский",0,0
kzn,"Татарстан,Казань,Вахитовский, Достоевского, 57",11995000,48.0,empty,empty,1,11,16,2014,empty,empty,empty,empty,empty,1,49.152489,55.788343,1,0,,,,"Калуга,Вахитовский",empty,1
kzn,"Республика Татарстан, Казань, Ноксинская улица",8028000,40.51,5.1,20.3,2,2,10,empty,0,2025,monolith,empty,empty,empty,49.2297035052,55.8086893374,8,empty,"Горки,Аметьево,Суконная слобода","9,9,10","transport,transport,transport",Советский,0,0
kzn,"Татарстан,Казань,Вахитовский, Портовая, 37 к 1",12170000,64.1,empty,34.9,2,1,10,2022,empty,empty,empty,empty,empty,1,49.093577,55.768491,0,1,,,,Вахитовский,empty,1
kzn,"Республика Татарстан, Казань, Ноксинская улица",7020000,32.62,5.4,17.9,1,4,10,empty,0,2025,monolith,empty,empty,empty,49.2297035052,55.8086893374,8,empty,"Горки,Аметьево,Суконная слобода","9,9,10","transport,transport,transport",Советский,0,0
kzn,"Татарстан,Казань,Кировский район, Проточная, 6",12283000,66.0,empty,35.5,2,4,17,2016,empty,empty,empty,empty,empty,1,49.085214,55.813561,1,1,,,,"Ягодная слобода,Кировский",empty,1
kzn,"Казань, район Ново-Савиновский, улица Сибгата Хакима",26330000,90.91,15.3,45.8,3,17,21,empty,0,2024,monolithBrick,empty,empty,empty,49.1444954293,55.8148569678,10,6,"Козья слобода,Кремлёвская,Площадь Тукая","4,5,5","transport,transport,transport","кварталы 68, 69,Ново-Савиновский",0,0
kzn,"Республика Татарстан, Казань, улица Николая Ершова",20503000,88.04,15.9,48.0,3,7,10,empty,0,2024,monolith,empty,empty,empty,49.180664893,55.8024059306,4,empty,,,,"Куба,Советский",0,0
kzn,"Татарстан,Казань,Советский Район, Чингиза Айтматова, 13 к 2",12650000,67.4,empty,empty,2,10,16,2020,empty,empty,empty,empty,empty,1,49.237173,55.767357,1,1,,,,"Азино-2,Советский",empty,1
kzn,"Республика Татарстан, Казань, Вознесенский тракт",12767192,65.92,empty,43.4,3,8,22,empty,0,2026,monolith,empty,empty,empty,49.2037069657,55.7770410324,2,7,"Горки,Аметьево,Проспект Победы","3,4,5","transport,transport,transport","Дальний,Советский",0,0
kzn,"Татарстан,Казань,Советский Район, Толбухина, 9",12743000,74.7,empty,43.2,3,4,10,2004,empty,empty,empty,empty,empty,2,49.16953,55.781266,0,0,,,,Советский,empty,1
kzn,"Республика Татарстан, Казань, жилой комплекс Сиберово",10952920,68.2,7.2,30.1,3,4,8,empty,0,2026,monolith,open,empty,1,49.1898767566498,55.8183604467516,2,9,"Площадь Тукая,Суконная слобода,Козья слобода","8,8,9","transport,transport,transport",Советский,0,0
kzn,"Татарстан,Казань,Вахитовский, Вишневского, 61а",12800000,60.1,empty,empty,2,10,20,2022,empty,empty,empty,empty,empty,1,49.149255,55.780203,1,1,,,,"Калуга,Вахитовский",empty,1
kzn,"Республика Татарстан, Казань, улица Михаила Миля, 2",10630000,75.87,12.6,38.1,3,2,15,empty,0,2025,monolithBrick,empty,empty,empty,49.09257571296652,55.84552550720443,1,4,"Северный Вокзал,Авиастроительная,Яшьлек","12,19,3","walk,walk,transport",Авиастроительный,0,0
kzn,"Республика Татарстан, Казань, улица Мансура Хасанова, 13А",14230000,77.45,12.5,45.1,3,2,24,empty,0,2022,monolithBrick,empty,empty,empty,49.184496,55.780345,1,4,"Аметьево,Горки,Суконная слобода","3,3,4","transport,transport,transport",Советский,0,0
kzn,"Республика Татарстан, Казань, улица Сары Садыковой, 9",27000000,79.6,empty,empty,3,3,3,empty,1,2022,brick,empty,empty,empty,49.113720390212535,55.77758151509333,empty,empty,"Площадь Тукая,Суконная слобода,Кремлёвская","17,3,3","walk,transport,transport","Татарская слобода,Вахитовский",0,0
kzn,"Республика Татарстан, Казань, Адмиралтейская улица",20200000,81.94,13.9,38.3,3,4,8,empty,0,2025,monolithBrick,empty,empty,empty,49.0559795423,55.8032668647,10,empty,"Козья слобода,Яшьлек,Кремлёвская","5,5,5","transport,transport,transport","Адмиралтейская слобода,Кировский",0,0
kzn,"Татарстан,Казань,Приволжский, Карбышева, 12а",14000000,71.1,5.0,empty,2,18,26,empty,empty,empty,empty,empty,empty,0,49.1669708644,55.7524033292,1,1,"Аметьево,Горки,Проспект Победы","2,3,4","transport,transport,transport","Горки-1,Приволжский",empty,1
kzn,"Республика Татарстан, Казань, улица Николая Ершова",24640200,76.05,7.5,46.7,3,3,20,empty,0,2026,monolithBrick,empty,empty,empty,49.17303114819275,55.79436295342587,empty,8,"Суконная слобода,Площадь Тукая,Аметьево","4,5,5","transport,transport,transport","Октябрьский городок,Советский",0,0
kzn,"Республика Татарстан, Казань, улица Галиаскара Камала",19617150,76.93,5.5,45.9,3,8,9,empty,0,2024,monolithBrick,empty,empty,empty,49.1069988860219,55.7805728270074,11,11,"Площадь Тукая,Кремлёвская,Суконная слобода","19,3,3","walk,transport,transport","Татарская слобода,Вахитовский",0,0
kzn,"Татарстан,Казань,Московский, Декабристов, 191 к 93",9499000,81.6,empty,empty,3,2,7,1955,empty,empty,empty,empty,empty,1,49.080183,55.836408,1,0,,,,"поселок Урицкого,Московский",empty,1
kzn,"Республика Татарстан, Казань, улица Азата Аббасова",11600000,75.64,14.7,36.6,3,5,10,empty,0,2025,monolith,empty,empty,empty,49.2504360866,55.787739547,15,empty,"Горки,Проспект Победы,Дубравная","7,7,8","transport,transport,transport",Советский,0,0
kzn,"Республика Татарстан, Казань, Ачинская улица",14000000,85.06,22.4,45.6,3,3,9,empty,0,2024,monolith,empty,empty,empty,49.15236463361853,55.73851593074694,empty,empty,"Аметьево,Горки,Проспект Победы","5,5,6","transport,transport,transport","Теплоконтроль,Приволжский",0,0
kzn,"Татарстан,Казань,Ново-Савиновский, Чистопольская, 61",7390000,32.9,empty,empty,1,2,10,1994,empty,empty,empty,empty,empty,1,49.130669,55.820526,1,0,,,,Ново-Савиновский,empty,1
kzn,"Республика Татарстан, Казань, Ноксинская улица",15483000,85.38,22.5,40.8,3,2,10,empty,0,2025,monolith,empty,empty,empty,49.2297035052,55.8086893374,8,empty,"Горки,Аметьево,Суконная слобода","9,9,10","transport,transport,transport",Советский,0,0
kzn,"Татарстан,Казань,Приволжский, Братьев Батталовых, 20 к 2",8600000,35.0,empty,15.0,1,21,25,2019,empty,empty,empty,empty,empty,1,49.186696,55.722041,1,1,,,,Приволжский,empty,1
kzn,"Республика Татарстан, Казань, улица Петра Полушкина",20343120,121.09,8.2,72.2,4,2,17,empty,0,2026,monolith,empty,empty,empty,49.2085024100017,55.784119592628,9,empty,"Горки,Аметьево,Проспект Победы","4,5,6","transport,transport,transport",Советский,0,0
kzn,"Республика Татарстан, Казань, улица Алексея Козина",120234796,179.71,44.2,empty,4,20,28,empty,0,2025,monolith,empty,without,empty,49.1425905258247,55.8121643119849,2,1,"Козья слобода,Кремлёвская,Площадь Тукая","4,4,5","transport,transport,transport",Ново-Савиновский,0,0
kzn,"Татарстан,Казань,Ново-Савиновский, Чистопольская, 88",20500000,75.6,empty,empty,2,5,22,2021,empty,empty,empty,empty,empty,1,49.146551,55.818746,1,1,,,,"кварталы 68, 69,Ново-Савиновский",empty,1
kzn,"Республика Татарстан, Казань, улица Габдуллы Тукая",28754000,130.7,empty,empty,4,2,4,empty,0,2025,monolithBrick,empty,empty,empty,49.11855565012221,55.772898856636345,3,empty,"Площадь Тукая,Суконная слобода,Кремлёвская","2,2,4","transport,transport,transport","Татарская слобода,Вахитовский",0,0
kzn,"Республика Татарстан, Казань, улица Академика Губкина",18580000,122.85,55.5,44.3,4,19,19,empty,1,2023,monolithBrick,empty,fine,empty,49.195973465349,55.8018335612086,10,empty,"Суконная слобода,Аметьево,Горки","7,7,7","transport,transport,transport",Советский,0,0
kzn,"Татарстан,Казань,Вахитовский, Право-Булачная, 51",22859000,71.0,empty,empty,2,2,6,2021,empty,empty,empty,empty,empty,0,49.1174,55.78608,1,0,,,,Вахитовский,empty,1
kzn,"Республика Татарстан, Казань, улица Сары Садыковой, 9",45666832,232.4,empty,empty,4,3,3,empty,1,2022,brick,empty,empty,empty,49.113720390212535,55.77758151509333,empty,empty,"Площадь Тукая,Суконная слобода,Кремлёвская","17,3,3","walk,transport,transport","Татарская слобода,Вахитовский",0,0
kzn,"Татарстан,Казань,Советский Район, Анаса Тазетдинова, 4",10000000,51.5,empty,empty,2,8,9,2023,empty,empty,empty,empty,empty,1,49.231468,55.806064,1,1,Горки,9,transport,"Малые Клыки,Советский",empty,1
kzn,"Республика Татарстан, Казань, Адмиралтейская улица",27270000,107.25,24.8,48.3,4,1,8,empty,0,2025,monolithBrick,empty,empty,empty,49.0559795423,55.8032668647,10,empty,"Козья слобода,Яшьлек,Кремлёвская","5,5,5","transport,transport,transport","Адмиралтейская слобода,Кировский",0,0
kzn,"Татарстан Респ., Казань г., Советский, Николая Ершова ул.",8990000,43.0,14.9,15.7,1,2,10,empty,empty,2024,monolith,empty,without,0,49.180664893,55.8024059306,2,empty,,,,"Куба,Советский",empty,1
kzn,"Республика Татарстан, Казань, улица Николая Ершова",95220000,190.44,7.0,104.6,4,17,20,empty,0,2026,monolithBrick,empty,empty,empty,49.1730311482,55.7943629534,empty,8,"Суконная слобода,Площадь Тукая,Аметьево","4,5,5","transport,transport,transport","Октябрьский городок,Советский",0,0
kzn,"Татарстан,Казань,Авиастроительный, Симонова, 18 к 3",8100000,38.0,5.0,empty,1,3,11,empty,empty,empty,empty,empty,empty,1,49.089939,55.865131,1,1,,,,"Караваево,Авиастроительный",empty,1
kzn,"Республика Татарстан, Казань, улица Галиаскара Камала",21456000,89.4,5.4,59.2,4,8,9,empty,0,2024,monolithBrick,empty,empty,empty,49.1069988860219,55.7805728270074,11,11,"Площадь Тукая,Кремлёвская,Суконная слобода","19,3,3","walk,transport,transport","Татарская слобода,Вахитовский",0,0
kzn,"Татарстан Респ., Казань г., Приволжский, Абубекира Терегулова ул.",7700000,34.83,9.0,16.0,1,5,19,empty,empty,2025,monolith,empty,fine,0,49.205690154,55.7375168138,2,empty,"Дубравная,Проспект Победы,Горки","16,2,4","walk,transport,transport","Горки-3,Приволжский",empty,1
kzn,"Республика Татарстан, Казань, улица Петра Полушкина",9526790,38.57,6.3,27.2,1,14,25,empty,0,2026,monolithBrick,empty,empty,2,49.2124506217,55.7879645408,4,13,"Горки,Аметьево,Проспект Победы","5,6,6","transport,transport,transport",Советский,0,0
kzn,"Татарстан,Казань,Ново-Савиновский, Четаева, 43а",9990000,34.5,empty,20.0,1,15,25,2021,empty,empty,empty,empty,empty,1,49.113457,55.823909,1,1,,,,Ново-Савиновский,empty,1
kzn,"Республика Татарстан, Казань, улица Петра Полушкина",8979800,38.05,10.1,18.4,1,9,17,empty,0,2026,monolith,empty,empty,empty,49.2085024100017,55.784119592628,9,empty,"Горки,Аметьево,Проспект Победы","4,5,6","transport,transport,transport",Советский,0,0
kzn,"Россия, Татарстан республика, город Казань, улица Виктора Сажинова, дом 3",5400000,62.8,8.5,35.7,2,15,18,empty,empty,empty,monolithBrick,open,empty,1,48.875852,55.864283,empty,empty,,,,"Залесный,Кировский",0,1
kzn,"Республика Татарстан, Казань, улица Петра Полушкина",13129790,68.03,23.1,23.7,2,6,25,empty,0,2026,monolithBrick,empty,empty,4,49.2124506216715,55.7879645407718,4,13,"Горки,Аметьево,Проспект Победы","5,6,6","transport,transport,transport",Советский,0,0
kzn,"Россия, Республика Татарстан, Казань, улица Муштари, 15",27500000,95.0,empty,empty,4,5,6,1994,empty,empty,brick,ground,empty,1,49.133992,55.790631,1,empty,"Площадь Тукая,Суконная слобода,Кремлёвская","11,6,6","walk,transport,transport",Вахитовский,0,1
kzn,"Республика Татарстан, Казань, Фермское шоссе",7405000,39.5,empty,empty,1,3,14,empty,0,2026,monolithBrick,empty,empty,empty,49.1576464034,55.7182984219,empty,empty,"Проспект Победы,Дубравная,Горки","7,7,8","transport,transport,transport",Приволжский,0,0
kzn,"Россия, Республика Татарстан, Казань, Гвардейская улица, 40",5290000,43.0,5.6,empty,2,4,5,1966,empty,empty,brick,empty,empty,empty,49.170194,55.781605,empty,empty,"Горки,Суконная слобода,Аметьево","5,6,7","transport,transport,transport",Советский,0,1
kzn,"Республика Татарстан, Казань, улица Хади Атласи",12126812,38.38,empty,empty,1,6,9,empty,0,2025,monolithBrick,empty,empty,empty,49.1468338783,55.7846609632,1,1,"Суконная слобода,Площадь Тукая,Аметьево","13,2,4","walk,transport,transport",Вахитовский,0,0
kzn,"Россия, Татарстан республика, город Казань, улица Сибирский Тракт, дом 23",6400000,72.0,8.0,empty,3,3,4,empty,empty,empty,brick,open,empty,empty,49.181118,55.810658,empty,empty,,,,"Куба,Советский",empty,1
kzn,"Республика Татарстан, Казань, улица Хади Атласи",16797393,55.01,empty,empty,2,6,9,empty,0,2025,monolithBrick,empty,empty,empty,49.1468338782952,55.7846609631691,1,1,"Суконная слобода,Площадь Тукая,Аметьево","13,2,4","walk,transport,transport",Вахитовский,0,0
kzn,"Россия, Татарстан республика, город Казань, улица Челюскина, дом 60А",3050000,32.0,7.0,19.0,1,1,2,1958,empty,empty,brick,open,empty,empty,49.08207,55.869864,empty,empty,Авиастроительная,4,transport,"Свердлова,Авиастроительный",0,1
kzn,"Республика Татарстан, Казань, улица Хади Атласи",15726750,52.82,empty,empty,2,3,9,empty,0,2025,monolithBrick,empty,empty,empty,49.1468338782952,55.7846609631691,1,1,"Суконная слобода,Площадь Тукая,Аметьево","13,2,4","walk,transport,transport",Вахитовский,0,0
kzn,"Россия, Татарстан республика, город Казань, улица Октябрьская, дом 30",4500000,30.5,7.8,empty,1,1,2,1957,empty,empty,brick,open,empty,empty,49.094305,55.840988,empty,empty,"Северный Вокзал,Яшьлек,Авиастроительная","12,4,5","walk,transport,transport","квартал 20,Ново-Савиновский",0,1
kzn,"Республика Татарстан, Казань, улица Галиаскара Камала",18372450,69.33,10.8,32.5,2,3,9,empty,0,2024,monolithBrick,empty,empty,empty,49.1069988860219,55.7805728270074,11,11,"Площадь Тукая,Кремлёвская,Суконная слобода","19,3,3","walk,transport,transport","Татарская слобода,Вахитовский",0,0
kzn,"Россия, Татарстан республика, город Казань, улица Малая Красная, дом 6",62000000,165.2,24.0,empty,3,3,5,empty,empty,empty,brick,empty,empty,1,49.128513,55.797878,empty,empty,,,,Вахитовский,0,1
kzn,"Республика Татарстан, Казань, улица Петра Полушкина",11961660,64.31,10.9,31.3,2,6,17,empty,0,2026,monolith,empty,empty,empty,49.20850241,55.7841195926,9,empty,"Горки,Аметьево,Проспект Победы","4,5,6","transport,transport,transport",Советский,0,0
kzn,"Россия, Татарстан республика, город Казань, улица Приволжская, дом 210",9250000,36.6,7.0,empty,1,1,7,empty,empty,empty,brick,open,empty,empty,48.953916,55.80099,empty,empty,,,,"Красная горка,Кировский",0,1
kzn,"Республика Татарстан, Казань, улица Петра Полушкина",11770000,53.5,12.5,24.3,2,15,24,empty,0,2026,monolithBrick,empty,empty,3,49.20781576449332,55.788109625441464,4,13,"Горки,Аметьево,Проспект Победы","5,5,6","transport,transport,transport",Советский,0,0
kzn,"Республика Татарстан, Казань, Чистопольская улица, 71А",21000000,104.2,empty,empty,4,12,20,empty,empty,empty,empty,empty,empty,1,49.144862,55.820035,empty,empty,Козья слобода,4,transport,"кварталы 68, 69,Ново-Савиновский",0,1
kzn,"Республика Татарстан, Казань, улица Николая Ершова",24809610,80.29,8.6,51.6,2,3,20,empty,0,2026,monolithBrick,empty,empty,empty,49.1730311482,55.7943629534,empty,8,"Суконная слобода,Площадь Тукая,Аметьево","4,5,5","transport,transport,transport","Октябрьский городок,Советский",0,0
kzn,"Россия, Татарстан республика, город Казань, улица Стадионная, дом 4",6700000,34.0,8.0,empty,1,17,23,2022,empty,empty,monolith,open,empty,1,49.230768,55.869597,empty,empty,,,,"Дербышки,Советский",0,1
kzn,"Республика Татарстан, Казань, улица Петра Полушкина",13558560,72.12,22.4,26.6,2,15,24,empty,0,2026,monolithBrick,empty,empty,3,49.20781576449332,55.788109625441464,4,13,"Горки,Аметьево,Проспект Победы","5,5,6","transport,transport,transport",Советский,0,0
kzn,"Россия, Татарстан республика, город Казань, улица Короленко, дом 71",6899000,57.8,6.0,empty,3,2,5,empty,empty,empty,panel,open,empty,1,49.099811,55.833809,empty,empty,"Яшьлек,Северный Вокзал,Козья слобода","18,4,6","walk,transport,transport","квартал 11,Ново-Савиновский",empty,1
kzn,"Республика Татарстан, Казань, улица Петра Полушкина",8551420,35.78,9.6,15.9,1,2,17,empty,0,2026,monolith,empty,empty,empty,49.2085024100017,55.784119592628,9,empty,"Горки,Аметьево,Проспект Победы","4,5,6","transport,transport,transport",Советский,0,0
kzn,"Россия, Татарстан республика, город Казань, улица Уютная, дом 4",6300000,37.7,9.0,empty,1,7,19,empty,0,2025,monolith,empty,empty,empty,49.201312,55.689674,empty,empty,,,,Приволжский,0,1
kzn,"Республика Татарстан, Казань, Южно-Промышленная улица",8986000,62.0,empty,empty,2,8,18,empty,0,2026,monolithBrick,empty,empty,empty,49.12177333083945,55.71736632804304,empty,7,"Аметьево,Горки,Проспект Победы","9,10,10","transport,transport,transport",Приволжский,0,0
kzn,"Россия, Республика Татарстан, Казань, улица Воровского, 21",6700000,55.3,6.4,42.3,3,3,5,1962,empty,empty,brick,empty,empty,1,49.078979,55.840624,0,0,"Северный Вокзал,Яшьлек,Авиастроительная","2,18,4","walk,walk,transport","поселок Урицкого,Московский",empty,1
kzn,"Республика Татарстан, Казань, Советский район, жилой комплекс Светлая Долина",8555870,52.49,8.4,29.0,2,2,25,empty,0,2025,monolith,empty,without,empty,49.2405413082094,55.7987501492074,4,4,"Горки,Проспект Победы,Аметьево","8,9,9","transport,transport,transport","Малые Клыки,Советский",0,0
kzn,"Республика Татарстан, Казань городской округ, Казань, Ямашева, 101",19700000,106.1,11.6,74.2,4,5,10,empty,empty,empty,brick,ground,empty,0,49.152542,55.824329,1,0,,,,"кварталы 68, 69,Ново-Савиновский",empty,1
kzn,"Республика Татарстан, Казань, Ягодинская улица",16401399,86.7,empty,39.0,2,3,8,empty,0,2025,monolith,empty,empty,empty,49.0746052129,55.8105400631,empty,empty,"Козья слобода,Яшьлек,Кремлёвская","2,3,4","transport,transport,transport","Ягодная слобода,Кировский",0,0
kzn,"Республика Татарстан, Казань городской округ, Казань, Победы пр-кт, 178а",8500000,48.0,11.0,24.2,1,2,9,empty,empty,empty,brick,ground,empty,0,49.221066,55.79018,1,0,,,,"Азино-1,Советский",empty,1
kzn,"Республика Татарстан, Казань, улица Дулата Али",17679295,72.34,empty,31.0,2,11,15,empty,0,2025,monolith,empty,empty,empty,49.0981988835,55.7657528879,8,1,"Площадь Тукая,Суконная слобода,Кремлёвская","4,5,5","transport,transport,transport",Вахитовский,0,0
kzn,"Республика Татарстан, Казань, улица Академика Губкина",9400000,58.0,15.2,23.8,2,7,19,empty,1,2023,monolith,empty,without,1,49.1959734653,55.8018335612,empty,empty,"Суконная слобода,Аметьево,Площадь Тукая","6,7,7","transport,transport,transport",Советский,0,1
kzn,"Республика Татарстан, Казань, Советский район, жилой комплекс Светлая Долина",8519670,47.07,8.1,26.8,2,16,19,empty,0,2024,monolith,empty,empty,1,49.2394791534,55.7995690407,2,empty,"Горки,Проспект Победы,Аметьево","8,9,9","transport,transport,transport","Малые Клыки,Советский",0,0
kzn,"Россия, Республика Татарстан, Казань, улица Академика Губкина, 12Б",9500000,57.0,17.0,23.0,3,7,12,empty,empty,empty,brick,empty,empty,1,49.195473,55.802052,empty,empty,"Суконная слобода,Аметьево,Горки","9,11,11","transport,transport,transport",Советский,0,1
kzn,"Республика Татарстан, Казань, улица Галиаскара Камала",17800050,67.17,12.7,34.6,2,8,9,empty,0,2024,monolithBrick,empty,empty,empty,49.1069988860219,55.7805728270074,11,11,"Площадь Тукая,Кремлёвская,Суконная слобода","19,3,3","walk,transport,transport","Татарская слобода,Вахитовский",0,0
kzn,"Республика Татарстан, Казань городской округ, Казань, Карбышева ул, 12а",10900000,71.12,14.7,37.3,2,7,23,empty,0,2024,monolithBrick,underground,rough,0,49.1669708644,55.7524033292,1,0,"Аметьево,Горки,Проспект Победы","2,3,4","transport,transport,transport","Горки-1,Приволжский",empty,1
kzn,"Республика Татарстан, Казань, Фермское шоссе",12522000,76.4,empty,empty,3,4,14,empty,0,2026,monolithBrick,empty,empty,empty,49.1576464034,55.7182984219,empty,empty,"Проспект Победы,Дубравная,Горки","7,7,8","transport,transport,transport",Приволжский,0,0
kzn,"Республика Татарстан, Казань городской округ, Казань, Алексея Козина ул, 3а",13950000,56.9,11.3,28.2,2,2,16,empty,empty,empty,monolithBrick,ground,empty,1,49.136337,55.814791,empty,empty,,,,"кварталы 68, 69,Ново-Савиновский",empty,1
kzn,"Республика Татарстан, Казань, Южно-Промышленная улица",9308000,66.3,empty,empty,2,4,18,empty,0,2026,monolithBrick,empty,empty,empty,49.12177333083945,55.71736632804304,empty,7,"Аметьево,Горки,Проспект Победы","9,10,10","transport,transport,transport",Приволжский,0,0
kzn,"Республика Татарстан, Казань городской округ, Казань, Алексея Козина ул, 3а",15500000,62.99,12.8,32.6,2,2,16,empty,empty,empty,monolithBrick,ground,empty,0,49.136337,55.814791,1,0,,,,"кварталы 68, 69,Ново-Савиновский",empty,1
kzn,"Республика Татарстан, Казань, Южно-Промышленная улица",6760000,41.5,empty,empty,1,4,18,empty,0,2026,monolithBrick,empty,empty,empty,49.12177333083945,55.71736632804304,empty,7,"Аметьево,Горки,Проспект Победы","9,10,10","transport,transport,transport",Приволжский,0,0
kzn,"Республика Татарстан, Казань, Фермское шоссе",10598750,61.25,empty,empty,2,4,9,empty,0,2024,monolithBrick,empty,empty,empty,49.1587148995,55.7369353649,3,empty,"Аметьево,Горки,Проспект Победы","5,5,5","transport,transport,transport","Теплоконтроль,Приволжский",0,0
kzn,"Республика Татарстан, городской округ Казань, Казань, улица Волкова, д.12",21445000,68.15,11.0,empty,3,4,7,empty,empty,empty,monolith,empty,empty,1,49.135286,55.782517,empty,empty,,,,Вахитовский,0,1
kzn,"Республика Татарстан, Казань, Ягодинская улица",14485234,71.5,empty,41.6,2,5,8,empty,0,2025,monolith,empty,empty,empty,49.0746052129,55.8105400631,empty,empty,"Козья слобода,Яшьлек,Кремлёвская","2,3,4","transport,transport,transport","Ягодная слобода,Кировский",0,0
kzn,"Республика Татарстан, Казань, улица Достоевского, 57",24568700,81.7,13.0,58.3,3,6,18,2021,empty,empty,monolith,underground,empty,0,49.152489,55.788343,1,1,"Суконная слобода,Площадь Тукая,Аметьево","2,3,4","transport,transport,transport","Калуга,Вахитовский",0,1
kzn,"Республика Татарстан, Казань, Фермское шоссе",10872000,59.0,empty,empty,2,3,9,empty,0,2024,monolithBrick,empty,empty,empty,49.1587148994733,55.7369353649008,3,empty,"Аметьево,Горки,Проспект Победы","5,5,5","transport,transport,transport","Теплоконтроль,Приволжский",0,0
kzn,"Республика Татарстан, Казань, улица Гагарина, 79",5250000,36.3,5.5,25.8,2,5,5,1957,empty,empty,brick,empty,empty,empty,49.090199,55.837505,empty,empty,,,,"квартал 20,Ново-Савиновский",0,1
kzn,"Республика Татарстан, Казань, улица Николая Ершова",12177490,36.79,4.7,21.2,1,3,20,empty,0,2026,monolithBrick,empty,empty,empty,49.17303114819275,55.79436295342587,empty,8,"Суконная слобода,Площадь Тукая,Аметьево","4,5,5","transport,transport,transport","Октябрьский городок,Советский",0,0
kzn,"Республика Татарстан, Казань, улица Айдарова, 8А",5400000,43.0,6.0,28.0,2,4,5,1968,empty,empty,brick,empty,empty,empty,49.089499,55.868092,0,0,,,,"Караваево,Авиастроительный",0,1
kzn,"Республика Татарстан, Казань, улица Николая Ершова",20695440,65.08,6.9,35.2,2,5,20,empty,0,2026,monolithBrick,empty,empty,empty,49.17303114819275,55.79436295342587,empty,8,"Суконная слобода,Площадь Тукая,Аметьево","4,5,5","transport,transport,transport","Октябрьский городок,Советский",0,0
kzn,"420044, Респ Татарстан, г Казань, Московский р-н, ул Енисейская, д 4А",7500000,33.9,9.0,17.0,1,2,7,empty,empty,empty,brick,empty,empty,empty,49.085582,55.835746,1,empty,,,,"поселок Урицкого,Московский",0,1
kzn,"Республика Татарстан, Казань, Фермское шоссе",10379000,60.6,empty,empty,2,2,14,empty,0,2026,monolithBrick,empty,empty,empty,49.1576464034,55.7182984219,empty,empty,"Проспект Победы,Дубравная,Горки","7,7,8","transport,transport,transport",Приволжский,0,0
kzn,"Татарстан,Казань, улица Бухарская,дом 32к1",7800000,41.0,12.0,18.0,1,4,16,empty,empty,empty,monolithBrick,empty,empty,empty,49.20654,55.773889,1,empty,,,,"Дальний,Советский",0,1
kzn,"Республика Татарстан, Казань, Советский район, жилой комплекс Светлая Долина",7297850,35.95,8.6,16.3,1,13,25,empty,0,2025,monolith,empty,without,empty,49.2405413082094,55.7987501492074,4,4,"Горки,Проспект Победы,Аметьево","8,9,9","transport,transport,transport","Малые Клыки,Советский",0,0
kzn,"Россия, Республика Татарстан, Казань, Бирюзовая улица, 37",8100000,74.3,13.0,52.0,3,2,9,empty,empty,empty,brick,empty,empty,empty,48.876032,55.818994,empty,empty,,,,"Юдино,Кировский",0,1
kzn,"Республика Татарстан, Казань, улица Хади Атласи",28606885,94.92,empty,empty,3,6,9,empty,0,2025,monolithBrick,empty,empty,empty,49.1468338782952,55.7846609631691,1,1,"Суконная слобода,Площадь Тукая,Аметьево","13,2,4","walk,transport,transport",Вахитовский,0,0
kzn,"Россия, Республика Татарстан, Казань, улица Зои Космодемьянской, 1",17450000,63.4,empty,empty,1,4,5,2005,empty,empty,brick,empty,empty,0,49.11758,55.799264,empty,empty,"Кремлёвская,Площадь Тукая,Козья слобода","12,4,8","walk,transport,transport","Центр,Вахитовский",0,1
kzn,"Республика Татарстан, Казань, улица Хади Атласи",16660512,56.16,empty,empty,2,3,9,empty,0,2025,monolithBrick,empty,empty,empty,49.1468338782952,55.7846609631691,1,1,"Суконная слобода,Площадь Тукая,Аметьево","13,2,4","walk,transport,transport",Вахитовский,0,0
kzn,"Республика Татарстан, Казань, улица Бурхана Шахиди",9673800,21.03,empty,empty,1,3,5,empty,0,2026,monolithBrick,empty,empty,empty,49.1039524061,55.7868073322,2,2,"Кремлёвская,Площадь Тукая,Суконная слобода","15,19,4","walk,walk,transport","Татарская слобода,Вахитовский",0,0
kzn,"Республика Татарстан, Казань, Фермское шоссе",8211160,37.88,empty,empty,1,2,9,empty,0,2024,monolithBrick,empty,empty,empty,49.1587148994733,55.7369353649008,3,empty,"Аметьево,Горки,Проспект Победы","5,5,5","transport,transport,transport","Теплоконтроль,Приволжский",0,0
kzn,"Республика Татарстан, Казань, Чистопольская улица, 86/10",14990000,57.5,23.9,14.5,2,5,22,2017,empty,empty,monolithBrick,underground,empty,0,49.143218,55.818736,1,1,"Козья слобода,Кремлёвская,Яшьлек","5,8,8","transport,transport,transport","кварталы 68, 69,Ново-Савиновский",0,1
kzn,"Республика Татарстан, Казань, Ягодинская улица",18408326,100.1,empty,57.8,3,3,15,empty,0,2025,monolith,empty,empty,empty,49.0745944840974,55.8112952682667,empty,empty,"Козья слобода,Яшьлек,Кремлёвская","2,3,4","transport,transport,transport","Ягодная слобода,Кировский",0,0
kzn,"Татарстан,Казань, улица Ярышлар,дом 6",3850000,25.0,5.0,15.0,1,9,19,empty,empty,empty,monolithBrick,empty,empty,empty,49.201707,55.680235,1,empty,,,,Приволжский,0,0
kzn,"Республика Татарстан, Казань, улица Петра Полушкина",15127200,76.4,5.5,44.0,3,18,22,empty,0,2026,monolith,empty,empty,empty,49.2085453253462,55.7833457209088,12,empty,"Горки,Аметьево,Проспект Победы","4,5,6","transport,transport,transport",Советский,0,0
kzn,"Татарстан Респ., Казань г., Приволжский, Гаражная 2-я ул., д.4",2600000,22.8,3.9,13.9,1,4,5,1978,empty,empty,brick,empty,empty,0,49.108705,55.744161,empty,empty,Площадь Тукая,9,transport,"Поповка,Приволжский",empty,0
kzn,"Республика Татарстан, Казань, улица Николая Ершова",12733000,36.38,3.3,21.4,1,11,20,empty,0,2026,monolithBrick,empty,empty,empty,49.17303114819275,55.79436295342587,empty,8,"Суконная слобода,Площадь Тукая,Аметьево","4,5,5","transport,transport,transport","Октябрьский городок,Советский",0,0
kzn,"Россия, Татарстан, Казань, Кировский, ул. Выборгская, 2",3890000,47.9,7.3,27.1,2,1,5,1974,empty,empty,brick,empty,empty,empty,49.033462,55.842747,empty,empty,,,,"Левченко,Московский",empty,0
kzn,"Республика Татарстан, Казань, улица Шаляпина",23930890,76.16,empty,44.2,2,4,10,empty,0,2026,monolithBrick,underground,empty,empty,49.14602836378382,55.77400507398286,empty,2,"Суконная слобода,Аметьево,Площадь Тукая","6,2,3","walk,transport,transport",Приволжский,0,0
kzn,"Татарстан Респ., Казань г., Ново-Савиновский, Восстания ул., д.5",5499000,47.7,6.0,30.0,2,3,5,1973,empty,empty,panel,empty,empty,1,49.099497,55.835169,empty,empty,"Яшьлек,Северный Вокзал","4,4","transport,transport","квартал 11,Ново-Савиновский",empty,0
kzn,"Республика Татарстан, Казань, Фермское шоссе",13188550,73.87,empty,empty,3,2,9,empty,0,2024,monolithBrick,empty,empty,empty,49.1587148995,55.7369353649,3,empty,"Аметьево,Горки,Проспект Победы","5,5,5","transport,transport,transport","Теплоконтроль,Приволжский",0,0
kzn,"Татарстан Респ., Казань г., Ново-Савиновский, Ибрагимова пр-кт., д.69",5599000,46.0,6.0,30.0,2,3,5,1970,empty,empty,panel,empty,empty,1,49.098599,55.824718,empty,empty,"Козья слобода,Яшьлек","10,15","walk,walk","квартал 56,Московский",empty,0
kzn,"Республика Татарстан, Казань, улица Крылова",10164128,39.42,empty,16.7,1,21,25,empty,0,2025,monolith,underground,empty,empty,49.2060315179,55.7756480076,empty,empty,"Горки,Аметьево,Проспект Победы","3,4,4","transport,transport,transport","Дальний,Советский",0,0
kzn,"Россия, Татарстан, Казань, Приволжский, пр-кт. Универсиады, 10а",9100000,64.8,14.6,21.1,2,3,10,2014,empty,empty,monolithBrick,empty,empty,empty,49.157852,55.766187,empty,empty,,,,Приволжский,empty,0
kzn,"Республика Татарстан, Казань, Южно-Промышленная улица",6490000,37.0,empty,empty,1,9,18,empty,0,2026,monolithBrick,empty,empty,empty,49.12177333083945,55.71736632804304,empty,7,"Аметьево,Горки,Проспект Победы","9,10,10","transport,transport,transport",Приволжский,0,0
kzn,"Россия, Татарстан, Казань, Советский, ул. Солидарности (Дербышки), 24",3999999,30.0,6.0,18.0,1,6,9,1979,empty,empty,brick,empty,empty,empty,49.230615,55.859433,empty,empty,,,,"Дербышки,Советский",empty,0
kzn,"Республика Татарстан, Казань, улица Галиаскара Камала",21772800,90.72,18.9,44.8,3,4,9,empty,0,2024,monolithBrick,empty,empty,empty,49.1069988860219,55.7805728270074,11,11,"Площадь Тукая,Кремлёвская,Суконная слобода","19,3,3","walk,transport,transport","Татарская слобода,Вахитовский",0,0
kzn,"Россия, Татарстан, Казань, Ново-Савиновский, ул. Меридианная, 3",10800000,63.1,12.0,37.5,2,6,6,2007,empty,empty,brick,empty,empty,empty,49.114777,55.817749,empty,empty,,,,Ново-Савиновский,empty,0
kzn,"Республика Татарстан, Казань, улица Николая Ершова",30723640,96.92,8.6,62.1,3,15,20,empty,0,2026,monolithBrick,empty,empty,empty,49.1730311482,55.7943629534,empty,8,"Суконная слобода,Площадь Тукая,Аметьево","4,5,5","transport,transport,transport","Октябрьский городок,Советский",0,0
kzn,"Россия, Татарстан, Казань, Ново-Савиновский, пр-кт. Фатыха Амирхана, 101",8799000,57.7,8.1,32.0,2,11,14,2005,empty,empty,brick,empty,empty,empty,49.132456,55.842176,empty,empty,,,,"квартал 17,Ново-Савиновский",empty,0
kzn,"Республика Татарстан, Казань, улица Крылова",12679479,58.55,empty,29.1,2,24,25,empty,0,2025,monolith,underground,empty,empty,49.2041271494572,55.7758082570569,empty,empty,"Горки,Аметьево,Проспект Победы","3,4,4","transport,transport,transport","Дальний,Советский",0,0
kzn,"Россия, Республика Татарстан, Казань, улица Кутузова, 17А",4850000,57.7,5.2,40.3,3,3,5,1973,empty,empty,brick,ground,empty,1,49.053845,55.870885,0,0,"Авиастроительная,Северный Вокзал,Яшьлек","6,10,10","transport,transport,transport","Северный,Авиастроительный",0,0
kzn,"Республика Татарстан, Казань, Фермское шоссе",7927900,35.99,empty,empty,1,2,9,empty,0,2024,monolithBrick,empty,empty,empty,49.1587148994733,55.7369353649008,3,empty,"Аметьево,Горки,Проспект Победы","5,5,5","transport,transport,transport","Теплоконтроль,Приволжский",0,0
kzn,"Республика Татарстан, Казань, улица Николая Ершова",29544400,93.2,8.1,61.1,3,13,20,empty,0,2026,monolithBrick,empty,empty,empty,49.1730311482,55.7943629534,empty,8,"Суконная слобода,Площадь Тукая,Аметьево","4,5,5","transport,transport,transport","Октябрьский городок,Советский",0,0
kzn,"Республика Татарстан, Казань, улица Дулата Али",16634241,71.07,empty,40.1,3,3,15,empty,0,2026,monolith,empty,empty,empty,49.0969114232168,55.7656682060518,7,empty,"Площадь Тукая,Суконная слобода,Кремлёвская","4,5,5","transport,transport,transport",Вахитовский,0,0
kzn,"Татарстан Респ., Казань г., Советский, Шуртыгина ул., д.24",3990000,19.4,5.0,9.4,1,4,9,1976,empty,empty,brick,empty,empty,0,49.175746,55.789821,1,empty,"Суконная слобода,Аметьево","6,8","transport,transport",Советский,empty,0
kzn,"Республика Татарстан, Казань, улица Галиаскара Камала",16994450,64.13,12.5,32.9,2,4,9,empty,0,2024,monolithBrick,empty,empty,empty,49.1069988860219,55.7805728270074,11,11,"Площадь Тукая,Кремлёвская,Суконная слобода","19,3,3","walk,transport,transport","Татарская слобода,Вахитовский",0,0
kzn,"Татарстан Респ., Казань г., Приволжский, Кул Гали ул., д.26",11980000,83.8,13.2,49.8,3,3,9,2007,empty,empty,brick,empty,empty,0,49.237864,55.749425,1,empty,Дубравная,19,walk,"9,10,11,Приволжский",empty,0
kzn,"Республика Татарстан, Казань, Ягодинская улица",13881407,71.25,empty,30.5,2,4,15,empty,0,2025,monolith,empty,empty,empty,49.0745944841,55.8112952683,empty,empty,"Козья слобода,Яшьлек,Кремлёвская","2,3,4","transport,transport,transport","Ягодная слобода,Кировский",0,0
kzn,"Россия, Татарстан, Казань, Ново-Савиновский, пр-кт. Ямашева, 65",6150000,38.0,9.0,20.0,1,3,10,1992,empty,empty,panel,empty,empty,1,49.130965,55.8258,empty,empty,,,,Ново-Савиновский,empty,0
kzn,"Республика Татарстан, Казань, улица Шаляпина",15731932,45.6,empty,38.9,1,3,10,empty,0,2026,monolithBrick,underground,empty,empty,49.14602836378382,55.77400507398286,empty,2,"Суконная слобода,Аметьево,Площадь Тукая","6,2,3","walk,transport,transport",Приволжский,0,0
kzn,"Россия, Республика Татарстан, Казань, проспект Победы, 45",5600000,44.6,empty,empty,2,1,9,1976,empty,empty,brick,ground,empty,0,49.215756999999996,55.755611,1,0,,,,"Горки-1,Приволжский",0,0
kzn,"Республика Татарстан, Казань, Вознесенский тракт",9405443,41.21,empty,15.6,1,6,14,empty,0,2026,monolith,empty,empty,empty,49.20370696566657,55.77704103241694,2,7,"Горки,Аметьево,Проспект Победы","3,4,5","transport,transport,transport","Дальний,Советский",0,0
kzn,"Россия, Татарстан, Казань, Кировский, ул. Светлая, 24",5600000,47.0,5.7,30.9,2,3,5,1966,empty,empty,panel,empty,empty,1,49.044799,55.822842,empty,empty,,,,"Пороховая слобода,Кировский",empty,0
kzn,"Республика Татарстан, Казань, Вознесенский тракт",13771332,68.84,empty,44.4,3,6,14,empty,0,2026,monolith,empty,empty,empty,49.2037069657,55.7770410324,2,7,"Горки,Аметьево,Проспект Победы","3,4,5","transport,transport,transport","Дальний,Советский",0,0
kzn,"Россия, Татарстан, Казань, Московский, ул. Тунакова, 45а",5300000,40.0,6.0,29.0,2,3,4,1959,empty,empty,brick,empty,empty,empty,49.083624,55.831787,empty,empty,,,,Московский,empty,0
kzn,"Казань, район Ново-Савиновский, улица Сибгата Хакима",18390000,75.27,11.0,29.4,2,2,21,empty,0,2024,monolithBrick,empty,empty,empty,49.1444954293,55.8148569678,10,6,"Козья слобода,Кремлёвская,Площадь Тукая","4,5,5","transport,transport,transport","кварталы 68, 69,Ново-Савиновский",0,0
kzn,"Россия, Татарстан, Казань, Советский, ул. Николая Ершова, 62 д к 2",19100000,80.0,13.8,40.5,3,9,10,2017,empty,empty,brick,empty,empty,2,49.181881,55.796015,empty,empty,,,,"Октябрьский городок,Советский",empty,0
kzn,"Республика Татарстан, Казань, Ягодинская улица",10368215,38.55,empty,15.8,1,19,24,empty,0,2025,monolith,empty,empty,empty,49.0733713967874,55.8107756897106,empty,empty,"Козья слобода,Яшьлек,Кремлёвская","3,3,4","transport,transport,transport","Ягодная слобода,Кировский",0,0
kzn,"Россия, Татарстан, Казань, Московский, ул. Восстания, 82б",6450000,36.2,11.2,14.5,1,10,24,2017,empty,empty,brick,empty,empty,1,49.057043,55.834623,empty,empty,,,,"поселок Урицкого,Московский",empty,0
kzn,"Республика Татарстан, Казань, улица Дулата Али",12491381,41.2,empty,13.9,1,3,15,empty,0,2025,monolith,empty,empty,empty,49.0981988835,55.7657528879,8,1,"Площадь Тукая,Суконная слобода,Кремлёвская","4,5,5","transport,transport,transport",Вахитовский,0,0
kzn,"Татарстан Респ., Казань г., Вахитовский, Чехова ул., д.9",5740000,25.0,4.0,14.0,1,4,9,1979,empty,empty,brick,empty,empty,0,49.148383,55.788748,1,empty,,,,Вахитовский,empty,0
kzn,"Республика Татарстан, Казань, Вознесенский тракт",15547291,78.19,empty,53.6,3,20,22,empty,0,2026,monolith,empty,empty,empty,49.20370696566657,55.77704103241694,2,7,"Горки,Аметьево,Проспект Победы","3,4,5","transport,transport,transport","Дальний,Советский",0,0
kzn,"Татарстан,Казань, улица Ачинская,дом 1",9300000,58.9,16.0,25.0,2,5,9,empty,empty,empty,brick,empty,empty,empty,49.150261,55.738708,1,empty,,,,"Теплоконтроль,Приволжский",0,0
kzn,"Республика Татарстан, Казань, улица Крылова",10046532,40.62,empty,14.6,1,24,25,empty,0,2025,monolith,underground,empty,empty,49.2051142024,55.7757387148,empty,empty,"Горки,Аметьево,Проспект Победы","3,4,4","transport,transport,transport","Дальний,Советский",0,0
kzn,"Татарстан Респ., Казань г., Приволжский, Сыртлановой ул., д.29",6300000,43.2,6.0,28.0,2,2,5,1974,empty,empty,panel,empty,empty,1,49.200962,55.748148,empty,empty,Проспект Победы,6,walk,"Горки-1,Приволжский",empty,0
kzn,"Республика Татарстан, Казань, улица Галиаскара Камала",13773675,53.49,11.9,24.4,1,5,9,empty,0,2024,monolithBrick,empty,empty,empty,49.106998886,55.780572827,11,11,"Площадь Тукая,Кремлёвская,Суконная слобода","19,3,3","walk,transport,transport","Татарская слобода,Вахитовский",0,0
kzn,"Россия, Татарстан, Казань, Авиастроительный, ул. Гудованцева, 43/2",3990000,35.2,7.7,19.4,1,3,5,1983,empty,empty,brick,empty,empty,1,49.019259,55.875279,empty,empty,,,,"Жилплощадка,Московский",empty,0
kzn,"Республика Татарстан, Казань, улица Галиаскара Камала",28054300,119.38,14.7,59.1,3,2,9,empty,0,2024,monolithBrick,empty,empty,empty,49.1069988860219,55.7805728270074,11,11,"Площадь Тукая,Кремлёвская,Суконная слобода","19,3,3","walk,transport,transport","Татарская слобода,Вахитовский",0,0
kzn,"Татарстан Респ., Казань г., Ново-Савиновский, Восстания ул., д.8",5600000,32.0,5.0,17.0,1,3,5,1963,empty,empty,brick,empty,empty,1,49.098697,55.836028999999996,empty,empty,,,,"квартал 20,Ново-Савиновский",empty,0
kzn,"Республика Татарстан, Казань, улица Галиаскара Камала",24847200,103.53,26.0,48.5,3,6,9,empty,0,2024,monolithBrick,empty,empty,empty,49.1069988860219,55.7805728270074,11,11,"Площадь Тукая,Кремлёвская,Суконная слобода","19,3,3","walk,transport,transport","Татарская слобода,Вахитовский",0,0
kzn,"Татарстан Респ., Казань г., Советский, Новаторов ул., д.5",5650000,42.0,5.8,31.1,3,2,5,1961,empty,empty,brick,empty,empty,1,49.176995,55.803904,empty,empty,,,,"Куба,Советский",empty,0
kzn,"Республика Татарстан, Казань, Фермское шоссе",14247850,85.47,empty,empty,3,3,9,empty,0,2024,monolithBrick,empty,empty,empty,49.1587148994733,55.7369353649008,3,empty,"Аметьево,Горки,Проспект Победы","5,5,5","transport,transport,transport","Теплоконтроль,Приволжский",0,0
kzn,"Республика Татарстан, Казань, Кировский район, микрорайон Адмиралтейская Слобода, Большая улица, 62",19366495,81.14,31.5,26.6,2,3,7,empty,0,2025,monolithBrick,empty,empty,empty,49.06024982208952,55.79674135044062,empty,1,"Кремлёвская,Козья слобода,Яшьлек","4,5,6","transport,transport,transport","Адмиралтейская слобода,Кировский",0,0
kzn,"Татарстан Респ., Казань г., Авиастроительный, Лукина ул., д.45",5750000,40.0,10.0,21.0,1,9,9,1988,empty,empty,brick,empty,empty,1,49.092257,55.869228,1,empty,Авиастроительная,18,walk,"Караваево,Авиастроительный",empty,0
kzn,"Республика Татарстан, Казань, улица Дулата Али",12642083,37.05,empty,11.8,1,10,19,empty,0,2026,monolith,empty,empty,empty,49.0969114232168,55.7656682060518,7,empty,"Площадь Тукая,Суконная слобода,Кремлёвская","4,5,5","transport,transport,transport",Вахитовский,0,0
kzn,"Россия, Татарстан, Казань, Ново-Савиновский, ул. Маршала Чуйкова, 55",5800000,46.0,13.0,28.0,2,6,9,1990,empty,empty,brick,empty,empty,empty,49.139149,55.836484,empty,empty,,,,"кварталы 25, МЖК,Ново-Савиновский",empty,0
kzn,"Республика Татарстан, Казань, улица Шаляпина, 32",21362150,60.44,empty,empty,2,9,9,empty,0,2023,monolithBrick,empty,rough,empty,49.139122,55.770178,empty,3,"Суконная слобода,Площадь Тукая,Аметьево","12,3,3","walk,transport,transport",Приволжский,0,0
kzn,"Татарстан Респ., Казань г., Московский, Волгоградская ул., д.28",6000000,45.2,6.0,30.5,2,4,5,1963,empty,empty,brick,empty,empty,1,49.099048,55.831711,empty,empty,,,,"квартал 11,Ново-Савиновский",empty,0
kzn,"Республика Татарстан, Казань, Фермское шоссе",9115890,45.79,empty,empty,1,3,9,empty,0,2024,monolithBrick,empty,empty,empty,49.1587148994733,55.7369353649008,3,empty,"Аметьево,Горки,Проспект Победы","5,5,5","transport,transport,transport","Теплоконтроль,Приволжский",0,0
kzn,"Татарстан Респ., Казань г., Кировский, Ильича ул., д.19",6090000,60.7,8.4,37.9,3,5,9,1980,empty,empty,brick,empty,empty,0,48.898939,55.818503,1,empty,,,,"Юдино,Кировский",empty,0
kzn,"Республика Татарстан, Казань, Советский район, жилой комплекс Светлая Долина",10736880,73.04,11.3,39.3,3,14,19,empty,0,2024,monolith,empty,empty,2,49.2394791534411,55.7995690407037,2,empty,"Горки,Проспект Победы,Аметьево","8,9,9","transport,transport,transport","Малые Клыки,Советский",0,0
kzn,"Казань, район Ново-Савиновский, улица Сибгата Хакима",19350000,66.99,16.0,32.0,2,15,21,empty,0,2024,monolithBrick,empty,empty,empty,49.1444954293,55.8148569678,10,6,"Козья слобода,Кремлёвская,Площадь Тукая","4,5,5","transport,transport,transport","кварталы 68, 69,Ново-Савиновский",0,0
kzn,"Татарстан Респ., Казань г., Приволжский, Комиссара Габишева ул., д.17",6290000,41.7,7.0,24.1,2,9,9,1984,empty,empty,panel,empty,empty,0,49.235816,55.747566,1,empty,Дубравная,4,transport,"9,10,11,Приволжский",empty,0
kzn,"Республика Татарстан, Казань, Вознесенский тракт",11156398,48.04,empty,29.0,2,14,14,empty,0,2026,monolith,empty,empty,empty,49.20370696566657,55.77704103241694,2,7,"Горки,Аметьево,Проспект Победы","3,4,5","transport,transport,transport","Дальний,Советский",0,0
kzn,"Республика Татарстан, Казань, Фермское шоссе",13940950,78.43,empty,empty,3,8,9,empty,0,2024,monolithBrick,empty,empty,empty,49.1587148994733,55.7369353649008,3,empty,"Аметьево,Горки,Проспект Победы","5,5,5","transport,transport,transport","Теплоконтроль,Приволжский",0,0
kzn,"Россия, Татарстан, Казань, Советский, ул. Рашида Нежметдинова, 11/4",6390000,43.1,9.4,22.9,1,16,19,empty,empty,empty,panel,empty,empty,empty,49.23905,55.801379,empty,empty,"Горки,Проспект Победы,Аметьево","8,9,9","transport,transport,transport","Малые Клыки,Советский",empty,0
kzn,"Казань, район Ново-Савиновский, улица Сибгата Хакима",18400000,61.14,13.5,29.1,2,4,21,empty,0,2024,monolithBrick,empty,empty,empty,49.1444954293,55.8148569678,10,6,"Козья слобода,Кремлёвская,Площадь Тукая","4,5,5","transport,transport,transport","кварталы 68, 69,Ново-Савиновский",0,0
kzn,"Республика Татарстан, Казань, улица Аметьевская Магистраль, 18",16800000,96.1,15.3,50.8,3,18,25,empty,1,2021,empty,underground,empty,empty,49.174336,55.767565,4,2,"Аметьево,Горки,Суконная слобода","8,2,3","walk,transport,transport",Советский,0,0
kzn,"Россия, Татарстан, Казань, Советский, ул. Александра Курынова, 4",6499900,35.8,8.5,16.3,1,25,26,2023,empty,empty,monolithBrick,empty,empty,empty,49.243416,55.799446,empty,empty,,,,Советский,empty,0
kzn,"Республика Татарстан, Казань, Советский район, жилой комплекс Светлая Долина",8384130,49.03,9.0,27.3,1,21,25,empty,0,2025,monolith,empty,without,empty,49.2405413082094,55.7987501492074,4,4,"Горки,Проспект Победы,Аметьево","8,9,9","transport,transport,transport","Малые Клыки,Советский",0,0
kzn,"Татарстан Респ., Казань г., Московский, Бондаренко ул., д.5",6400000,45.6,6.0,29.0,2,4,5,1972,empty,empty,panel,empty,empty,1,49.104492,55.825462,empty,empty,Яшьлек,4,transport,Московский,empty,0
kzn,"Республика Татарстан, Казань, Кировский район, микрорайон Адмиралтейская Слобода, Большая улица, 62",23726383,103.23,24.0,45.5,3,5,7,empty,0,2025,monolithBrick,empty,empty,empty,49.0602498221,55.7967413504,empty,1,"Кремлёвская,Козья слобода,Яшьлек","4,5,6","transport,transport,transport","Адмиралтейская слобода,Кировский",0,0
kzn,"Татарстан,Казань, улица Чистопольская,дом 36",13300000,60.0,32.0,18.0,2,7,16,empty,empty,empty,brick,empty,empty,empty,49.121622,55.818114,1,empty,,,,Ново-Савиновский,0,0
kzn,"Республика Татарстан, Казань, улица Крылова",13947014,73.24,empty,37.8,3,18,25,empty,0,2025,monolith,underground,empty,empty,49.2051142024,55.7757387148,empty,empty,"Горки,Аметьево,Проспект Победы","3,4,4","transport,transport,transport","Дальний,Советский",0,0
kzn,"Россия, Татарстан, Казань, Приволжский, проезд. Детский, 8",4300000,32.0,5.1,16.0,1,6,19,2023,empty,empty,monolithBrick,empty,empty,empty,49.199794,55.678352,empty,empty,,,,Приволжский,empty,0
kzn,"Республика Татарстан, Казань, Ягодинская улица",10715595,42.3,empty,16.8,1,12,15,empty,0,2025,monolith,empty,empty,empty,49.0745944840974,55.8112952682667,empty,empty,"Козья слобода,Яшьлек,Кремлёвская","2,3,4","transport,transport,transport","Ягодная слобода,Кировский",0,0
kzn,"Татарстан Респ., Казань г., Приволжский, Оренбургский Тракт ул., д.24б",11500000,48.5,13.0,30.5,2,6,19,2012,empty,empty,brick,empty,empty,1,49.161894,55.752328,2,empty,,,,"Теплоконтроль,Приволжский",empty,0
kzn,"Республика Татарстан, Казань, Кировский район, микрорайон Адмиралтейская Слобода, Большая улица, 76",22186500,63.39,18.9,26.6,2,6,7,empty,0,2025,monolithBrick,empty,empty,empty,49.05791435581946,55.79649528513446,empty,1,"Кремлёвская,Козья слобода,Яшьлек","5,5,6","transport,transport,transport","Адмиралтейская слобода,Кировский",0,0
kzn,"Республика Татарстан, Казань, Кировский район, микрорайон Адмиралтейская Слобода, Большая улица, 62",13972348,57.17,21.8,20.9,1,2,7,empty,0,2025,monolithBrick,empty,empty,empty,49.06024982208952,55.79674135044062,empty,1,"Кремлёвская,Козья слобода,Яшьлек","4,5,6","transport,transport,transport","Адмиралтейская слобода,Кировский",0,0
kzn,"Россия, Республика Татарстан, Казань, улица Павлюхина, 110Г",20400000,99.3,13.8,empty,3,13,20,2018,empty,empty,monolith,ground,empty,0,49.143693999999996,55.767641,1,1,"Суконная слобода,Площадь Тукая,Горки","16,6,8","walk,transport,transport",Приволжский,0,0
kzn,"Республика Татарстан, Казань, улица Галиаскара Камала",36403850,154.91,14.8,80.3,4,9,9,empty,0,2024,monolithBrick,empty,empty,empty,49.1069988860219,55.7805728270074,11,11,"Площадь Тукая,Кремлёвская,Суконная слобода","19,3,3","walk,transport,transport","Татарская слобода,Вахитовский",0,0
kzn,"Татарстан Респ., Казань г., Советский, Дружбы ул., д.6",5100000,39.9,7.0,24.7,1,1,5,empty,empty,empty,brick,empty,empty,0,49.18004,55.808381,empty,empty,,,,"Куба,Советский",empty,0
kzn,"Республика Татарстан, Казань, улица Аметьевская Магистраль, 18",18700000,101.0,25.4,46.5,3,12,25,empty,1,2021,empty,underground,empty,empty,49.174336,55.767565,4,2,"Аметьево,Горки,Суконная слобода","8,2,3","walk,transport,transport",Советский,0,0
kzn,"Россия, Татарстан, Казань, Вахитовский, ул. Павлюхина, 128",16800000,99.2,11.7,66.8,3,14,19,2016,empty,empty,monolithBrick,empty,empty,empty,49.144628,55.765306,empty,empty,,,,Приволжский,empty,0
kzn,"Республика Татарстан, Казань, улица Аметьевская Магистраль, 18",16600000,94.0,31.0,30.0,2,12,25,empty,1,2021,empty,underground,empty,1,49.174336,55.767565,4,2,"Аметьево,Горки,Суконная слобода","8,2,3","walk,transport,transport",Советский,0,0
kzn,"Татарстан Респ., Казань г., Вахитовский, Ульянова-Ленина ул., д.23",21500000,157.3,21.6,98.2,3,3,6,2012,empty,empty,brick,empty,empty,1,49.133471,55.78485,empty,empty,Площадь Тукая,9,walk,Вахитовский,empty,0
kzn,"Республика Татарстан, Казань, улица Николая Ершова",100575000,201.15,15.1,109.9,4,20,20,empty,0,2026,monolithBrick,empty,empty,empty,49.17303114819275,55.79436295342587,empty,8,"Суконная слобода,Площадь Тукая,Аметьево","4,5,5","transport,transport,transport","Октябрьский городок,Советский",0,0
kzn,"Россия, Республика Татарстан, Казань, улица Наиля Юсупова, 5А",6600000,63.1,10.5,empty,2,15,19,2019,empty,empty,monolithBrick,ground,empty,0,48.900206,55.852758,2,1,"Авиастроительная,Козья слобода,Кремлёвская","21,22,22","transport,transport,transport","Залесный,Кировский",0,0
kzn,"Республика Татарстан, Казань, улица Николая Ершова",99980000,199.96,4.0,122.6,4,19,20,empty,0,2026,monolithBrick,empty,empty,empty,49.17303114819275,55.79436295342587,empty,8,"Суконная слобода,Площадь Тукая,Аметьево","4,5,5","transport,transport,transport","Октябрьский городок,Советский",0,0
kzn,"Татарстан,Казань, улица Короленко,дом 40",2650000,19.0,5.0,9.0,1,2,5,empty,empty,empty,brick,empty,empty,empty,49.102542,55.837849,empty,empty,,,,Ново-Савиновский,0,0
kzn,"Республика Татарстан, Казань, Кировский район, микрорайон Адмиралтейская Слобода, Большая улица, 76",14213472,48.8,18.5,12.2,1,5,7,empty,0,2025,monolithBrick,empty,empty,empty,49.05791435581946,55.79649528513446,empty,1,"Кремлёвская,Козья слобода,Яшьлек","5,5,6","transport,transport,transport","Адмиралтейская слобода,Кировский",0,0
kzn,"Россия, Татарстан, Казань, Кировский, ул. Боевая, 145а",4300000,32.6,6.1,18.0,1,5,9,1972,empty,empty,brick,empty,empty,empty,49.004949,55.800838,empty,empty,,,,Кировский,empty,0
kzn,"Республика Татарстан, Казань, улица Аметьевская Магистраль, 18",17600000,93.4,31.0,30.0,2,22,25,empty,1,2021,empty,underground,empty,1,49.174336,55.767565,4,2,"Аметьево,Горки,Суконная слобода","8,2,3","walk,transport,transport",Советский,0,0
kzn,"Татарстан Респ., Казань г., Кировский, Коммунаров ул., д.2",8700000,71.3,9.6,40.2,3,2,9,1995,empty,empty,brick,empty,empty,1,49.078324,55.819358,1,empty,,,,"Ягодная слобода,Кировский",empty,0
kzn,"Республика Татарстан, Казань, улица Николая Ершова",115265000,230.53,5.2,113.6,4,20,20,empty,0,2026,monolithBrick,empty,empty,empty,49.17303114819275,55.79436295342587,empty,8,"Суконная слобода,Площадь Тукая,Аметьево","4,5,5","transport,transport,transport","Октябрьский городок,Советский",0,0
kzn,Казань  проспект Победы 210Б,6600000,44.0,empty,empty,1,4,10,empty,empty,empty,empty,empty,empty,empty,49.210008,55.805422,empty,empty,,,,"Царицыно,Советский",empty,0
kzn,"Республика Татарстан, Казань, улица Шаляпина, 32",24205676,76.48,empty,empty,2,6,9,empty,0,2023,monolithBrick,empty,rough,empty,49.139122,55.770178,empty,3,"Суконная слобода,Площадь Тукая,Аметьево","12,3,3","walk,transport,transport",Приволжский,0,0
kzn,"Россия, Татарстан, Казань, Ново-Савиновский, ул. Алексея Козина, 2",12479000,32.0,5.0,19.0,1,6,20,2021,empty,empty,monolithBrick,empty,empty,empty,49.136867,55.813455,empty,empty,,,,Ново-Савиновский,empty,0
kzn,"Республика Татарстан, Казань, улица Шаляпина, 32",23259805,65.96,empty,empty,2,9,9,empty,0,2023,monolithBrick,empty,rough,empty,49.139122,55.770178,empty,3,"Суконная слобода,Площадь Тукая,Аметьево","12,3,3","walk,transport,transport",Приволжский,0,0
kzn,"Республика Татарстан, Казань, улица Азата Аббасова",8900000,51.19,13.7,24.5,2,4,10,empty,0,2025,monolith,empty,empty,empty,49.250436086615544,55.7877395470497,15,empty,"Горки,Проспект Победы,Дубравная","7,7,8","transport,transport,transport",Советский,0,0
kzn,"Россия, Татарстан, Казань, Советский, ул. Академика Губкина, 30г",11499000,70.0,16.8,37.0,2,4,10,2006,empty,empty,brick,empty,empty,empty,49.193587,55.805725,empty,empty,,,,Советский,empty,0
kzn,"Республика Татарстан, Казань, улица Аделя Кутуя",10160000,53.17,10.2,28.1,2,8,19,empty,0,2025,monolithBrick,empty,empty,empty,49.1862272408723,55.7778054230159,3,3,"Аметьево,Горки,Суконная слобода","3,3,4","transport,transport,transport",Советский,0,0
kzn,"Татарстан Респ., Казань г., Приволжский, Хусаина Мавлютова ул., д.29",7400000,41.1,8.1,24.3,2,6,9,empty,empty,empty,brick,empty,empty,0,49.191197,55.747986,1,empty,Проспект Победы,16,walk,"Горки-1,Приволжский",empty,0
kzn,"Республика Татарстан, Казань, улица Михаила Миля, 1",8710000,54.94,15.4,26.2,2,8,15,empty,0,2024,monolithBrick,empty,empty,empty,49.091259,55.84539,2,2,"Северный Вокзал,Авиастроительная,Яшьлек","10,19,3","walk,walk,transport",Авиастроительный,0,0
kzn,"Россия, Татарстан, Казань, Ново-Савиновский, ул. Мусина, 49",8200000,59.1,4.0,44.3,3,3,5,1973,empty,empty,panel,empty,empty,1,49.12253,55.831903,empty,empty,,,,"квартал 39,Ново-Савиновский",empty,0
kzn,"Республика Татарстан, Казань, Ноксинская улица",9963000,49.15,10.0,28.3,2,3,10,empty,0,2025,monolith,empty,empty,empty,49.2297035052,55.8086893374,8,empty,"Горки,Аметьево,Суконная слобода","9,9,10","transport,transport,transport",Советский,0,0
kzn,"Татарстан,Казань, улица Советская,дом 1",4900000,35.0,16.0,10.0,1,7,23,empty,empty,2025,monolith,empty,empty,empty,49.231352,55.870587,1,empty,"Авиастроительная,Северный Вокзал,Козья слобода","14,15,15","transport,transport,transport","Дербышки,Советский",0,0
kzn,"Республика Татарстан, Казань, Ноксинская улица",16999000,92.29,22.4,41.4,3,8,10,empty,0,2025,monolith,empty,empty,empty,49.2297035052,55.8086893374,8,empty,"Горки,Аметьево,Суконная слобода","9,9,10","transport,transport,transport",Советский,0,0
kzn,"Татарстан Респ., Казань г., Приволжский, Абубекира Терегулова ул., д.22",11199000,49.9,11.0,29.9,2,4,14,2022,empty,empty,brick,empty,empty,1,49.204321,55.73593,2,empty,Проспект Победы,7,transport,"Горки-3,Приволжский",empty,0
kzn,"Республика Татарстан, Казань, Ноксинская улица",8149000,41.55,15.8,11.7,1,2,10,empty,0,2025,monolith,empty,empty,empty,49.2297035052,55.8086893374,8,empty,"Горки,Аметьево,Суконная слобода","9,9,10","transport,transport,transport",Советский,0,0
kzn,"Татарстан Респ., Казань г., Советский, Зур Урам ул., д.1, литер И",11800000,66.8,13.2,32.3,2,9,10,2018,empty,empty,brick,empty,empty,0,49.202354,55.803454,1,empty,"Суконная слобода,Горки,Аметьево","9,10,13","transport,transport,transport",Советский,empty,0
kzn,"Республика Татарстан, Казань, улица Михаила Миля",8390000,52.3,11.9,25.0,2,15,15,empty,0,2025,monolithBrick,empty,empty,empty,49.0933374603262,55.8458816437237,empty,empty,"Северный Вокзал,Авиастроительная,Яшьлек","13,19,3","walk,walk,transport",Авиастроительный,0,0
kzn,"Россия, Татарстан, Казань, Советский, ул. Бари Галеева, 8 А2",7700000,37.0,6.0,18.0,1,3,19,2019,empty,empty,brick,empty,empty,empty,49.175872,55.80395,empty,empty,,,,"Куба,Советский",empty,0
kzn,"Республика Татарстан, Казань, улица Михаила Миля",6950000,36.63,9.6,14.5,1,6,15,empty,0,2025,monolithBrick,empty,empty,empty,49.0933374603262,55.8458816437237,empty,empty,"Северный Вокзал,Авиастроительная,Яшьлек","13,19,3","walk,walk,transport",Авиастроительный,0,0
kzn,"Республика Татарстан, Казань, жилой комплекс Времена года",12066000,80.4,empty,empty,2,3,5,empty,0,2024,monolithBrick,empty,empty,empty,49.1915806698222,55.68183738722266,empty,empty,"Дубравная,Проспект Победы,Горки","11,11,13","transport,transport,transport",Приволжский,0,0
kzn,"Республика Татарстан, Казань, жилой комплекс Времена года",9010000,55.11,empty,empty,1,2,5,empty,0,2024,monolithBrick,empty,empty,empty,49.1906901764285,55.681479742271264,empty,empty,"Дубравная,Проспект Победы,Горки","11,12,13","transport,transport,transport",Приволжский,0,0
kzn,"Россия, Татарстан, Казань, Советский, ул. Новаторов, 3",5500000,45.8,6.0,29.0,2,1,5,1961,empty,empty,brick,empty,empty,empty,49.177399,55.803358,empty,empty,,,,"Куба,Советский",empty,0
kzn,"Республика Татарстан, Казань, улица Аделя Кутуя",11120000,59.5,12.4,30.3,2,10,19,empty,0,2025,monolithBrick,empty,empty,empty,49.1862272408723,55.7778054230159,3,3,"Аметьево,Горки,Суконная слобода","3,3,4","transport,transport,transport",Советский,0,0
kzn,"Россия, Татарстан, Казань, Кировский, ул. Маршрутная, 17/1",10750000,65.8,24.3,24.9,2,7,9,2019,empty,empty,brick,empty,empty,1,49.035699,55.821765,empty,empty,,,,"Пороховая слобода,Кировский",empty,0
kzn,"Республика Татарстан, Казань, Ноксинская улица",10219000,60.68,17.9,29.5,2,6,10,empty,0,2025,monolith,empty,empty,empty,49.2297035052,55.8086893374,8,empty,"Горки,Аметьево,Суконная слобода","9,9,10","transport,transport,transport",Советский,0,0
kzn,"Россия, Татарстан, Казань, Приволжский, ул. Юлиуса Фучика, 2Б",7649000,41.2,11.6,17.3,1,2,16,2011,empty,empty,brick,empty,empty,empty,49.200971,55.742321,empty,empty,,,,"Горки-3,Приволжский",empty,0
kzn,"Республика Татарстан, Казань, Ноксинская улица",16652000,89.86,16.5,47.9,3,9,10,empty,0,2025,monolith,empty,empty,empty,49.2297035052,55.8086893374,8,empty,"Горки,Аметьево,Суконная слобода","9,9,10","transport,transport,transport",Советский,0,0
kzn,"Россия, Татарстан, Казань, Советский, ул. Сабира Ахтямова, 1",10800000,57.4,9.5,32.1,2,15,18,2018,empty,empty,monolithBrick,empty,empty,empty,49.217437,55.788044,empty,empty,,,,Советский,empty,0
kzn,"Республика Татарстан, Казань, улица Аделя Кутуя",14600000,80.86,13.0,47.7,3,17,19,empty,0,2025,monolithBrick,empty,empty,empty,49.1862272408723,55.7778054230159,3,3,"Аметьево,Горки,Суконная слобода","3,3,4","transport,transport,transport",Советский,0,0
kzn,"Татарстан Респ., Казань г., Советский, Азата Аббасова ул., д.10",10390000,54.5,12.5,24.3,2,9,10,empty,empty,empty,brick,empty,empty,0,49.247566,55.792321,1,empty,,,,Советский,empty,0
kzn,"Бирюзовая улица, 1, Казань, Республика Татарстан",8245100,74.1,empty,37.8,3,13,24,empty,0,2025,monolith,empty,empty,empty,48.894789,55.81957,empty,empty,,,,"Юдино,Кировский",0,0
kzn,"Россия, Татарстан, Казань, Советский, ул. Аделя Кутуя, 86",11900000,65.9,14.1,32.3,2,5,20,empty,empty,empty,monolithBrick,empty,empty,empty,49.18820162553198,55.78122323704548,empty,empty,"Аметьево,Горки,Суконная слобода","3,4,4","transport,transport,transport",Советский,empty,0
kzn,"Республика Татарстан, Казань, улица Азата Аббасова",7600000,34.23,9.4,12.1,1,5,10,empty,0,2025,monolith,empty,empty,empty,49.250436086615544,55.7877395470497,15,empty,"Горки,Проспект Победы,Дубравная","7,7,8","transport,transport,transport",Советский,0,0
kzn,"Республика Татарстан, Казань, улица Нариманова",24158000,102.8,empty,40.4,3,4,4,empty,0,2025,empty,empty,empty,empty,49.1086696236945,55.7805101895533,empty,2,"Площадь Тукая,Кремлёвская,Суконная слобода","18,3,3","walk,transport,transport","Татарская слобода,Вахитовский",0,0
kzn,"Россия, Татарстан, Казань, Советский, ул. Стадионная, 1",7250000,34.5,6.3,19.4,1,7,20,2023,empty,empty,monolithBrick,empty,empty,1,49.231343,55.870587,empty,empty,,,,"Дербышки,Советский",empty,0
kzn,"Республика Татарстан, Казань, улица Мансура Хасанова, 13",8770000,42.92,11.9,15.5,1,6,19,empty,0,2023,monolithBrick,empty,empty,empty,49.183696,55.779378,3,9,"Аметьево,Горки,Суконная слобода","3,3,4","transport,transport,transport",Советский,0,0
kzn,"Татарстан Респ., Казань г., Советский, Николая Ершова ул., д.66Б",9300000,38.41,12.1,12.3,1,5,20,empty,empty,empty,monolithBrick,empty,empty,0,49.18136,55.799052,2,empty,,,,"Октябрьский городок,Советский",empty,0
kzn,"Республика Татарстан, Казань, улица Михаила Миля",7710000,41.09,15.8,10.8,1,1,15,empty,0,2025,monolithBrick,empty,empty,empty,49.0933374603262,55.8458816437237,empty,empty,"Северный Вокзал,Авиастроительная,Яшьлек","13,19,3","walk,walk,transport",Авиастроительный,0,0
kzn,"Татарстан,Казань, улица Гагарина,дом 63ка",8950000,40.0,13.0,16.0,1,5,9,empty,empty,2023,monolith,empty,empty,empty,49.099587,55.838415,1,empty,"Северный Вокзал,Яшьлек,Авиастроительная","17,2,3","walk,transport,transport","квартал 20,Ново-Савиновский",0,0
kzn,"Республика Татарстан, Казань, жилой комплекс Времена года",16737000,96.19,empty,empty,3,2,5,empty,0,2024,monolithBrick,empty,empty,empty,49.1906901764285,55.681479742271264,empty,empty,"Дубравная,Проспект Победы,Горки","11,12,13","transport,transport,transport",Приволжский,0,0
kzn,"Россия, Татарстан, Казань, Приволжский, ул. Рихарда Зорге, 50",5300000,30.0,7.0,17.0,1,1,9,1973,empty,empty,panel,empty,empty,empty,49.2008,55.753757,empty,empty,,,,"Горки-1,Приволжский",empty,0
kzn,"Республика Татарстан, Казань, улица Нариманова",24040500,102.3,empty,40.0,3,4,4,empty,0,2025,empty,empty,empty,empty,49.1086696236945,55.7805101895533,empty,2,"Площадь Тукая,Кремлёвская,Суконная слобода","18,3,3","walk,transport,transport","Татарская слобода,Вахитовский",0,0
kzn,"Россия, Татарстан, Казань, Ново-Савиновский, пр-кт. Ямашева, 103",9950000,42.7,11.9,18.7,1,17,18,2013,empty,empty,brick,empty,empty,1,49.155408,55.824739,empty,empty,,,,"кварталы 68, 69,Ново-Савиновский",empty,0
kzn,"Республика Татарстан, Казань, улица Аделя Кутуя",14470000,80.0,13.1,47.4,3,2,19,empty,0,2025,monolithBrick,empty,empty,empty,49.1862272408723,55.7778054230159,3,3,"Аметьево,Горки,Суконная слобода","3,3,4","transport,transport,transport",Советский,0,0
kzn,"Татарстан,Казань, улица Алексея Козина,дом 1к1",10999000,41.1,12.0,15.0,1,4,21,empty,empty,empty,monolithBrick,empty,empty,empty,49.138825,55.814421,1,empty,"Козья слобода,Кремлёвская,Площадь Тукая","4,4,5","transport,transport,transport","кварталы 68, 69,Ново-Савиновский",0,0
kzn,"Республика Татарстан, Казань, Приволжский район, микрорайон Горки-3, микрорайон Экопарк Дубрава, улица Абубекира Терегулова",10098505,46.11,empty,empty,2,17,22,empty,0,2025,monolith,empty,empty,empty,49.2056901540157,55.7375168138009,4,6,"Дубравная,Проспект Победы,Горки","16,2,4","walk,transport,transport","Горки-3,Приволжский",0,0
kzn,"Татарстан,Казань, улица Братьев Батталовых,дом 20А",10700000,72.13,12.3,39.0,3,17,25,empty,empty,empty,monolithBrick,empty,empty,empty,49.183516,55.722507,1,empty,,,,Приволжский,0,0
kzn,"Республика Татарстан, Казань, улица Тази Гиззата",27172750,98.82,empty,32.2,2,2,4,empty,0,2025,empty,empty,empty,empty,49.1063710568987,55.78818239777908,empty,1,"Кремлёвская,Площадь Тукая,Суконная слобода","12,17,4","walk,walk,transport","Татарская слобода,Вахитовский",0,0
kzn,"Россия, Татарстан, Казань, Советский, ул. Мансура Хасанова, 13",12200000,40.4,9.0,14.0,1,16,19,2023,empty,empty,monolithBrick,empty,empty,1,49.183696,55.779378,empty,empty,,,,Советский,empty,0
kzn,"Республика Татарстан, Казань, улица Мансура Хасанова, 13",9090000,44.35,13.1,15.9,1,3,19,empty,0,2023,monolithBrick,empty,empty,empty,49.183696,55.779378,3,9,"Аметьево,Горки,Суконная слобода","3,3,4","transport,transport,transport",Советский,0,0
kzn,"Россия, Татарстан, Казань, Кировский, ул. Восход, 3а",5290000,31.4,5.5,18.5,1,4,5,1972,empty,empty,panel,empty,empty,1,49.068891,55.827085,empty,empty,,,,Московский,empty,0
kzn,"Республика Татарстан, Казань, улица Николая Ершова",10642000,41.64,14.6,16.1,1,9,10,empty,0,2024,monolith,empty,empty,empty,49.180664893,55.8024059306,4,empty,,,,"Куба,Советский",0,0
kzn,"Татарстан Респ., Казань г., Ново-Савиновский, Мусина ул., д.21",7000000,40.5,10.6,19.6,1,1,10,2002,empty,empty,panel,empty,empty,1,49.120419,55.823985,1,empty,,,,Ново-Савиновский,empty,0
kzn,"Республика Татарстан, Казань, Адмиралтейская улица",10335000,35.57,8.5,13.5,1,5,8,empty,0,2025,monolithBrick,empty,empty,empty,49.0559795423273,55.8032668647335,10,empty,"Козья слобода,Яшьлек,Кремлёвская","5,5,5","transport,transport,transport","Адмиралтейская слобода,Кировский",0,0
kzn,"Россия, Татарстан, Казань, Советский, ул. Аделя Кутуя, 86",7600000,36.7,5.0,19.7,1,3,20,empty,empty,empty,monolithBrick,empty,empty,empty,49.18820162553198,55.78122323704548,empty,empty,"Аметьево,Горки,Суконная слобода","3,4,4","transport,transport,transport",Советский,empty,0
kzn,"Республика Татарстан, Казань, улица Петра Полушкина",12253080,60.36,16.6,26.7,2,3,25,empty,0,2026,monolithBrick,empty,empty,3,49.2124506216715,55.7879645407718,4,13,"Горки,Аметьево,Проспект Победы","5,6,6","transport,transport,transport",Советский,0,0
kzn,"Республика Татарстан, Казань, Приволжский район, микрорайон Горки-3, микрорайон Экопарк Дубрава, улица Абубекира Терегулова",12337429,63.34,empty,empty,3,16,22,empty,0,2025,monolith,empty,empty,empty,49.2056901540157,55.7375168138009,4,6,"Дубравная,Проспект Победы,Горки","16,2,4","walk,transport,transport","Горки-3,Приволжский",0,0
kzn,"Республика Татарстан, Казань, улица Фикрята Табеева, 1",12450000,92.35,14.8,52.6,3,2,11,2020,empty,empty,empty,ground,empty,2,49.251654,55.795494,empty,empty,"Дубравная,Горки,Суконная слобода","11,12,13","transport,transport,transport",Советский,0,0
kzn,"Республика Татарстан, Казань, проезд Юнуса Ахметзянова, 3А",12500000,45.05,20.7,12.6,1,2,19,empty,1,2021,brick,empty,empty,empty,49.183319,55.800145,empty,empty,"Суконная слобода,Площадь Тукая,Аметьево","5,6,6","transport,transport,transport","Октябрьский городок,Советский",0,0
kzn,"Республика Татарстан, Казань, улица Николая Ершова",12685400,37.31,3.3,22.3,1,8,20,empty,0,2026,monolithBrick,empty,empty,empty,49.1730311482,55.7943629534,empty,8,"Суконная слобода,Площадь Тукая,Аметьево","4,5,5","transport,transport,transport","Октябрьский городок,Советский",0,0
kzn,"Республика Татарстан, Казань, улица Серова",12800000,54.86,15.6,25.0,2,2,10,empty,0,2024,brick,empty,empty,empty,49.0742472724877,55.8247568649974,4,empty,"Яшьлек,Козья слобода,Северный Вокзал","10,3,3","walk,transport,transport",Московский,0,0
kzn,"Республика Татарстан, Казань, улица Азата Аббасова",13117000,93.75,18.7,41.9,3,2,10,empty,0,2025,monolith,empty,empty,empty,49.2504360866,55.787739547,15,empty,"Горки,Проспект Победы,Дубравная","7,7,8","transport,transport,transport",Советский,0,0
