region,address,price,total_area,kitchen_area,living_area,rooms_count,floor,floors_number,build_date,is_complete,completion_year,house_material,parking,decoration,balcony,longitude,latitude,passenger_elevator,cargo_elevator,metro,metro_distance,metro_transport,district,is_apartments,is_auction
ekb,"Свердловская область, Екатеринбург, жилой район Южный, жилой комплекс Исеть Парк, 6",6702402,45.4,14.7,20.7,2,2,24,empty,0,2025,monolith,open,empty,empty,60.64114022090054,56.80454347263911,4,4,"Ботаническая,Чкаловская,Геологическая","14,3,5","walk,transport,transport",Октябрьский,0,0
ekb,"Россия, Свердловская область, Екатеринбург, улица Уральских Рабочих, 16",5500000,60.5,7.0,41.5,3,1,10,1987,empty,empty,block,ground,empty,empty,60.605371,56.893913,2,1,"Уралмаш,Проспект Космонавтов,Машиностроителей","8,13,4","walk,walk,transport","Уралмаш,Орджоникидзевский",0,1
ekb,"Свердловская область, Екатеринбург, улица Большакова",9681000,37.4,15.5,12.3,1,6,24,empty,0,2024,monolithBrick,empty,empty,empty,60.6167627288356,56.8194110964065,empty,3,"Геологическая,Чкаловская,Площадь 1905 года","17,20,3","walk,walk,transport",Центр,0,0
ekb,"Свердловская обл., г. Екатеринбург, ул. Академика Бардина, 31",3990000,36.4,empty,28.0,1,8,9,empty,empty,empty,empty,empty,empty,empty,60.562548,56.803593,empty,empty,,,,"Юго-Западный,Ленинский",empty,1
ekb,"Свердловская область, Екатеринбург, улица 22-го Партсъезда",6890000,49.28,empty,35.8,2,6,25,empty,0,2024,monolithBrick,empty,rough,empty,60.580178203762706,56.88574424988019,empty,empty,"Уралмаш,Машиностроителей,Проспект Космонавтов","3,3,4","transport,transport,transport","Уралмаш,Орджоникидзевский",0,0
ekb,"Свердловская обл., г. Екатеринбург, пр-кт Космонавтов, 61а",4200000,42.0,empty,28.0,2,4,5,empty,empty,empty,empty,empty,empty,empty,60.611605,56.908989,empty,empty,,,,"Уралмаш,Орджоникидзевский",empty,1
ekb,"Свердловская область, Екатеринбург, жилой район Южный, жилой комплекс Исеть Парк, 6",5078937,32.5,15.6,9.3,1,16,24,empty,0,2025,monolith,open,empty,empty,60.64114022090054,56.80454347263911,4,4,"Ботаническая,Чкаловская,Геологическая","14,3,5","walk,transport,transport",Октябрьский,0,0
ekb,"Свердловская обл., г. Екатеринбург, ул. Победы, 102",9950000,96.5,empty,54.0,4,6,8,empty,empty,empty,empty,empty,empty,empty,60.58373,56.905195,empty,empty,,,,"Уралмаш,Орджоникидзевский",empty,1
ekb,"Свердловская область, Екатеринбург, улица 22-го Партсъезда",5290000,36.41,empty,11.1,1,6,25,empty,0,2024,monolithBrick,empty,rough,empty,60.580178203762706,56.88574424988019,empty,empty,"Уралмаш,Машиностроителей,Проспект Космонавтов","3,3,4","transport,transport,transport","Уралмаш,Орджоникидзевский",0,0
ekb,"Свердловская обл., г. Екатеринбург, ул. Старых Большевиков, 29а",10200000,121.4,empty,70.0,3,10,11,empty,empty,empty,empty,empty,empty,empty,60.626661,56.892891,empty,empty,,,,"Эльмаш,Орджоникидзевский",empty,1
ekb,"Свердловская область, Екатеринбург, микрорайон Пионерский, улица Учителей",6904000,51.8,6.0,33.7,2,7,19,empty,0,2026,monolithBrick,empty,empty,empty,60.63061196029362,56.86849494449503,2,empty,"Машиностроителей,Уральская,Уралмаш","2,3,4","transport,transport,transport","Пионерский,Орджоникидзевский",0,0
ekb,"Свердловская обл., г. Екатеринбург, ул. Чапаева, 17",3600000,28.6,empty,19.0,1,5,5,empty,empty,empty,empty,empty,empty,empty,60.613851,56.817134,empty,empty,,,,Автовокзал,empty,1
ekb,"Свердловская область, Екатеринбург, улица Академика Бардина, 26А",8515000,47.1,10.0,22.2,2,30,31,empty,1,2023,monolithBrick,empty,empty,empty,60.564632,56.804451,2,2,"Чкаловская,Геологическая,Площадь 1905 года","4,5,6","transport,transport,transport","Юго-Западный,Ленинский",0,0
ekb,"Свердловская обл., г. Екатеринбург, ул. Громова, 142",5680000,63.8,empty,35.0,3,8,9,empty,empty,empty,empty,empty,empty,empty,60.55917,56.800543,empty,empty,,,,"Юго-Западный,Ленинский",empty,1
ekb,"Свердловская область, Екатеринбург, улица Большакова",17157000,82.9,18.9,31.1,2,3,24,empty,0,2024,monolithBrick,empty,empty,empty,60.6167627288,56.8194110964,empty,3,"Геологическая,Чкаловская,Площадь 1905 года","17,20,3","walk,walk,transport",Центр,0,0
ekb,"Свердловская обл., г. Екатеринбург, ул. Минометчиков, 42",4690000,58.1,empty,43.4,3,4,5,empty,empty,empty,empty,empty,empty,empty,60.526777,56.866558,empty,empty,,,,"Старая Сортировка,Железнодорожный",empty,1
ekb,"Свердловская область, Екатеринбург, улица Крауля",7180000,44.3,13.2,20.3,2,7,8,empty,0,2025,monolithBrick,empty,empty,empty,60.5228656095575,56.8299709907565,1,empty,"Площадь 1905 года,Геологическая,Динамо","7,7,8","transport,transport,transport","ВИЗ,Верх-Исетский",0,0
ekb,"Свердловская обл., г. Екатеринбург, ул. Ангарская, 54б",4990000,56.4,empty,40.0,2,5,10,empty,empty,empty,empty,empty,empty,empty,60.51376,56.885712,empty,empty,,,,"Старая Сортировка,Железнодорожный",empty,1
ekb,"Свердловская область, Екатеринбург, улица Декабристов, 20",15128000,76.8,22.9,13.8,2,13,17,empty,1,2023,monolithBrick,empty,fine,empty,60.6189071188741,56.8250363835434,2,empty,"Геологическая,Площадь 1905 года,Чкаловская","14,3,3","walk,transport,transport",Октябрьский,0,0
ekb,"Свердловская обл., г. Екатеринбург, ул. Билимбаевская, 17",3850000,44.6,empty,26.0,2,5,5,empty,empty,empty,empty,empty,empty,empty,60.51624,56.881119,empty,empty,,,,"Старая Сортировка,Железнодорожный",empty,1
ekb,"Свердловская область, Екатеринбург, микрорайон Пионерский, улица Учителей",5568000,35.6,11.0,13.6,1,2,19,empty,0,2026,monolithBrick,empty,empty,empty,60.63061196029362,56.86849494449503,2,empty,"Машиностроителей,Уральская,Уралмаш","2,3,4","transport,transport,transport","Пионерский,Орджоникидзевский",0,0
ekb,"Свердловская обл., г. Екатеринбург, ул. Восточная, 24",4950000,45.2,empty,25.0,2,1,5,empty,empty,empty,empty,empty,empty,empty,60.621316,56.85148,empty,empty,,,,Центр,empty,1
ekb,"Свердловская область, Екатеринбург, улица Академика Бардина, 26А",7727000,48.8,13.9,17.8,1,16,31,empty,1,2023,monolithBrick,empty,empty,empty,60.564632,56.804451,2,2,"Чкаловская,Геологическая,Площадь 1905 года","4,5,6","transport,transport,transport","Юго-Западный,Ленинский",0,0
ekb,"Свердловская обл., г. Екатеринбург, ул. Серафимы Дерябиной, 32-б",4490000,45.5,empty,17.3,1,10,16,empty,empty,empty,empty,empty,empty,empty,60.535077,56.810202,empty,empty,,,,"Юго-Западный,Ленинский",empty,1
ekb,"Свердловская область, Екатеринбург, улица Большакова",9541000,40.6,17.2,13.0,1,2,24,empty,0,2024,monolithBrick,empty,empty,empty,60.6167627288356,56.8194110964065,empty,3,"Геологическая,Чкаловская,Площадь 1905 года","17,20,3","walk,walk,transport",Центр,0,0
ekb,"Свердловская обл., г. Екатеринбург, ул. Белинского, 177а/3",9550000,70.5,empty,12.9,2,4,32,empty,empty,empty,empty,empty,empty,empty,60.639623,56.798251,empty,empty,,,,Октябрьский,empty,1
ekb,"Свердловская область, Екатеринбург, улица Крауля",5284000,31.8,10.7,10.8,1,22,31,empty,0,2025,monolithBrick,empty,empty,empty,60.5234986108864,56.8314296643902,empty,4,"Площадь 1905 года,Динамо,Геологическая","7,7,7","transport,transport,transport","ВИЗ,Верх-Исетский",0,0
ekb,"Россия, Свердловская область, Екатеринбург, улица Декабристов, 45",10900000,70.0,10.0,45.0,3,7,9,1989,empty,empty,brick,ground,empty,2,60.623058,56.824262,1,empty,"Геологическая,Чкаловская,Ботаническая","19,4,5","walk,transport,transport",Октябрьский,0,1
ekb,"Свердловская область, Екатеринбург, улица Декабристов, 20",10550000,54.4,16.4,14.1,1,2,17,empty,1,2023,monolithBrick,empty,fine,empty,60.6189071188741,56.8250363835434,2,empty,"Геологическая,Площадь 1905 года,Чкаловская","14,3,3","walk,transport,transport",Октябрьский,0,0
ekb,"Свердловская обл., г. Екатеринбург, ул. Куйбышева, 181",4990000,56.3,empty,38.0,3,4,5,empty,empty,empty,empty,empty,empty,empty,60.658201,56.825749,empty,empty,,,,"Шарташский рынок,Октябрьский",empty,1
ekb,"Свердловская область, Екатеринбург, Вознесенский бульвар",24376100,73.9,19.9,29.1,2,2,9,empty,0,2025,monolithBrick,empty,rough,empty,60.61082067990024,56.85078083090487,empty,1,"Динамо,Уральская,Площадь 1905 года","12,15,3","walk,walk,transport",Центр,0,0
ekb,"Свердловская обл., г. Екатеринбург, ул. Пионеров, 4",3650000,33.3,empty,19.8,1,8,9,empty,empty,empty,empty,empty,empty,empty,60.624586,56.855393,empty,empty,,,,"Пионерский,Кировский",empty,1
ekb,"Свердловская область, Екатеринбург, улица Маршала Жукова",30188000,78.1,12.2,41.5,2,3,16,empty,0,2023,monolithBrick,empty,rough,empty,60.590030594264,56.8419892193226,1,1,"Динамо,Площадь 1905 года,Уральская","13,13,3","walk,walk,transport",Центр,0,0
ekb,"Свердловская обл., г. Екатеринбург, ул. Белореченская, 15, корпус 2",5240000,58.1,empty,45.0,3,2,5,empty,empty,empty,empty,empty,empty,empty,60.566276,56.818218,empty,empty,,,,"Юго-Западный,Верх-Исетский",empty,1
ekb,"Свердловская область, Екатеринбург, квартал Центральный, улица Азина",11429000,51.9,14.6,21.1,2,12,31,empty,0,2025,monolithBrick,empty,empty,empty,60.6124923439322,56.8499547541323,2,2,"Динамо,Уральская,Площадь 1905 года","12,17,3","walk,walk,transport",Центр,0,0
ekb,"Свердловская обл., г. Екатеринбург, ул. Евгения Савкова, 31",5990000,64.4,empty,26.7,2,4,7,empty,empty,empty,empty,empty,empty,empty,60.485194,56.790536,empty,empty,,,,Широкая Речка,empty,1
ekb,"Свердловская область, Екатеринбург, улица Вильгельма де Геннина",4294000,31.7,7.7,14.8,1,2,25,empty,0,2026,monolithBrick,empty,fine,empty,60.5247702090138,56.7970020880222,17,empty,"Чкаловская,Геологическая,Площадь 1905 года","8,9,9","transport,transport,transport",Академический,0,0
ekb,"Свердловская обл., г. Екатеринбург, ул. Амундсена, 118",6620000,70.0,empty,50.0,3,21,27,empty,empty,empty,empty,empty,empty,empty,60.544249,56.772971,empty,empty,,,,"УНЦ,Ленинский",empty,1
ekb,"Свердловская область, Екатеринбург, Вознесенский бульвар",18788500,55.0,14.7,19.2,1,3,9,empty,0,2025,monolithBrick,empty,rough,empty,60.61082067990024,56.85078083090487,empty,1,"Динамо,Уральская,Площадь 1905 года","12,15,3","walk,walk,transport",Центр,0,0
ekb,"Свердловская обл., г. Екатеринбург, ул. Надеждинская, 26",5220000,50.8,empty,27.0,2,7,16,empty,empty,empty,empty,empty,empty,empty,60.543737,56.873101,empty,empty,,,,"Новая Сортировка,Железнодорожный",empty,1
ekb,"Свердловская область, Екатеринбург, Машинная улица, 1В/2",19514000,74.3,25.5,28.2,2,24,30,empty,1,2023,monolithBrick,empty,without,empty,60.631062,56.814675,2,1,"Чкаловская,Ботаническая,Геологическая","2,3,3","transport,transport,transport",Автовокзал,0,0
ekb,"Свердловская обл., г. Екатеринбург, ул. Анны Бычковой, 18",3890000,33.6,empty,15.0,1,9,9,empty,empty,empty,empty,empty,empty,empty,60.673732,56.827591,empty,empty,,,,"Синие Камни,Октябрьский",empty,1
ekb,"Свердловская область, Екатеринбург, улица Маршала Жукова",21040500,56.1,18.3,22.3,1,2,16,empty,0,2023,monolithBrick,empty,rough,empty,60.590030594264,56.8419892193226,1,1,"Динамо,Площадь 1905 года,Уральская","13,13,3","walk,walk,transport",Центр,0,0
ekb,"Свердловская обл., г. Екатеринбург, ул. Техническая, 158",5300000,58.1,empty,43.0,2,2,25,empty,empty,empty,empty,empty,empty,empty,60.500933,56.883986,empty,empty,,,,"Старая Сортировка,Железнодорожный",empty,1
ekb,"Свердловская область, Екатеринбург, квартал Центральный, улица Азина",8619000,34.6,14.1,9.9,1,14,31,empty,0,2025,monolithBrick,empty,empty,empty,60.6124923439322,56.8499547541323,2,2,"Динамо,Уральская,Площадь 1905 года","12,17,3","walk,walk,transport",Центр,0,0
ekb,"Свердловская обл., г. Екатеринбург, ул. Самолетная, 23",6560000,67.2,empty,48.0,2,16,16,empty,empty,empty,empty,empty,empty,empty,60.638815,56.786947,empty,empty,,,,"Уктус,Чкаловский",empty,1
ekb,"Свердловская область, Екатеринбург, Машинная улица, 1В/2",10619670,51.4,22.6,16.6,1,5,30,empty,1,2023,monolithBrick,empty,without,empty,60.631062,56.814675,2,1,"Чкаловская,Ботаническая,Геологическая","2,3,3","transport,transport,transport",Автовокзал,0,0
ekb,"Свердловская обл., г. Екатеринбург, ул. Московская, 214, корпус 2",6270000,64.3,empty,40.6,3,6,9,empty,empty,empty,empty,empty,empty,empty,60.592444,56.797132,empty,empty,,,,"Юго-Западный,Ленинский",empty,1
ekb,"Свердловская область, Екатеринбург, улица Академика Бардина, 26А",10637000,63.4,16.0,30.3,3,23,31,empty,1,2023,monolithBrick,empty,empty,empty,60.564632,56.804451,2,2,"Чкаловская,Геологическая,Площадь 1905 года","4,5,6","transport,transport,transport","Юго-Западный,Ленинский",0,0
ekb,"Свердловская обл., г. Екатеринбург, ул. Пехотинцев, 3, корпус 4",5090000,50.5,empty,30.0,1,8,12,empty,empty,empty,empty,empty,empty,empty,60.54645,56.872757,empty,empty,,,,"Новая Сортировка,Железнодорожный",empty,1
ekb,"Свердловская область, Екатеринбург, жилой район Южный, жилой комплекс Исеть Парк, 4",8885055,76.1,17.9,34.4,3,16,24,empty,0,2024,monolith,open,empty,empty,60.641438,56.803923,4,4,"Ботаническая,Чкаловская,Геологическая","13,3,5","walk,transport,transport",Октябрьский,0,0
ekb,"Свердловская обл., г. Екатеринбург, ул. Белинского, 232",6090000,58.6,empty,44.0,3,4,5,empty,empty,empty,empty,empty,empty,empty,60.632131,56.79796,empty,empty,,,,"Ботанический,Чкаловский",empty,1
ekb,"Свердловская область, Екатеринбург, улица 22-го Партсъезда",11131069,83.69,empty,38.3,3,8,8,empty,0,2024,monolithBrick,empty,rough,empty,60.58097213763092,56.885808853125106,empty,empty,"Уралмаш,Машиностроителей,Проспект Космонавтов","3,3,4","transport,transport,transport","Уралмаш,Орджоникидзевский",0,0
ekb,"Свердловская обл., г. Екатеринбург, ул. Академика Бардина, 34",4300000,48.0,empty,25.0,2,1,12,empty,empty,empty,empty,empty,empty,empty,60.571621,56.801292,empty,empty,,,,"Юго-Западный,Ленинский",empty,1
ekb,"Свердловская область, Екатеринбург, Кировский район, микрорайон Втузгородок, улица Мира, 47",10852000,61.78,empty,24.8,2,11,27,empty,0,2025,monolithBrick,empty,without,empty,60.65765468122782,56.83188860626082,empty,3,"Геологическая,Площадь 1905 года,Динамо","5,5,6","transport,transport,transport","Втузгородок,Кировский",0,0
ekb,"Свердловская обл., г. Екатеринбург, ул. Кунарская, 12",4850000,50.5,empty,14.0,1,15,16,empty,empty,empty,empty,empty,empty,empty,60.510724,56.880711,empty,empty,,,,"Старая Сортировка,Железнодорожный",empty,1
ekb,"Свердловская область, Екатеринбург, Удельная улица",5190210,37.0,empty,22.0,2,2,7,empty,0,2025,brick,open,empty,empty,60.47406298539567,56.79908169563492,empty,1,"Чкаловская,Геологическая,Площадь 1905 года","13,13,13","transport,transport,transport",Широкая Речка,0,0
ekb,"620067, Свердловская обл, г Екатеринбург, Кировский р-н, ул Уральская, д 82",10500000,90.0,7.5,56.8,4,5,9,empty,empty,empty,brick,empty,empty,empty,60.639084,56.851421,1,empty,,,,"Пионерский,Кировский",0,1
ekb,"Свердловская область, Екатеринбург, улица Вильгельма де Геннина",6943000,58.87,empty,empty,2,2,22,empty,0,2026,monolithBrick,empty,empty,empty,60.5226063418444,56.7950615414084,4,5,"Чкаловская,Геологическая,Площадь 1905 года","8,9,10","transport,transport,transport",Академический,0,0
ekb,"Россия, Свердловская область, Екатеринбург, Союзная улица, 27",7290000,40.3,11.0,17.0,1,21,27,2015,empty,empty,brick,underground,empty,0,60.60909,56.803958,2,1,"Чкаловская,Ботаническая,Геологическая","7,5,5","walk,transport,transport",Автовокзал,0,1
ekb,"Свердловская область, Екатеринбург, улица Мира, 47/7",7367000,31.3,4.4,15.8,1,2,24,empty,empty,2023,monolithBrick,empty,rough,empty,60.656727,56.831999,empty,3,"Геологическая,Площадь 1905 года,Чкаловская","5,5,6","transport,transport,transport","Втузгородок,Кировский",0,0
ekb,"620026, Свердловская обл, г Екатеринбург, Октябрьский р-н, ул Энгельса, д 38",7700000,46.9,7.9,27.6,2,9,9,1985,empty,empty,brick,empty,empty,empty,60.625179,56.834038,1,empty,,,,Центр,0,1
ekb,"Свердловская область, Екатеринбург, жилой комплекс Космонавтов 11, 4.2",7087014,49.5,15.8,24.1,2,5,16,empty,0,2025,monolith,open,fine,empty,60.6063416389,56.8649045437,1,1,"Уральская,Машиностроителей,Динамо","13,2,3","walk,transport,transport","Завокзальный,Железнодорожный",0,0
ekb,"620091, Свердловская обл, г Екатеринбург, Орджоникидзевский р-н, ул Энтузиастов, д 36б/2",6400000,50.0,5.5,30.0,2,11,23,2020,empty,empty,monolith,empty,empty,empty,60.631664,56.895713,2,2,,,,"Эльмаш,Орджоникидзевский",0,1
ekb,"Свердловская область, Екатеринбург, улица Краснолесья",5692000,40.76,10.9,17.2,1,6,17,empty,0,2025,monolithBrick,empty,fine,empty,60.518803339949,56.7953182338319,2,2,"Чкаловская,Геологическая,Площадь 1905 года","9,9,10","transport,transport,transport",Академический,0,0
ekb,"620028, Свердловская обл, г Екатеринбург, Верх-Исетский р-н, ул Крылова, д 26, кв 73",5400000,43.1,5.6,28.6,2,4,5,1966,empty,empty,brick,empty,empty,1,60.56986,56.836007,0,0,,,,"ВИЗ,Верх-Исетский",0,1
ekb,"Свердловская область, Екатеринбург, улица Попова, 18",26660500,75.1,empty,empty,2,27,28,empty,1,2023,monolithBrick,empty,without,empty,60.5866652638891,56.8354357545398,1,1,"Площадь 1905 года,Геологическая,Динамо","12,2,2","walk,transport,transport",Центр,0,0
ekb,"620102, Свердловская обл, г Екатеринбург, Ленинский р-н, ул Фурманова, д 124",18350000,92.0,10.0,55.2,3,14,21,2016,empty,empty,monolithBrick,empty,empty,0,60.588249,56.81436,2,1,,,,Юго-Западный,0,1
ekb,"Свердловская область, Екатеринбург, улица Академика Ландау",5495817,44.19,empty,empty,2,7,15,empty,0,2025,monolithBrick,empty,empty,empty,60.506132461591584,56.77996712118311,empty,4,"Чкаловская,Геологическая,Ботаническая","11,12,12","transport,transport,transport",Академический,0,0
ekb,"Свердловская область, Екатеринбург, улица Токарей, 40",7480000,44.8,11.0,18.1,1,15,18,2012,empty,empty,block,empty,empty,empty,60.560913,56.834624,1,1,,,,"ВИЗ,Верх-Исетский",0,1
ekb,"Свердловская область, Екатеринбург, улица Вильгельма де Геннина",4859000,36.67,empty,empty,1,2,22,empty,0,2026,monolithBrick,empty,empty,empty,60.5226063418444,56.7950615414084,4,5,"Чкаловская,Геологическая,Площадь 1905 года","8,9,10","transport,transport,transport",Академический,0,0
ekb,"620100, Свердловская обл, г Екатеринбург, Октябрьский р-н, ул Ткачей, д 19/2",14700000,50.8,12.7,25.0,2,29,30,empty,empty,empty,monolith,empty,empty,empty,60.634719,56.81506,2,2,,,,"Парковый,Октябрьский",0,1
ekb,"Свердловская область, Екатеринбург, улица Амундсена",5830000,31.74,empty,empty,1,3,24,empty,0,2025,monolithBrick,empty,empty,empty,60.5283756812676,56.76585291803,2,empty,"Чкаловская,Ботаническая,Геологическая","10,11,12","transport,transport,transport",Академический,0,0
ekb,"Свердловская область, Екатеринбург, улица 8 Марта, 204Г",10500000,66.9,24.0,28.0,2,21,25,empty,empty,empty,monolith,empty,fine,1,60.605721,56.795515,2,1,"Чкаловская,Ботаническая,Геологическая","2,3,5","transport,transport,transport","Ботанический,Чкаловский",0,1
ekb,"Свердловская область, Екатеринбург, жилой комплекс Космонавтов 11, 4.2",5244838,33.9,10.6,15.9,1,23,25,empty,0,2025,monolith,open,fine,empty,60.6063416388685,56.8649045436668,3,empty,"Уральская,Машиностроителей,Динамо","13,2,3","walk,transport,transport","Завокзальный,Железнодорожный",0,0
ekb,"Свердловская обл, Екатеринбург, ул. Народной воли, 69",80000000,253.0,40.0,160.0,5,8,8,2000,empty,empty,brick,empty,empty,empty,60.615126,56.826365,1,empty,,,,Центр,0,0
ekb,"Свердловская область, Екатеринбург, улица Академика Ландау",4304927,32.88,empty,empty,1,8,15,empty,0,2025,monolithBrick,empty,empty,empty,60.506132461600004,56.7799671212,empty,4,"Чкаловская,Геологическая,Ботаническая","11,12,12","transport,transport,transport",Академический,0,0
ekb,"Екатеринбург,Пионерский, Уральская, 56А",5100000,47.2,7.4,empty,2,7,10,1992,empty,empty,empty,empty,empty,1,60.627433,56.857455,1,0,,,,"Пионерский,Кировский",empty,0
ekb,"Свердловская область, Екатеринбург, улица Ландау",6145105,44.59,empty,empty,2,8,10,empty,0,2025,monolithBrick,empty,empty,empty,60.49564813093295,56.78587955382408,empty,empty,"Чкаловская,Геологическая,Площадь 1905 года","11,12,13","transport,transport,transport",Академический,0,0
ekb,"Россия, Свердловская область, Екатеринбург, улица Радищева, 24",69900000,100.0,empty,empty,2,10,20,2020,empty,empty,monolith,empty,empty,0,60.587943,56.829931,2,2,"Геологическая,Площадь 1905 года,Чкаловская","15,17,5","walk,walk,transport",Центр,0,0
ekb,"Свердловская область, Екатеринбург, Черкасская улица",7476000,48.12,19.5,15.5,2,3,16,empty,0,2026,monolithBrick,empty,empty,empty,60.56050064619954,56.82364269895815,1,1,"Геологическая,Площадь 1905 года,Чкаловская","4,4,5","transport,transport,transport","Юго-Западный,Верх-Исетский",0,0
ekb,"Свердловская обл, Екатеринбург, ул. Гурзуфская, 22",4099000,32.0,7.1,16.1,1,7,9,1970,empty,empty,brick,empty,empty,empty,60.579706,56.825533,1,empty,,,,"Юго-Западный,Верх-Исетский",0,0
ekb,"Свердловская область, Екатеринбург, улица Очеретина",6728000,56.97,empty,empty,2,2,21,empty,0,2025,monolithBrick,empty,empty,empty,60.5168482513,56.7981065616,empty,empty,"Чкаловская,Геологическая,Площадь 1905 года","9,9,10","transport,transport,transport",Академический,0,0
ekb,"Свердловская область, Екатеринбург, улица Щербакова, 148",5900000,61.0,18.0,26.0,2,6,25,empty,1,2023,monolith,empty,fine,empty,60.671451,56.767451,1,1,"Чкаловская,Геологическая,Ботаническая","10,13,14","transport,transport,transport","Уктус,Чкаловский",0,0
ekb,"Свердловская область, Екатеринбург, микрорайон Пионерский, улица Учителей",9244000,71.7,10.5,40.6,3,3,19,empty,0,2026,monolithBrick,empty,empty,empty,60.63061196029362,56.86849494449503,2,empty,"Машиностроителей,Уральская,Уралмаш","2,3,4","transport,transport,transport","Пионерский,Орджоникидзевский",0,0
ekb,"Свердловская обл, Екатеринбург, ул. Ткачей, 17",22400000,113.0,25.0,54.0,3,8,15,2019,empty,empty,monolith,empty,empty,empty,60.633021,56.816311,1,1,,,,"Парковый,Октябрьский",0,0
ekb,"Свердловская область, Екатеринбург, улица Академика Бардина, 26А",10458000,63.7,16.0,30.3,3,20,31,empty,1,2023,monolithBrick,empty,empty,empty,60.564632,56.804451,2,2,"Чкаловская,Геологическая,Площадь 1905 года","4,5,6","transport,transport,transport","Юго-Западный,Ленинский",0,0
ekb,"Свердловская область, Екатеринбург г., Верх-Исетский, Пальмиро Тольятти ул., д.15, к.д",5999000,55.2,7.0,32.0,2,11,12,empty,empty,empty,brick,empty,empty,0,60.584629,56.82073,2,empty,,,,"Юго-Западный,Верх-Исетский",empty,0
ekb,"Свердловская область, Екатеринбург, улица 8 Марта, 204Д",7817000,38.1,5.4,19.8,2,9,25,empty,1,2023,monolithBrick,empty,empty,empty,60.605721,56.795515,2,1,"Чкаловская,Ботаническая,Геологическая","2,3,5","transport,transport,transport","Ботанический,Чкаловский",0,0
ekb,"Россия, Свердловская область, Екатеринбург, улица Энтузиастов, 36Б/2",8900000,70.0,12.0,51.0,3,20,23,2020,empty,empty,monolith,empty,empty,empty,60.631664,56.895713,2,2,"Проспект Космонавтов,Уралмаш,Машиностроителей","19,3,5","walk,transport,transport","Эльмаш,Орджоникидзевский",0,0
ekb,"Свердловская область, Екатеринбург, улица Большакова",18822000,77.7,20.3,37.8,3,3,24,empty,0,2024,monolithBrick,empty,empty,empty,60.6167627288356,56.8194110964065,empty,3,"Геологическая,Чкаловская,Площадь 1905 года","17,20,3","walk,walk,transport",Центр,0,0
ekb,"Свердловская обл, Екатеринбург, ул. Готвальда, 15",4500000,33.9,7.0,18.0,1,4,9,empty,empty,empty,panel,empty,empty,empty,60.568153,56.8512,1,empty,,,,"Заречный,Верх-Исетский",0,0
ekb,"Свердловская область, Екатеринбург, улица Крауля",8718000,73.8,13.7,35.4,3,2,31,empty,0,2025,monolithBrick,empty,empty,empty,60.5234986108864,56.8314296643902,empty,4,"Площадь 1905 года,Динамо,Геологическая","7,7,7","transport,transport,transport","ВИЗ,Верх-Исетский",0,0
ekb,"Свердловская обл, Екатеринбург, пр-кт. Космонавтов, 11в",6400000,39.6,18.3,11.6,1,22,25,2021,empty,empty,monolith,empty,empty,empty,60.608111,56.866854000000004,1,1,,,,"Завокзальный,Железнодорожный",0,0
ekb,"Свердловская область, Екатеринбург, улица Стачек",7435784,43.06,empty,empty,2,11,25,empty,0,2025,monolithBrick,empty,empty,empty,60.623093792309696,56.892951377734306,2,empty,"Уралмаш,Проспект Космонавтов,Машиностроителей","12,15,3","walk,walk,transport","Эльмаш,Орджоникидзевский",0,0
ekb,"Свердловская обл, Екатеринбург, ул. Славянская, 62",2730000,27.0,6.0,16.0,1,2,5,1973,empty,empty,panel,empty,empty,1,60.71033,56.76608,empty,empty,,,,"Химмаш,Чкаловский",0,0
ekb,"Свердловская область, Екатеринбург, улица Ландау",4947152,35.32,empty,empty,1,5,10,empty,0,2025,monolithBrick,empty,empty,empty,60.49564813093295,56.78587955382408,empty,empty,"Чкаловская,Геологическая,Площадь 1905 года","11,12,13","transport,transport,transport",Академический,0,0
ekb,"Россия, Свердловская область, Екатеринбург, улица Анатолия Мехренцева, 1",7500000,63.0,12.0,32.0,2,3,17,empty,empty,empty,monolithBrick,empty,empty,0,60.537162,56.791606,1,1,"Чкаловская,Геологическая,Площадь 1905 года","11,12,13","transport,transport,transport",УНЦ,0,0
ekb,"Свердловская область, Екатеринбург, Черкасская улица",5648000,29.71,11.4,9.5,1,3,16,empty,0,2026,monolithBrick,empty,empty,empty,60.56050064619954,56.82364269895815,1,1,"Геологическая,Площадь 1905 года,Чкаловская","4,4,5","transport,transport,transport","Юго-Западный,Верх-Исетский",0,0
ekb,"Россия, Свердловская область, Екатеринбург, улица Малый Конный Полуостров, 13",3190000,29.0,6.0,16.0,1,1,5,1968,empty,empty,panel,empty,empty,empty,60.517632,56.839996,empty,empty,"Площадь 1905 года,Геологическая,Динамо","8,9,10","transport,transport,transport","ВИЗ,Верх-Исетский",0,0
ekb,"Свердловская область, Екатеринбург, Комсомольская улица, 67",10408000,64.6,16.8,28.1,2,6,25,empty,empty,2020,monolithBrick,empty,rough,empty,60.661857,56.837022,empty,empty,"Геологическая,Площадь 1905 года,Динамо","6,6,6","transport,transport,transport","Втузгородок,Кировский",0,0
ekb,"Екатеринбург,Уктус, Светлый Микрорайон, 4",4430000,41.8,18.0,empty,1,12,25,2016,empty,empty,empty,empty,empty,1,60.704015,56.777913,1,1,,,,"Уктус,Чкаловский",empty,0
ekb,"Свердловская область, Екатеринбург, улица Очеретина",5231000,40.15,empty,empty,1,14,21,empty,0,2025,monolithBrick,empty,empty,empty,60.5168482513111,56.7981065616007,empty,empty,"Чкаловская,Геологическая,Площадь 1905 года","9,9,10","transport,transport,transport",Академический,0,0
ekb,"Екатеринбург,Солнечный, Счастливая, 4",5600000,41.6,16.7,empty,1,7,12,2017,empty,empty,empty,empty,empty,1,60.567255,56.746273,0,0,,,,"Солнечный,Чкаловский",empty,0
ekb,"Свердловская область, Екатеринбург, улица Декабристов, 20",18745000,98.1,26.6,44.5,3,2,17,empty,1,2023,monolithBrick,empty,fine,empty,60.6189071188741,56.8250363835434,2,empty,"Геологическая,Площадь 1905 года,Чкаловская","14,3,3","walk,transport,transport",Октябрьский,0,0
ekb,"Свердловская область, Екатеринбург г., Академический, Краснолесья ул., д.14, к.1",5500000,59.6,8.1,36.3,3,9,9,1997,empty,empty,brick,empty,empty,0,60.54619,56.779999,1,empty,,,,"УНЦ,Ленинский",empty,0
ekb,"Свердловская область, Екатеринбург, Удельная улица",5666444,44.0,empty,28.0,2,4,6,empty,0,2025,monolith,open,empty,empty,60.4746316137062,56.7999234886092,1,2,"Чкаловская,Геологическая,Площадь 1905 года","12,13,13","transport,transport,transport",Широкая Речка,0,0
ekb,"Россия, Свердловская область, Екатеринбург, жилой район Уралмаш, жилой комплекс Темп",5930000,43.0,18.0,13.0,1,6,13,empty,0,2024,monolith,underground,fine,empty,60.5788214497673,56.887826609433,1,1,,,,"Уралмаш,Орджоникидзевский",0,0
ekb,"Свердловская область, Екатеринбург, Тенистая улица",5710000,51.96,10.1,27.2,2,2,26,empty,0,2025,monolithBrick,empty,fine,empty,60.5002463994426,56.8012917205354,empty,7,"Чкаловская,Геологическая,Площадь 1905 года","10,10,11","transport,transport,transport",Широкая Речка,0,0
ekb,"Свердловская обл, Екатеринбург, ул. Хмелева, 6",5300000,52.3,5.0,36.8,3,4,4,1959,empty,empty,panel,empty,empty,1,60.583092,56.887335,empty,empty,,,,"Уралмаш,Орджоникидзевский",0,0
ekb,"Свердловская область, Екатеринбург, улица Сони Морозовой",11449259,45.1,empty,empty,2,6,29,empty,0,2026,monolithBrick,empty,empty,empty,60.6261522169788,56.8343286341302,empty,4,"Площадь 1905 года,Геологическая,Динамо","2,2,3","transport,transport,transport",Центр,0,0
ekb,"Россия, Свердловская область, Екатеринбург, Техническая улица, 152",4799000,48.0,8.0,30.0,2,9,9,1988,empty,empty,panel,ground,empty,0,60.502585,56.882299,1,0,"Уральская,Динамо,Уралмаш","12,14,14","transport,transport,transport","Старая Сортировка,Железнодорожный",0,0
ekb,"Свердловская область, Екатеринбург, улица Амундсена",7210000,51.41,empty,empty,2,2,22,empty,0,2025,monolithBrick,empty,empty,empty,60.5235059733,56.7641182156,3,1,"Чкаловская,Ботаническая,Геологическая","11,11,13","transport,transport,transport",Академический,0,0
ekb,"Екатеринбург,Академический, Академика Ландау, 38",6600000,51.0,17.0,empty,2,7,14,empty,empty,empty,empty,empty,empty,0,60.506727,56.780852,0,0,,,,Академический,empty,0
ekb,"Свердловская область, Екатеринбург, Железнодорожный район, микрорайон Новая Сортировка, улица Софьи Перовской",6840000,53.72,13.8,23.8,2,4,18,empty,0,2024,monolithBrick,empty,fine,empty,60.561760530440274,56.86127015346791,2,4,"Уральская,Динамо,Машиностроителей","4,4,5","transport,transport,transport","Новая Сортировка,Железнодорожный",0,0
ekb,"Свердловская область,Старая Сортировка, Пехотинцев, 2в",11290000,99.0,33.7,empty,3,8,9,2023,empty,empty,empty,empty,empty,2,60.537236,56.873521,1,0,Уральская,6,transport,"Старая Сортировка,Железнодорожный",empty,0
ekb,"Свердловская область, Екатеринбург, улица 8 Марта, 204Д",7874000,37.3,15.5,12.0,1,16,25,empty,1,2023,monolithBrick,empty,empty,empty,60.605721,56.795515,2,1,"Чкаловская,Ботаническая,Геологическая","2,3,5","transport,transport,transport","Ботанический,Чкаловский",0,0
ekb,"Россия, Свердловская область, Екатеринбург, Хрустальногорская улица, 84",6250000,55.0,13.0,30.0,2,11,14,2015,empty,empty,block,empty,empty,empty,60.496207,56.795609,1,2,"Геологическая,Площадь 1905 года,Чкаловская","12,14,15","transport,transport,transport",Широкая Речка,0,0
ekb,"Свердловская область, Екатеринбург, Хрустальногорская улица, 89",7938707,62.51,14.2,31.2,2,12,17,empty,empty,2023,monolithBrick,empty,fine,empty,60.499334,56.795771,2,2,"Чкаловская,Геологическая,Площадь 1905 года","10,11,11","transport,transport,transport",Широкая Речка,0,0
ekb,"Россия, Свердловская область, Екатеринбург, Таватуйская улица, 4Г",4350000,47.0,11.0,20.0,1,7,10,2005,empty,empty,panel,ground,empty,empty,60.545049,56.869048,1,empty,"Уралмаш,Уральская,Машиностроителей","8,8,10","transport,transport,transport","Новая Сортировка,Железнодорожный",0,0
ekb,"Свердловская область, Екатеринбург, улица Стачек",6777465,43.06,empty,empty,1,2,25,empty,0,2025,monolithBrick,empty,empty,empty,60.623093792309696,56.892951377734306,2,empty,"Уралмаш,Проспект Космонавтов,Машиностроителей","12,15,3","walk,walk,transport","Эльмаш,Орджоникидзевский",0,0
ekb,"Россия, Свердловская область, Екатеринбург, Машинная улица, 4",10490000,55.0,19.0,23.0,2,5,27,2024,empty,empty,monolithBrick,underground,empty,0,60.626921,56.814956,2,2,"Чкаловская,Ботаническая,Геологическая","3,4,6","transport,transport,transport",Автовокзал,0,0
ekb,"Свердловская область, Екатеринбург, улица 8 Марта, 204Д",8636000,37.0,5.0,22.9,2,24,25,empty,1,2023,monolithBrick,empty,empty,empty,60.605721,56.795515,2,1,"Чкаловская,Ботаническая,Геологическая","2,3,5","transport,transport,transport","Ботанический,Чкаловский",0,0
ekb,"Екатеринбург,Юго-Западный, Амундсена, 5",6950000,34.0,12.4,11.2,1,10,31,2023,empty,empty,empty,empty,empty,1,60.59071,56.804934,1,1,,,,"Юго-Западный,Ленинский",empty,0
ekb,"Свердловская область, Екатеринбург, Вознесенский бульвар",40187500,125.3,31.8,49.7,3,3,9,empty,0,2025,monolithBrick,empty,rough,empty,60.61082067990024,56.85078083090487,empty,1,"Динамо,Уральская,Площадь 1905 года","12,15,3","walk,walk,transport",Центр,0,0
ekb,"Россия, Свердловская область, Екатеринбург, улица Куйбышева, 21",19300000,87.0,20.0,50.0,3,4,21,2016,empty,empty,brick,underground,empty,empty,60.589965,56.826104,2,1,"Геологическая,Площадь 1905 года,Чкаловская","10,4,5","walk,transport,transport",Центр,0,0
ekb,"Свердловская область, Екатеринбург, Шефская улица",5990000,35.26,empty,empty,2,10,24,empty,0,2025,monolith,empty,empty,empty,60.6347244636262,56.8947883903667,empty,empty,"Проспект Космонавтов,Уралмаш,Машиностроителей","2,2,3","transport,transport,transport","Эльмаш,Орджоникидзевский",0,0
ekb,"Свердловская обл, Екатеринбург, ул. Ломоносова, 55",4700000,45.0,8.0,27.0,2,3,14,1975,empty,empty,block,empty,empty,1,60.591276,56.902757,1,1,,,,"Уралмаш,Орджоникидзевский",0,0
ekb,"Свердловская область, Екатеринбург, Тенистая улица",4330000,36.35,14.6,12.0,1,2,26,empty,0,2025,monolithBrick,empty,fine,empty,60.5002463994426,56.8012917205354,empty,7,"Чкаловская,Геологическая,Площадь 1905 года","10,10,11","transport,transport,transport",Широкая Речка,0,0
ekb,"Свердловская область, Екатеринбург, улица Амундсена",8250000,54.0,18.0,23.0,2,12,18,empty,0,2024,monolith,underground,rough,empty,60.5293788274,56.7661769751,1,1,,,,"УНЦ,Ленинский",0,0
ekb,"Свердловская область, Екатеринбург, улица Сони Морозовой",11511413,42.2,empty,empty,1,6,29,empty,0,2026,monolithBrick,empty,empty,empty,60.6261522169788,56.8343286341302,empty,4,"Площадь 1905 года,Геологическая,Динамо","2,2,3","transport,transport,transport",Центр,0,0
ekb,"Екатеринбург,Новая Сортировка, Пехотинцев, 2В",5800000,39.1,22.5,empty,1,3,9,2023,empty,empty,empty,empty,empty,1,60.538804999999996,56.874159,1,1,,,,"Старая Сортировка,Железнодорожный",empty,0
ekb,"Свердловская область, Екатеринбург, улица Амундсена",5780000,36.3,empty,empty,1,2,22,empty,0,2025,monolithBrick,empty,empty,empty,60.5235059733,56.7641182156,3,1,"Чкаловская,Ботаническая,Геологическая","11,11,13","transport,transport,transport",Академический,0,0
ekb,"Екатеринбург,Центр, Шейнкмана, 90",10460000,49.3,16.0,empty,1,11,16,2012,empty,empty,empty,empty,empty,1,60.588204,56.826193,1,1,,,,Центр,empty,0
ekb,"Свердловская область, Екатеринбург, улица Маршала Жукова",39705000,113.5,12.6,58.7,3,6,16,empty,0,2023,monolithBrick,empty,rough,empty,60.590030594264,56.8419892193226,1,1,"Динамо,Площадь 1905 года,Уральская","13,13,3","walk,walk,transport",Центр,0,0
ekb,"Россия, Свердловская область, Екатеринбург, улица Шейнкмана, 119",15960000,183.1,29.5,93.4,3,11,25,2010,empty,empty,block,underground,empty,1,60.591689,56.820163,2,2,"Геологическая,Чкаловская,Площадь 1905 года","17,4,5","walk,transport,transport",Центр,0,0
ekb,"Свердловская область, Екатеринбург, Железнодорожный район, микрорайон Новая Сортировка, улица Софьи Перовской",4990000,37.83,15.0,11.1,1,2,18,empty,0,2024,monolithBrick,empty,fine,empty,60.561760530440274,56.86127015346791,2,4,"Уральская,Динамо,Машиностроителей","4,4,5","transport,transport,transport","Новая Сортировка,Железнодорожный",0,0
ekb,"Свердловская обл, Екатеринбург, пер. Шадринский, 14/2",8370000,59.1,9.4,empty,2,6,24,2011,empty,empty,monolithBrick,empty,empty,1,60.634701,56.850757,1,1,,,,"Пионерский,Кировский",0,0
ekb,"Свердловская область, Екатеринбург, проспект Космонавтов",5561438,38.2,5.3,empty,2,21,26,empty,0,2025,monolith,empty,empty,empty,60.6084243359672,56.9226282396764,empty,empty,"Проспект Космонавтов,Уралмаш,Машиностроителей","4,6,7","transport,transport,transport","Уралмаш,Орджоникидзевский",0,0
ekb,"Россия, Свердловская область, Екатеринбург, улица Сурикова, 31",6500000,51.1,7.4,30.5,2,9,9,1989,empty,empty,brick,ground,empty,empty,60.599927,56.813838,1,empty,"Чкаловская,Геологическая,Площадь 1905 года","13,4,5","walk,transport,transport",Автовокзал,0,0
ekb,"Свердловская область, Екатеринбург, Хрустальногорская улица, 89/2",5213965,34.76,10.6,14.7,1,15,17,empty,empty,2023,monolithBrick,empty,fine,empty,60.499864,56.796333,2,4,"Чкаловская,Геологическая,Площадь 1905 года","10,11,11","transport,transport,transport",Широкая Речка,0,0
ekb,"Свердловская обл, Екатеринбург, ул. Красных командиров, 29",10100000,98.0,40.0,empty,2,6,25,2009,empty,empty,monolith,empty,empty,empty,60.628538,56.897846,empty,empty,,,,"Эльмаш,Орджоникидзевский",0,0
ekb,"Свердловская область, Екатеринбург, улица Азина",14646000,70.5,empty,33.4,3,7,29,empty,0,2024,monolithBrick,empty,empty,empty,60.609098542672,56.8514700302208,2,2,"Динамо,Уральская,Площадь 1905 года","11,13,3","walk,walk,transport",Центр,0,0
ekb,"Россия, Свердловская область, Екатеринбург, Водная улица, 21",4600000,51.8,7.8,32.6,2,2,9,1992,empty,empty,panel,ground,empty,0,60.708398,56.746643,1,empty,"Ботаническая,Чкаловская,Геологическая","11,15,18","transport,transport,transport","Химмаш,Чкаловский",0,0
ekb,"Свердловская область, Екатеринбург, улица Академика Парина, 37А",8796385,59.7,empty,empty,2,29,32,empty,1,2023,monolithBrick,empty,fine,empty,60.503097,56.783742,empty,empty,"Чкаловская,Геологическая,Ботаническая","11,12,12","transport,transport,transport",Академический,0,0
ekb,"Россия, Свердловская область, Екатеринбург, улица Старых Большевиков, 86",3650000,30.1,6.0,20.0,1,3,5,1966,empty,empty,brick,ground,empty,empty,60.61598,56.90113,empty,empty,"Проспект Космонавтов,Уралмаш,Машиностроителей","3,17,4","walk,walk,transport","Эльмаш,Орджоникидзевский",0,0
ekb,"Свердловская область, Екатеринбург, проспект Космонавтов, 26А/2",8463988,51.61,12.8,24.1,2,2,32,empty,empty,2023,monolithBrick,empty,fine,empty,60.61737062698288,56.88039954971945,1,3,"Машиностроителей,Уралмаш,Проспект Космонавтов","6,12,3","walk,walk,transport","Эльмаш,Орджоникидзевский",0,0
ekb,"Россия, Свердловская область, Екатеринбург, Тбилисский бульвар, 3",7600000,63.2,8.2,39.5,3,5,10,1992,empty,empty,panel,ground,empty,1,60.628664,56.793592,1,empty,"Ботаническая,Чкаловская,Геологическая","5,5,8","walk,transport,transport","Ботанический,Чкаловский",0,0
ekb,"Свердловская область, Екатеринбург, Машинная улица, 1В/2",20986000,117.5,23.3,50.9,3,3,30,empty,1,2023,monolithBrick,empty,without,empty,60.631062,56.814675,2,1,"Чкаловская,Ботаническая,Геологическая","2,3,3","transport,transport,transport",Автовокзал,0,0
ekb,"Россия, Свердловская область, Екатеринбург, Академическая улица, 17",5260000,31.0,6.0,empty,1,3,5,1963,empty,empty,brick,ground,empty,1,60.651113,56.85121,empty,empty,"Машиностроителей,Площадь 1905 года,Уральская","8,8,8","transport,transport,transport","Втузгородок,Кировский",0,0
ekb,"Свердловская область, Екатеринбург, улица Академика Парина, 35/2",6248533,40.6,empty,empty,2,23,31,empty,1,2023,monolithBrick,empty,fine,empty,60.507769,56.782775,1,1,"Чкаловская,Геологическая,Ботаническая","10,11,12","transport,transport,transport",Академический,0,0
ekb,"Россия, Свердловская область, Екатеринбург, улица Куйбышева, 48А",9260000,55.4,8.4,empty,2,4,4,1941,empty,empty,stalin,ground,empty,1,60.621217,56.828453,0,0,"Геологическая,Площадь 1905 года,Чкаловская","15,5,5","walk,transport,transport",Октябрьский,0,0
ekb,"Свердловская область, Екатеринбург, проспект Космонавтов",5539880,34.4,12.7,empty,1,11,26,empty,0,2025,monolith,empty,empty,empty,60.6084243359672,56.9226282396764,empty,empty,"Проспект Космонавтов,Уралмаш,Машиностроителей","4,6,7","transport,transport,transport","Уралмаш,Орджоникидзевский",0,0
ekb,"Россия, Свердловская область, Екатеринбург, Самоцветный бульвар, 6",7990000,48.2,8.0,28.0,2,8,9,1990,empty,empty,panel,ground,empty,0,60.612791,56.794322,1,0,"Ботаническая,Чкаловская,Геологическая","17,3,7","walk,transport,transport","Ботанический,Чкаловский",0,0
ekb,"Свердловская область, Екатеринбург, улица 8 Марта",8010000,50.69,11.8,24.2,2,2,25,empty,0,2025,monolithBrick,empty,empty,empty,60.6037776348872,56.7951242710681,2,2,,,,"Ботанический,Чкаловский",0,0
ekb,"Россия, Свердловская область, Екатеринбург, улица Металлургов, 10А",6500000,58.2,6.5,empty,3,6,9,1974,empty,empty,panel,empty,empty,1,60.553125,56.826232,1,0,"Геологическая,Площадь 1905 года,Динамо","6,6,9","transport,transport,transport","ВИЗ,Верх-Исетский",0,0
ekb,"Свердловская область, Екатеринбург, улица Раевского, 18/4",8920000,54.99,16.2,23.4,2,2,33,empty,0,2024,monolithBrick,empty,fine,empty,60.659117,56.858262,2,2,"Уральская,Машиностроителей,Динамо","5,5,6","transport,transport,transport","Втузгородок,Кировский",0,0
ekb,"Россия, Свердловская область, Екатеринбург, улица Тверитина, 41",12990000,55.1,empty,empty,2,22,24,2023,empty,empty,monolith,ground,empty,1,60.625987,56.821666,1,2,"Геологическая,Чкаловская,Ботаническая","4,4,5","transport,transport,transport","Парковый,Октябрьский",0,0
ekb,"Свердловская область, Екатеринбург, улица Академика Парина, 37А",6135948,39.3,empty,empty,1,28,32,empty,1,2023,monolithBrick,empty,fine,empty,60.503097,56.783742,empty,empty,"Чкаловская,Геологическая,Ботаническая","11,12,12","transport,transport,transport",Академический,0,0
ekb,"Россия, Свердловская область, Екатеринбург, Техническая улица, 12",5400000,48.0,8.0,30.0,2,12,16,1996,empty,empty,panel,ground,empty,0,60.546854,56.863449,1,1,"Уральская,Динамо,Машиностроителей","7,8,9","transport,transport,transport","Новая Сортировка,Железнодорожный",0,0
ekb,"Свердловская область, Екатеринбург, проспект Космонавтов, 26А/2",6476763,36.71,14.3,12.8,1,2,32,empty,empty,2023,monolithBrick,empty,fine,empty,60.617370627,56.8803995497,1,3,"Машиностроителей,Уралмаш,Проспект Космонавтов","6,12,3","walk,walk,transport","Эльмаш,Орджоникидзевский",0,0
ekb,"Россия, Свердловская область, Екатеринбург, Олимпийская набережная, 9/1",39900000,90.0,32.0,36.0,3,11,28,2019,empty,empty,brick,underground,empty,0,60.592812,56.849433,2,2,"Динамо,Уральская,Площадь 1905 года","8,15,4","walk,walk,transport",Центр,0,0
ekb,"Свердловская область, Екатеринбург, улица Очеретина",6728000,56.97,11.5,28.1,2,2,21,empty,0,2025,monolithBrick,empty,empty,empty,60.5168482513,56.7981065616,empty,empty,"Чкаловская,Геологическая,Площадь 1905 года","9,9,10","transport,transport,transport",Академический,0,0
ekb,"Россия, Свердловская область, Екатеринбург, улица Маршала Жукова, 10",17000000,92.8,10.0,60.0,4,7,12,1985,empty,empty,brick,ground,empty,0,60.59036,56.840951,1,1,"Площадь 1905 года,Динамо,Геологическая","11,19,4","walk,walk,transport",Центр,0,0
ekb,"Свердловская область, Екатеринбург, улица Академика Ландау",5624000,43.76,11.2,21.7,2,11,16,empty,0,2025,monolithBrick,empty,without,empty,60.5094352142629,56.7793083544394,5,2,"Чкаловская,Геологическая,Ботаническая","10,12,12","transport,transport,transport",Академический,0,0
ekb,"Свердловская область, Екатеринбург, улица Большакова",9000000,45.0,20.0,14.0,1,7,24,empty,0,2024,monolith,ground,fine,empty,60.6167627288,56.8194110964,3,empty,,,,Ленинский,0,0
ekb,"Свердловская область, Екатеринбург, улица Краснофлотцев, 71",8850000,61.21,empty,empty,2,23,26,empty,1,2024,monolithBrick,empty,fine,empty,60.6470988591374,56.8980497133803,empty,4,"Проспект Космонавтов,Уралмаш,Машиностроителей","3,3,5","transport,transport,transport","Эльмаш,Орджоникидзевский",0,0
ekb,"620137, Свердловская обл, г Екатеринбург, Кировский р-н, Парковый пер, д 39 к 2",9900000,112.3,19.9,54.4,3,5,6,empty,empty,empty,brick,empty,empty,empty,60.637458,56.857406,empty,empty,,,,"Пионерский,Кировский",0,0
ekb,"Свердловская область, Екатеринбург, улица Декабристов",16225200,52.78,empty,empty,1,8,9,empty,0,2024,monolithBrick,empty,empty,empty,60.6105358623625,56.822155737718,1,1,"Геологическая,Чкаловская,Площадь 1905 года","10,2,3","walk,transport,transport",Центр,0,0
ekb,"Свердловская область, Екатеринбург г., Верх-Исетский, Заводская ул., д.20",3340000,30.0,5.3,16.6,1,2,5,empty,empty,empty,brick,empty,empty,0,60.552747,56.836731,empty,empty,,,,"ВИЗ,Верх-Исетский",empty,0
ekb,"Свердловская область, Екатеринбург, улица Академика Парина, 35/2",6427629,40.5,empty,empty,1,25,31,empty,1,2023,monolithBrick,empty,fine,empty,60.507769,56.782775,1,1,"Чкаловская,Геологическая,Ботаническая","10,11,12","transport,transport,transport",Академический,0,0
ekb,"Свердловская область, Екатеринбург г., Верх-Исетский, Ясная ул., д.18",11500000,89.1,10.0,62.0,4,13,14,empty,empty,empty,brick,empty,empty,0,60.575493,56.817025,1,1,,,,"Юго-Западный,Верх-Исетский",empty,0
ekb,"Свердловская область, Екатеринбург, улица Гагарина",8400000,51.05,empty,empty,1,1,31,empty,1,2024,monolithBrick,empty,fine,empty,60.6447543968735,56.84926480686,empty,4,"Динамо,Уральская,Площадь 1905 года","4,4,5","transport,transport,transport","Втузгородок,Кировский",0,0
ekb,"Свердловская область, Екатеринбург г., Ленинский, Куйбышева ул., д.2",17990000,138.9,12.6,84.8,5,11,16,1995,empty,empty,monolith,empty,empty,3,60.588572,56.825089,1,1,Геологическая,12,walk,Центр,empty,0
ekb,"Свердловская область, Екатеринбург, улица 8 Марта",6340000,36.6,15.3,10.1,1,2,25,empty,0,2025,monolithBrick,empty,empty,empty,60.6037776348872,56.7951242710681,2,2,,,,"Ботанический,Чкаловский",0,0
ekb,"Свердловская область, Екатеринбург г., Кировский, Ленина пр-кт., д.97",6900000,57.8,10.3,31.3,2,2,5,empty,empty,empty,brick,empty,empty,0,60.640827,56.84294,empty,empty,,,,"Втузгородок,Кировский",empty,0
ekb,"Свердловская область, Екатеринбург, улица Раевского, 18/5",6790000,36.0,15.2,11.2,1,16,27,empty,0,2024,monolithBrick,empty,fine,empty,60.659934,56.858066,2,1,"Уральская,Машиностроителей,Динамо","5,6,6","transport,transport,transport","Втузгородок,Кировский",0,0
ekb,"Свердловская область, Екатеринбург, улица Донбасская, д.4",3750000,44.1,10.0,28.1,2,2,9,1975,empty,empty,empty,empty,empty,1,60.57181,56.891617,empty,empty,"Уралмаш,Проспект Космонавтов,Машиностроителей","5,7,7","transport,transport,transport","Уралмаш,Орджоникидзевский",0,0
ekb,"Свердловская область, Екатеринбург, улица Архитектора Белянкина",5745600,50.4,5.2,34.2,2,12,13,empty,0,2024,empty,empty,empty,empty,60.4908240116566,56.7900425722559,empty,1,"Чкаловская,Геологическая,Площадь 1905 года","11,12,13","transport,transport,transport",Широкая Речка,0,0
ekb,"620041, Свердловская обл, г Екатеринбург, Кировский р-н, ул Уральская, д 1",18000000,197.7,49.4,109.1,5,10,10,1999,empty,empty,brick,empty,empty,2,60.622861,56.863163,1,0,,,,"Пионерский,Кировский",0,0
ekb,"Свердловская область, Екатеринбург, улица Зелёный Остров",6595160,57.2,17.7,22.5,2,2,25,empty,0,2024,empty,empty,empty,empty,60.49937741132995,56.83976633290108,empty,2,"Динамо,Площадь 1905 года,Уральская","9,9,10","transport,transport,transport","ВИЗ,Верх-Исетский",0,0
ekb,"Свердловская область, Екатеринбург г., Орджоникидзевский, Республиканская ул., д.5",3400000,31.3,6.0,20.0,1,16,16,empty,empty,empty,monolith,empty,empty,0,60.56995,56.904895,2,1,,,,"Уралмаш,Орджоникидзевский",empty,0
ekb,"Свердловская область, Екатеринбург, улица Щербакова, 148",7800000,58.7,empty,empty,2,10,26,empty,1,2023,monolithBrick,empty,empty,empty,60.671451,56.767451,empty,empty,"Ботаническая,Чкаловская,Геологическая","6,9,12","transport,transport,transport","Уктус,Чкаловский",0,0
ekb,"Свердловская обл, Екатеринбург, ул. Кировградская, 12",7290000,39.47,18.0,10.0,1,24,26,2021,empty,empty,monolith,empty,empty,empty,60.601571,56.889262,1,empty,,,,"Уралмаш,Орджоникидзевский",0,0
ekb,"Свердловская область, Екатеринбург, улица Академика Ландау",6583500,52.25,12.0,26.5,2,5,25,empty,0,2025,monolithBrick,empty,empty,empty,60.5153056164212,56.7704068425506,12,empty,"Чкаловская,Ботаническая,Геологическая","11,12,12","transport,transport,transport",Академический,0,0
ekb,"Свердловская область, Екатеринбург г., Октябрьский, Мичурина ул., д.214",6200000,47.7,7.0,28.3,2,8,12,1980,empty,empty,panel,empty,empty,0,60.636309,56.820262,2,empty,,,,"Парковый,Октябрьский",empty,0
ekb,"Свердловская область, Екатеринбург, улица Амундсена",7350000,58.18,empty,empty,2,2,4,empty,0,2024,brick,empty,fine,empty,60.5341859058654,56.7662827189045,empty,empty,"Чкаловская,Ботаническая,Геологическая","10,10,12","transport,transport,transport","Академический,Ленинский",0,0
ekb,"Свердловская область, Екатеринбург г., Чкаловский, Водоемная ул., д.76",7900000,65.0,21.0,25.0,3,6,18,empty,empty,empty,brick,empty,empty,0,60.650484,56.792202,3,empty,Ботаническая,4,transport,"Уктус,Чкаловский",empty,0
ekb,"Свердловская область, Екатеринбург, улица Очеретина",5231000,40.15,10.7,15.6,1,15,21,empty,0,2025,monolithBrick,empty,empty,empty,60.5168482513111,56.7981065616007,empty,empty,"Чкаловская,Геологическая,Площадь 1905 года","9,9,10","transport,transport,transport",Академический,0,0
ekb,"Свердловская обл, Екатеринбург, мкр. Светлый, 7",3950000,35.3,12.0,15.0,1,14,29,2020,empty,empty,monolithBrick,empty,empty,empty,60.699316,56.780561,1,1,,,,"Уктус,Чкаловский",0,0
ekb,"Свердловская область, Екатеринбург, улица Николая Кичигина",7200000,54.96,empty,empty,2,23,26,empty,0,2024,monolithBrick,empty,empty,empty,60.4985528994745,56.7987102743604,empty,empty,"Чкаловская,Геологическая,Площадь 1905 года","10,11,11","transport,transport,transport",Широкая Речка,0,0
ekb,"Свердловская область, Екатеринбург г., Верх-Исетский, Московская ул., д.68",8100000,83.0,7.0,57.0,3,4,4,1957,empty,empty,brick,empty,empty,1,60.586434,56.8217,empty,empty,,,,"Юго-Западный,Верх-Исетский",empty,0
ekb,"Свердловская область, Екатеринбург, Проходной переулок",4680000,36.3,empty,21.7,2,5,12,empty,0,2025,monolithBrick,empty,rough,empty,60.540494243345634,56.87527919602316,4,1,"Уральская,Машиностроителей,Уралмаш","6,7,7","transport,transport,transport","Старая Сортировка,Железнодорожный",0,0
ekb,"Свердловская область, Екатеринбург г., Орджоникидзевский, Восстания ул., д.97",4990000,47.5,10.0,28.6,2,5,16,empty,empty,empty,panel,empty,empty,0,60.591447,56.906763,1,empty,Проспект Космонавтов,5,transport,"Уралмаш,Орджоникидзевский",empty,0
ekb,"Свердловская область, Екатеринбург, улица Академика Ландау",4157000,29.63,empty,11.2,1,2,23,empty,0,2025,monolithBrick,empty,without,empty,60.5094352143,56.7793083544,5,2,"Чкаловская,Геологическая,Ботаническая","10,12,12","transport,transport,transport",Академический,0,0
ekb,"Свердловская область, Екатеринбург г., Кировский, Сулимова ул., д.4",12990000,108.8,11.0,71.8,3,12,17,empty,empty,empty,brick,empty,empty,0,60.651346,56.861904,2,empty,,,,"Пионерский,Кировский",empty,0
ekb,"Свердловская область, Екатеринбург, микрорайон ЖБИ, улица 40-летия Комсомола",6460200,58.2,19.1,23.4,2,6,25,empty,0,2025,empty,empty,empty,empty,60.69437353701534,56.827323675365506,1,empty,"Ботаническая,Геологическая,Чкаловская","7,8,8","transport,transport,transport","ЖБИ,Кировский",0,0
ekb,"Свердловская область, Екатеринбург г., Кировский, Мира ул., д.12, литер а",8000000,94.9,8.0,67.8,5,1,9,1988,empty,empty,panel,empty,empty,0,60.646603,56.849364,1,empty,,,,"Втузгородок,Кировский",empty,0
ekb,"Свердловская область, Екатеринбург, улица Краснофлотцев, 71",4350000,26.26,empty,empty,1,23,26,empty,1,2024,monolithBrick,empty,fine,empty,60.6470988591374,56.8980497133803,empty,4,"Проспект Космонавтов,Уралмаш,Машиностроителей","3,3,5","transport,transport,transport","Эльмаш,Орджоникидзевский",0,0
ekb,"Свердловская область, Екатеринбург, Базовый переулок, 48",8500000,86.5,13.5,36.1,2,8,26,2007,empty,empty,monolith,empty,empty,empty,60.648112,56.806166,2,1,,,,Октябрьский,0,0
ekb,"Свердловская область, Екатеринбург, улица Куйбышева",9172050,65.05,17.7,24.7,2,5,25,empty,0,2024,monolithBrick,empty,empty,empty,60.648427779096,56.8280572344428,1,empty,"Площадь 1905 года,Чкаловская,Ботаническая","5,5,5","transport,transport,transport","Шарташский рынок,Октябрьский",0,0
ekb,"620105, Свердловская обл, г Екатеринбург, Академический р-н, ул Академика Парина, д 4",6800000,55.9,14.5,30.1,2,9,15,empty,empty,empty,monolithBrick,empty,empty,empty,60.535859,56.770258,1,1,,,,Академический,0,0
ekb,"Свердловская область, Екатеринбург, улица Фрунзе",12787152,60.09,empty,empty,2,28,28,empty,0,2024,monolithBrick,empty,empty,empty,60.6183454477459,56.8119423258438,2,empty,"Чкаловская,Геологическая,Ботаническая","10,3,3","walk,transport,transport",Автовокзал,0,0
ekb,"Свердловская область, Екатеринбург г., Ленинский, Белинского ул., д.135",4350000,33.2,7.0,18.1,1,7,9,1978,empty,empty,brick,empty,empty,0,60.623274,56.811852,1,empty,,,,Автовокзал,empty,0
ekb,"Свердловская область, Екатеринбург, улица Сакко и Ванцетти",19242823,49.35,empty,empty,1,6,30,empty,0,2025,monolith,underground,empty,empty,60.5875485714089,56.8309133867109,empty,empty,"Площадь 1905 года,Геологическая,Динамо","14,16,3","walk,walk,transport",Центр,0,0
ekb,"Свердловская область, Екатеринбург, улица Зелёный Остров",4365140,32.6,15.9,10.0,1,2,25,empty,0,2024,empty,empty,empty,empty,60.49937741132995,56.83976633290108,empty,2,"Динамо,Площадь 1905 года,Уральская","9,9,10","transport,transport,transport","ВИЗ,Верх-Исетский",0,0
ekb,"Свердловская область, Екатеринбург, улица Академика Шварца, д.16, к.2",7650000,62.5,7.5,40.0,3,2,10,1993,empty,empty,empty,empty,empty,empty,60.6272,56.794706,empty,empty,Ботаническая,4,walk,"Ботанический,Чкаловский",0,0
ekb,"Свердловская область, Екатеринбург, микрорайон Уктус, улица Щербакова",4100000,22.6,empty,empty,1,3,26,empty,0,2024,monolithBrick,empty,empty,empty,60.6721003399498,56.7671432673876,empty,empty,"Ботаническая,Чкаловская,Геологическая","6,9,12","transport,transport,transport","Уктус,Чкаловский",0,0
ekb,"Свердловская область, Екатеринбург, улица Бебеля, д.184",6600000,86.7,13.0,67.0,3,7,16,1998,empty,empty,empty,empty,empty,empty,60.553223,56.87439,empty,empty,,,,"Новая Сортировка,Железнодорожный",0,0
ekb,"Свердловская область, Екатеринбург, улица Амундсена",5438160,32.76,empty,empty,1,2,4,empty,0,2024,brick,empty,fine,empty,60.5348403648665,56.7672489788803,empty,empty,"Чкаловская,Ботаническая,Геологическая","10,10,12","transport,transport,transport","Академический,Ленинский",0,0
ekb,"Свердловская область, Екатеринбург г., Железнодорожный, Техническая ул., д.68",6650000,76.7,26.0,32.0,3,3,6,1992,empty,empty,brick,empty,empty,1,60.519689,56.87442,empty,empty,,,,"Старая Сортировка,Железнодорожный",empty,0
ekb,"Свердловская область, Екатеринбург, микрорайон Пионерский, улица Менжинского",9788100,61.95,empty,25.1,2,17,22,empty,0,2024,monolithBrick,empty,without,empty,60.6397559378499,56.859996488443,1,5,"Уральская,Машиностроителей,Динамо","4,4,4","transport,transport,transport","Пионерский,Кировский",0,0
ekb,"Свердловская область, Екатеринбург г., Кировский, Комсомольская ул., д.27",7790000,81.0,11.0,53.0,3,2,3,1953,empty,empty,stalin,empty,empty,2,60.657248,56.848685,empty,empty,,,,"Втузгородок,Кировский",empty,0
ekb,"Свердловская область, Екатеринбург, улица Краснолесья, 96",6412000,43.68,4.2,30.5,2,2,25,empty,1,2023,monolithBrick,empty,empty,empty,60.5195007142927,56.7949944295198,1,1,"Чкаловская,Геологическая,Площадь 1905 года","9,9,10","transport,transport,transport",Академический,0,0
ekb,"Свердловская область, Екатеринбург, Техническая улица, 94",6950000,73.9,8.0,51.8,3,10,10,2006,empty,empty,brick,empty,empty,empty,60.512215,56.878512,1,empty,,,,"Старая Сортировка,Железнодорожный",0,0
ekb,"Свердловская область, Екатеринбург, улица Николая Кичигина",3750000,24.55,empty,empty,1,21,26,empty,0,2024,monolithBrick,empty,empty,empty,60.4985528994745,56.7987102743604,empty,empty,"Чкаловская,Геологическая,Площадь 1905 года","10,11,11","transport,transport,transport",Широкая Речка,0,0
ekb,"Свердловская область, Екатеринбург г., Верх-Исетский, Ясная ул., д.33",13600000,98.1,10.0,64.8,3,12,18,2006,empty,empty,monolith,empty,empty,1,60.567489,56.810694,1,empty,,,,"Юго-Западный,Ленинский",empty,0
ekb,"Свердловская область, Екатеринбург, Проходной переулок",4230000,33.52,empty,10.1,1,4,12,empty,0,2025,monolithBrick,empty,rough,empty,60.540494243345634,56.87527919602316,4,1,"Уральская,Машиностроителей,Уралмаш","6,7,7","transport,transport,transport","Старая Сортировка,Железнодорожный",0,0
ekb,"Екатеринбург,Уралмаш, Восстания, 58а",9700000,96.6,10.0,empty,5,1,9,1989,empty,empty,empty,empty,empty,1,60.598211,56.905829,1,0,,,,"Уралмаш,Орджоникидзевский",empty,0
ekb,"Свердловская область, Екатеринбург, микрорайон ЖБИ, улица 40-летия Комсомола",4068000,33.9,16.1,10.2,1,6,25,empty,0,2025,empty,empty,empty,empty,60.69437353701534,56.827323675365506,1,empty,"Ботаническая,Геологическая,Чкаловская","7,8,8","transport,transport,transport","ЖБИ,Кировский",0,0
ekb,"Свердловская область, Екатеринбург г., Чкаловский, Братская ул., д.8",5500000,54.1,8.1,35.8,3,9,9,1969,empty,empty,brick,empty,empty,0,60.606116,56.778914,1,empty,,,,"Вторчермет,Чкаловский",empty,0
ekb,"Свердловская область, Екатеринбург, улица Фрунзе",6260760,36.72,empty,empty,1,13,28,empty,0,2025,monolithBrick,empty,empty,empty,60.6176319801476,56.8118628820665,3,empty,"Чкаловская,Геологическая,Ботаническая","9,3,3","walk,transport,transport",Автовокзал,0,0
ekb,"Свердловская область, Екатеринбург, улица Родонитовая, д.34",5750000,47.7,7.7,29.2,2,10,10,1994,empty,empty,empty,empty,empty,empty,60.627838,56.791616,empty,empty,"Ботаническая,Чкаловская","10,5","walk,transport","Ботанический,Чкаловский",0,0
ekb,"Свердловская область, Екатеринбург, жилой район Компрессорный, жилой комплекс Хрустальные Ключи, 5к5",5213600,53.2,5.0,36.3,2,2,25,empty,0,2025,empty,empty,empty,empty,60.76846,56.79795,2,1,"Ботаническая,Чкаловская,Геологическая","12,14,16","transport,transport,transport","Компрессорный,Октябрьский",0,0
ekb,"Свердловская область, Екатеринбург г., Верх-Исетский, Маршала Жукова ул., д.13",27000000,194.6,30.0,95.0,4,6,20,2008,empty,empty,brick,empty,empty,0,60.583946,56.841975,2,empty,,,,Центр,empty,0
ekb,"Свердловская область, Екатеринбург, Водоёмная улица",8700000,63.63,empty,empty,2,19,20,empty,0,2025,monolithBrick,empty,empty,empty,60.6538227752,56.7915318659,empty,2,"Ботаническая,Чкаловская,Геологическая","2,5,7","transport,transport,transport","Уктус,Чкаловский",0,0
ekb,"Свердловская область, Екатеринбург, улица Цвиллинга",10450000,67.0,21.0,26.5,2,4,17,empty,0,2025,monolithBrick,empty,empty,empty,60.6278042222274,56.8146461232733,1,1,"Чкаловская,Ботаническая,Геологическая","19,3,3","walk,transport,transport",Автовокзал,0,0
ekb,"Свердловская область, Екатеринбург г., Чкаловский, Щербакова ул., д.78",5000000,38.0,15.0,12.0,1,5,23,2023,empty,empty,monolithBrick,empty,empty,0,60.665791,56.777015,3,empty,"Ботаническая,Чкаловская,Геологическая","5,7,10","transport,transport,transport","Уктус,Чкаловский",empty,0
ekb,"Свердловская область, Екатеринбург, Орджоникидзевский район, Кировградская улица",10750000,67.55,empty,empty,2,14,22,empty,0,2025,monolithBrick,empty,fine,empty,60.6099236364538,56.8913962466093,empty,empty,"Уралмаш,Проспект Космонавтов,Машиностроителей","7,15,2","walk,walk,transport","Уралмаш,Орджоникидзевский",0,0
ekb,"Свердловская область, Екатеринбург г., Орджоникидзевский, Победы ул., д.8",3300000,31.4,5.3,19.1,1,5,5,1966,empty,empty,block,empty,empty,1,60.611398,56.894985,empty,empty,"Проспект Космонавтов,Уралмаш","8,9","walk,walk","Уралмаш,Орджоникидзевский",empty,0
ekb,"Свердловская область, Екатеринбург, улица Татищева, 20",15621000,74.3,empty,empty,2,3,15,empty,0,2026,monolithBrick,underground,without,empty,60.562907,56.836165,1,1,"Площадь 1905 года,Динамо,Геологическая","3,4,4","transport,transport,transport","ВИЗ,Верх-Исетский",0,0
ekb,"Свердловская область, Екатеринбург, улица Родонитовая, д.12",11900000,77.7,9.9,48.5,3,6,12,2004,empty,empty,empty,empty,empty,empty,60.621909,56.792054,empty,empty,Ботаническая,12,walk,"Ботанический,Чкаловский",0,0
ekb,"Свердловская область, Екатеринбург, Ветеринарная улица",9670000,48.69,empty,empty,2,2,24,empty,0,2026,monolithBrick,empty,empty,empty,60.5631507116,56.8226127819,6,3,"Геологическая,Площадь 1905 года,Чкаловская","4,4,5","transport,transport,transport","Юго-Западный,Верх-Исетский",0,0
ekb,"Свердловская область, Екатеринбург г., Академический, Павла Шаманова ул., д.44",8150000,81.0,14.0,47.3,3,10,10,2011,empty,empty,monolith,empty,empty,0,60.514785,56.792715,2,empty,,,,Академический,empty,0
ekb,"Свердловская область, Екатеринбург, микрорайон Пионерский, улица Менжинского",7278150,40.1,empty,12.5,1,20,22,empty,0,2024,monolithBrick,empty,empty,empty,60.6397559378499,56.859996488443,1,5,"Уральская,Машиностроителей,Динамо","4,4,4","transport,transport,transport","Пионерский,Кировский",0,0
ekb,"Свердловская область, Екатеринбург, улица Папанина, д.16",6700000,44.7,6.2,25.2,2,4,5,1972,empty,empty,empty,empty,empty,empty,60.577738,56.844121,empty,empty,"Площадь 1905 года,Динамо","4,4","transport,transport","ВИЗ,Верх-Исетский",0,0
ekb,"Свердловская область, Екатеринбург, Южногорская улица",7300000,59.82,empty,empty,2,6,8,empty,0,2025,monolithBrick,empty,empty,empty,60.704694755261,56.76594540587,empty,2,"Ботаническая,Чкаловская,Геологическая","8,11,14","transport,transport,transport","Химмаш,Чкаловский",0,0
ekb,"Свердловская область, Екатеринбург г., Кировский, Сыромолотова ул., д.17",6680000,63.4,8.0,40.4,3,7,9,1984,empty,empty,panel,empty,empty,0,60.68206,56.836234,1,empty,,,,"ЖБИ,Кировский",empty,0
ekb,"Свердловская область, Екатеринбург, улица Блюхера, 26",8750000,61.63,empty,22.6,2,5,31,empty,0,2026,monolithBrick,empty,without,empty,60.64913092757082,56.85449958131296,empty,empty,"Уральская,Динамо,Машиностроителей","4,5,5","transport,transport,transport","Втузгородок,Кировский",0,0
ekb,"Свердловская область, Екатеринбург, Посадская улица, 34",3900000,33.4,6.0,19.0,1,5,5,empty,empty,empty,panel,empty,empty,empty,60.575547,56.819957,empty,empty,,,,"Юго-Западный,Верх-Исетский",0,0
ekb,"Свердловская область, Екатеринбург, жилой район Компрессорный, жилой комплекс Хрустальные Ключи, 5к4",3218160,31.8,9.5,14.9,1,14,25,empty,0,2024,empty,empty,empty,empty,60.768514,56.798527,1,2,"Ботаническая,Чкаловская,Геологическая","12,14,16","transport,transport,transport","Компрессорный,Октябрьский",0,0
ekb,"Екатеринбург,Автовокзал, Цвиллинга, 7а к 3",8000000,42.1,17.9,empty,1,10,33,2023,empty,empty,empty,empty,empty,0,60.626436,56.815528,1,1,,,,Автовокзал,empty,0
ekb,"Свердловская область, Екатеринбург, Водоёмная улица",4900000,28.21,empty,empty,1,14,20,empty,0,2025,monolithBrick,empty,empty,empty,60.65382277517511,56.79153186588722,empty,2,"Ботаническая,Чкаловская,Геологическая","2,5,7","transport,transport,transport","Уктус,Чкаловский",0,0
ekb,"Свердловская область, Екатеринбург г., Ленинский, Печатников ул., д.1",10500000,45.82,21.2,10.9,2,12,20,2023,empty,empty,monolithBrick,empty,empty,0,60.591195,56.803505,3,empty,,,,"Юго-Западный,Ленинский",empty,0
ekb,"Свердловская область, Екатеринбург, улица Репина",10050000,58.27,empty,empty,2,23,29,empty,0,2026,monolithBrick,empty,empty,empty,60.54778206214736,56.82518083542044,empty,4,"Площадь 1905 года,Геологическая,Динамо","5,5,6","transport,transport,transport","ВИЗ,Верх-Исетский",0,0
ekb,"Свердловская область, Екатеринбург г., Орджоникидзевский, 40-летия Октября ул., д.73, к.86",5700000,78.4,8.0,48.0,4,9,9,empty,empty,empty,panel,empty,empty,0,60.596774,56.903814,1,empty,Проспект Космонавтов,16,walk,"Уралмаш,Орджоникидзевский",empty,0
ekb,"Свердловская область, Екатеринбург, Орджоникидзевский район, Кировградская улица",8400000,45.69,empty,empty,1,11,22,empty,0,2025,monolithBrick,empty,fine,empty,60.6099236365,56.8913962466,empty,empty,"Уралмаш,Проспект Космонавтов,Машиностроителей","7,15,2","walk,walk,transport","Уралмаш,Орджоникидзевский",0,0
ekb,"620076, Свердловская обл, г Екатеринбург, Чкаловский р-н, ул Щербакова, д 148/2",4800000,41.0,17.0,12.0,1,14,25,empty,empty,empty,monolithBrick,empty,fine,empty,60.673131,56.765991,1,2,"Ботаническая,Чкаловская,Геологическая","6,9,12","transport,transport,transport","Уктус,Чкаловский",0,0
ekb,"Свердловская область, Екатеринбург, улица Щербакова",8400000,55.23,empty,empty,2,20,30,empty,0,2026,monolithBrick,empty,empty,empty,60.64896049535272,56.79043393323339,8,empty,"Ботаническая,Чкаловская,Геологическая","18,5,7","walk,transport,transport","Уктус,Чкаловский",0,0
ekb,"Свердловская область, Екатеринбург г., Кировский, Асбестовский пер., д.5",3450000,31.6,5.0,16.0,1,1,5,1965,empty,empty,brick,empty,empty,0,60.633317,56.848281,empty,empty,,,,"Пионерский,Кировский",empty,0
ekb,"Свердловская область, Екатеринбург, микрорайон Старая Сортировка, Сортировочная улица",7730000,63.5,22.4,26.6,2,9,17,empty,0,2024,monolith,empty,empty,empty,60.5374314206832,56.8732006577973,1,1,"Уральская,Машиностроителей,Проспект Космонавтов","8,10,12","transport,transport,transport","Старая Сортировка,Железнодорожный",0,0
ekb,"Свердловская область, Екатеринбург г., Верх-Исетский, Тенистая ул., д.6",3950000,25.4,6.0,11.0,1,1,23,2022,empty,empty,monolith,empty,empty,0,60.498588,56.801518,3,empty,,,,Широкая Речка,empty,0
ekb,"Свердловская область, Екатеринбург, Верх-Исетский район, микрорайон Визовский, жилой комплекс Нагорный",12665000,53.1,empty,empty,1,13,24,empty,0,2025,monolithBrick,empty,without,empty,60.56314766731915,56.83736075290221,3,4,"Площадь 1905 года,Динамо,Геологическая","3,4,4","transport,transport,transport","ВИЗ,Верх-Исетский",0,0
ekb,"Свердловская область, Екатеринбург г., Октябрьский, Машинная ул., д.42, к.2",3300000,29.0,6.0,15.0,1,5,5,empty,empty,empty,panel,empty,empty,1,60.629185,56.806146,empty,empty,,,,Автовокзал,empty,0
ekb,"Свердловская область, Екатеринбург, Ветеринарная улица",7110000,32.0,empty,empty,1,12,24,empty,0,2026,monolithBrick,empty,empty,empty,60.5631507116,56.8226127819,6,3,"Геологическая,Площадь 1905 года,Чкаловская","4,4,5","transport,transport,transport","Юго-Западный,Верх-Исетский",0,0
ekb,"Свердловская область, Екатеринбург г., Ленинский, Амундсена ул., д.7",9980000,50.0,10.0,30.0,2,3,24,2023,empty,empty,monolith,empty,empty,0,60.590117,56.804397,3,empty,,,,"Юго-Западный,Ленинский",empty,0
ekb,"Свердловская область, Екатеринбург, улица Блюхера",6407580,39.7,5.1,21.5,1,20,25,empty,0,2024,empty,empty,empty,empty,60.6477007325232,56.8591601454122,2,1,"Уральская,Машиностроителей,Динамо","4,5,5","transport,transport,transport","Пионерский,Кировский",0,0
ekb,"620092, Свердловская обл, г Екатеринбург, Кировский р-н, ул Владимира Высоцкого, д 5",11300000,71.8,14.2,51.0,2,27,29,2022,empty,empty,monolith,empty,empty,0,60.675376,56.842964,2,2,,,,"ЖБИ,Кировский",0,0
ekb,"Свердловская область, Екатеринбург, коттеджный посёлок Совушки, Абрикосовая улица",6720000,51.69,empty,empty,2,3,4,empty,1,2024,brick,empty,empty,empty,60.4810574125953,56.6998574231856,empty,empty,"Ботаническая,Чкаловская,Геологическая","21,22,24","transport,transport,transport","Горный Щит,Чкаловский",0,0
ekb,"620137, Свердловская обл, г Екатеринбург, Кировский р-н, ул Учителей, д 16",8100000,63.9,9.0,40.7,3,5,10,1995,empty,empty,panel,empty,empty,empty,60.635797,56.863951,empty,empty,,,,"Пионерский,Кировский",0,0
ekb,"Свердловская область, Екатеринбург, улица Академика Ландау",4916460,39.93,empty,empty,2,14,25,empty,0,2025,monolithBrick,empty,empty,empty,60.5258056971,56.770159838,2,1,"Чкаловская,Ботаническая,Геологическая","10,11,12","transport,transport,transport",Академический,0,0
ekb,"Свердловская область, Екатеринбург г., Кировский, Советская ул., д.6",4200000,42.3,6.0,26.0,2,1,9,1975,empty,empty,panel,empty,empty,0,60.628907,56.849531,1,empty,,,,"Пионерский,Кировский",empty,0
ekb,"Свердловская область, Екатеринбург, Кировский район, микрорайон Втузгородок, улица Мира, 47",11913000,74.01,15.8,37.1,3,2,27,empty,0,2025,monolithBrick,empty,without,empty,60.65765468122782,56.83188860626082,empty,3,"Геологическая,Площадь 1905 года,Динамо","5,5,6","transport,transport,transport","Втузгородок,Кировский",0,0
ekb,"620146, Свердловская обл, г Екатеринбург, Ленинский р-н, б-р Денисова-Уральского, д 8",5600000,62.8,9.0,39.0,3,9,9,empty,empty,empty,panel,empty,empty,empty,60.588509,56.796737,1,empty,,,,"Юго-Западный,Ленинский",0,0
ekb,"Свердловская область, Екатеринбург, Орджоникидзевский район, улица 22-го Партсъезда",8062500,62.5,empty,empty,2,15,21,empty,0,2024,panel,empty,empty,empty,60.5648190230767,56.8893234805294,1,empty,"Уралмаш,Машиностроителей,Проспект Космонавтов","5,5,5","transport,transport,transport","Уралмаш,Орджоникидзевский",0,0
ekb,"620146, Свердловская обл, г Екатеринбург, Ленинский р-н, проезд Решетникова, д 9",6800000,57.6,9.0,40.0,3,7,9,1976,empty,empty,panel,empty,empty,1,60.569959,56.794721,1,0,,,,"Юго-Западный,Ленинский",0,0
ekb,"Свердловская область, Екатеринбург, Южногорская улица",4500000,33.66,empty,empty,1,15,16,empty,0,2025,monolithBrick,empty,empty,empty,60.7033000065746,56.7664638949061,empty,2,"Ботаническая,Чкаловская,Геологическая","8,11,14","transport,transport,transport","Химмаш,Чкаловский",0,0
ekb,"Свердловская область, Екатеринбург г., Кировский, Бажова ул., д.55",21000000,144.0,30.0,71.0,3,1,5,empty,empty,empty,brick,empty,empty,0,60.624083,56.846435,empty,empty,,,,Центр,empty,0
ekb,"Свердловская область, Екатеринбург, улица Крауля",7982000,65.2,18.9,24.4,2,2,27,empty,0,2025,monolithBrick,empty,empty,empty,60.5223937116,56.8351950069,2,1,"Площадь 1905 года,Динамо,Геологическая","7,7,8","transport,transport,transport","ВИЗ,Верх-Исетский",0,0
ekb,"Свердловская область, Екатеринбург г., Чкаловский, Аптекарская ул., д.48",5200000,53.0,19.0,18.0,1,18,24,empty,empty,empty,monolith,empty,empty,1,60.608093,56.766341,3,empty,Ботаническая,8,transport,"Вторчермет,Чкаловский",empty,0
ekb,"Свердловская область, Екатеринбург, улица Блюхера, 26",6480000,41.2,empty,12.6,1,4,31,empty,0,2026,monolithBrick,empty,without,empty,60.6491309276,56.8544995813,empty,empty,"Уральская,Динамо,Машиностроителей","4,5,5","transport,transport,transport","Втузгородок,Кировский",0,0
ekb,"Свердловская область, Екатеринбург г., Октябрьский, 40-летия Комсомола ул., д.12",3950000,44.9,6.0,30.0,2,5,5,1963,empty,empty,brick,empty,empty,1,60.693693,56.832644,empty,empty,,,,"ЖБИ,Кировский",empty,0
ekb,"Свердловская область, Екатеринбург, Удельная улица",7821040,66.0,6.0,35.0,3,2,8,empty,0,2025,monolith,open,empty,empty,60.473365611051015,56.800882991748374,empty,1,"Чкаловская,Геологическая,Площадь 1905 года","13,13,13","transport,transport,transport",Широкая Речка,0,0
ekb,"Свердловская область, Екатеринбург г., Чкаловский, Профсоюзная ул., д.83",3170000,34.0,7.0,18.0,1,5,16,empty,empty,empty,panel,empty,empty,0,60.699909,56.758812,2,empty,,,,"Химмаш,Чкаловский",empty,0
ekb,"Свердловская область, Екатеринбург, улица Репина",7350000,42.79,empty,empty,1,15,29,empty,0,2026,monolithBrick,empty,empty,empty,60.54778206214736,56.82518083542044,empty,4,"Площадь 1905 года,Геологическая,Динамо","5,5,6","transport,transport,transport","ВИЗ,Верх-Исетский",0,0
ekb,"Свердловская область, Екатеринбург г., Кировский, Садовая ул., д.5",4070000,43.4,6.0,29.0,2,3,4,1963,empty,empty,brick,empty,empty,1,60.642031,56.861983,empty,empty,,,,"Пионерский,Кировский",empty,0
ekb,"Свердловская область, Екатеринбург, улица Щербакова",6600000,43.13,empty,empty,1,10,30,empty,0,2026,monolithBrick,empty,empty,empty,60.64896049535272,56.79043393323339,8,empty,"Ботаническая,Чкаловская,Геологическая","18,5,7","walk,transport,transport","Уктус,Чкаловский",0,0
ekb,"620147, Свердловская обл, г Екатеринбург, Ленинский р-н, проезд Решетникова, д 18/2",5190000,42.5,5.3,28.4,2,3,9,1976,empty,empty,panel,empty,empty,1,60.567749,56.797496,1,empty,,,,"Юго-Западный,Ленинский",0,0
ekb,"Свердловская область, Екатеринбург, улица Вильгельма де Геннина",8205000,61.82,empty,empty,3,13,22,empty,0,2026,monolithBrick,empty,empty,empty,60.5226063418444,56.7950615414084,4,5,"Чкаловская,Геологическая,Площадь 1905 года","8,9,10","transport,transport,transport",Академический,0,0
ekb,"Свердловская область, Екатеринбург, улица Гагарина, 9",9500000,41.1,16.4,11.1,1,26,31,empty,empty,empty,monolithBrick,empty,fine,empty,60.6447543969,56.8492648069,2,2,"Динамо,Уральская,Площадь 1905 года","4,4,5","transport,transport,transport","Втузгородок,Кировский",0,0
ekb,"Свердловская область, Екатеринбург, микрорайон Старая Сортировка, Сортировочная улица",5290000,36.4,14.4,10.7,1,8,17,empty,0,2024,monolith,empty,empty,1,60.5367555040118,56.874651765318,1,1,"Уральская,Машиностроителей,Проспект Космонавтов","9,10,11","transport,transport,transport","Старая Сортировка,Железнодорожный",0,0
ekb,"Свердловская область, Екатеринбург, Чкаловский район, микрорайон Рудный, Круговая улица, 18",4986176,50.4,10.4,27.3,2,9,9,empty,1,2022,monolithBrick,empty,empty,empty,60.6364970566,56.7226740441,empty,1,"Ботаническая,Чкаловская,Геологическая","12,14,18","transport,transport,transport","Рудный,Чкаловский",0,0
ekb,"Свердловская область, Екатеринбург, жилой комплекс Совушки, Абрикосовая улица",5800000,48.7,empty,empty,1,3,4,empty,0,2024,brick,empty,empty,empty,60.4837825369544,56.6993144013769,empty,empty,"Ботаническая,Чкаловская,Геологическая","21,22,24","transport,transport,transport","Горный Щит,Чкаловский",0,0
ekb,"Свердловская область, Екатеринбург, улица Академика Ландау",3858520,26.12,empty,empty,1,21,25,empty,0,2025,monolithBrick,empty,empty,empty,60.5258056970962,56.7701598379742,2,1,"Чкаловская,Ботаническая,Геологическая","10,11,12","transport,transport,transport",Академический,0,0
ekb,"Свердловская область, Екатеринбург, Орджоникидзевский район, улица 22-го Партсъезда",6049200,41.0,empty,empty,1,8,21,empty,0,2024,panel,empty,empty,empty,60.5648190230767,56.8893234805294,1,empty,"Уралмаш,Машиностроителей,Проспект Космонавтов","5,5,5","transport,transport,transport","Уралмаш,Орджоникидзевский",0,0
ekb,"Свердловская область, Екатеринбург, улица Владимира Высоцкого, 5",10800000,83.0,16.4,44.0,3,27,28,empty,empty,empty,monolithBrick,empty,fine,0,60.6743213293891,56.8444225117758,2,2,"Динамо,Площадь 1905 года,Уральская","7,7,7","transport,transport,transport","ЖБИ,Кировский",0,0
ekb,"Свердловская область, Екатеринбург, жилой комплекс Космонавтов 11, 4.2",8380218,74.8,19.3,37.5,3,5,25,empty,0,2025,monolith,open,fine,empty,60.6063416388685,56.8649045436668,3,empty,"Уральская,Машиностроителей,Динамо","13,2,3","walk,transport,transport","Завокзальный,Железнодорожный",0,0
ekb,"Свердловская область, Екатеринбург, улица Крауля",5606000,36.2,7.5,17.5,1,4,27,empty,0,2025,monolithBrick,empty,empty,empty,60.5223937116377,56.8351950069093,2,1,"Площадь 1905 года,Динамо,Геологическая","7,7,8","transport,transport,transport","ВИЗ,Верх-Исетский",0,0
ekb,"Свердловская область, Екатеринбург г., Кировский, Мира ул., д.41",11500000,91.9,30.0,32.0,3,6,25,2013,empty,empty,monolith,empty,empty,0,60.658039,56.833639,2,1,,,,"Втузгородок,Кировский",empty,0
ekb,"Свердловская область, Екатеринбург, улица Азина",8364000,51.0,5.9,21.6,2,21,32,empty,0,2026,empty,empty,empty,empty,60.6128531005238,56.8568012779094,empty,8,"Уральская,Динамо,Машиностроителей","11,19,4","walk,walk,transport",Центр,0,0
ekb,"Свердловская область, Екатеринбург, улица Владимира Высоцкого",9456018,64.2,empty,empty,2,3,31,empty,0,2025,monolithBrick,empty,fine,empty,60.67426156413806,56.84511022138195,2,empty,"Динамо,Площадь 1905 года,Уральская","7,7,7","transport,transport,transport","ЖБИ,Кировский",0,0
ekb,"Свердловская область, Екатеринбург г., Кировский, Мира ул., д.41",11500000,91.9,30.0,32.0,2,6,25,2013,empty,empty,monolith,empty,empty,0,60.658039,56.833639,2,1,,,,"Втузгородок,Кировский",empty,0
ekb,"Свердловская область, Екатеринбург, улица Попова, 18",32364000,111.6,empty,empty,3,10,15,empty,1,2023,monolithBrick,empty,without,empty,60.5858874233,56.8355460231,1,1,"Площадь 1905 года,Геологическая,Динамо","13,2,2","walk,transport,transport",Центр,0,0
ekb,"Свердловская область, Екатеринбург, улица Академика Ландау",8182867,64.71,empty,empty,3,5,12,empty,0,2025,monolithBrick,empty,empty,empty,60.5083318729836,56.7787773735302,empty,4,"Чкаловская,Геологическая,Ботаническая","11,12,12","transport,transport,transport",Академический,0,0
ekb,"Свердловская область, Екатеринбург, Чкаловский район, микрорайон Рудный, Круговая улица, 18",4355000,45.4,9.7,23.6,1,4,9,empty,1,2022,monolithBrick,empty,empty,empty,60.6364970565511,56.722674044091,empty,1,"Ботаническая,Чкаловская,Геологическая","12,14,18","transport,transport,transport","Рудный,Чкаловский",0,0
ekb,"Свердловская область, Екатеринбург, улица Щербакова, 148",6940300,61.73,16.5,26.4,2,22,25,empty,1,2023,monolithBrick,empty,empty,empty,60.671451,56.767451,empty,empty,"Ботаническая,Чкаловская,Геологическая","6,9,12","transport,transport,transport","Уктус,Чкаловский",0,0
ekb,"Свердловская область, Екатеринбург, улица Степана Разина, 2",15500000,57.3,26.3,22.5,1,5,16,2016,empty,empty,monolith,empty,empty,empty,60.606709,56.824636,1,1,,,,Центр,1,0
ekb,"Свердловская область, Екатеринбург, улица Щербакова",7316400,54.6,empty,empty,2,7,23,empty,1,2023,monolithBrick,empty,fine,empty,60.6658278519,56.776835287,3,1,"Ботаническая,Чкаловская,Геологическая","5,7,10","transport,transport,transport","Уктус,Чкаловский",0,0
ekb,"Свердловская область, Екатеринбург г., Чкаловский, Агрономическая ул., д.29",4190000,42.8,5.9,30.3,2,5,5,1961,empty,empty,panel,empty,empty,1,60.60635,56.777972,empty,empty,,,,"Вторчермет,Чкаловский",empty,0
ekb,"Свердловская область, Екатеринбург, улица Азина",6372400,35.8,15.3,11.2,1,6,32,empty,0,2026,empty,empty,empty,empty,60.6128531005238,56.8568012779094,empty,8,"Уральская,Динамо,Машиностроителей","11,19,4","walk,walk,transport",Центр,0,0
ekb,"Екатеринбург,Уктус, Павлодарская, дом 9.3, ЖК Просторы",6150000,41.11,12.0,empty,1,15,22,empty,empty,2025,empty,empty,fine,1,60.6528786376,56.791602521,1,1,,,,"Уктус,Чкаловский",empty,0
ekb,"Свердловская область, Екатеринбург, улица Владимира Высоцкого",6738563,43.3,empty,empty,1,5,31,empty,0,2025,monolithBrick,empty,fine,empty,60.67426156413806,56.84511022138195,2,empty,"Динамо,Площадь 1905 года,Уральская","7,7,7","transport,transport,transport","ЖБИ,Кировский",0,0
ekb,"Свердловская область, Екатеринбург г., Академический, Амундсена ул., д.1, к.1",16900000,158.7,20.0,63.0,4,3,4,empty,empty,2024,brick,empty,fine,0,60.5348403649,56.7672489789,2,empty,"Чкаловская,Ботаническая,Геологическая","10,10,12","transport,transport,transport","Академический,Ленинский",empty,0
ekb,"Свердловская область, Екатеринбург, улица Ландау",8460713,67.24,empty,empty,3,6,10,empty,0,2025,monolithBrick,empty,empty,empty,60.49512241796631,56.78620343733843,empty,empty,"Чкаловская,Геологическая,Площадь 1905 года","11,12,13","transport,transport,transport",Академический,0,0
ekb,"Свердловская область, Екатеринбург, Железнодорожный район, микрорайон Вокзальный, Печёрская улица",20060000,103.4,30.9,32.1,2,5,14,empty,0,2024,monolith,empty,empty,1,60.5906722136291,56.8524212386317,1,1,"Динамо,Уральская,Машиностроителей","11,14,6","walk,walk,transport","Вокзальный,Железнодорожный",0,0
ekb,"Свердловская область, Екатеринбург, Черкасская улица",8047000,53.83,16.4,20.2,3,2,16,empty,0,2026,monolithBrick,empty,empty,empty,60.56050064619954,56.82364269895815,1,1,"Геологическая,Площадь 1905 года,Чкаловская","4,4,5","transport,transport,transport","Юго-Западный,Верх-Исетский",0,0
ekb,"Свердловская область, Екатеринбург, Встречный переулок, 4/1",6950000,38.7,18.9,10.6,1,4,24,empty,empty,empty,monolith,empty,without,empty,60.5631507116,56.8226127819,2,2,"Геологическая,Площадь 1905 года,Чкаловская","4,4,5","transport,transport,transport","Юго-Западный,Верх-Исетский",0,0
ekb,"Свердловская область, Екатеринбург, улица Очеретина",9377000,77.97,empty,empty,3,2,25,empty,0,2025,monolithBrick,empty,empty,empty,60.516740963,56.7982949417,empty,empty,"Чкаловская,Геологическая,Площадь 1905 года","9,9,10","transport,transport,transport",Академический,0,0
ekb,"Свердловская область, Екатеринбург, улица Энгельса, 11",8950000,70.0,8.0,45.0,3,3,9,1980,empty,empty,empty,empty,empty,empty,60.613482,56.833388,empty,empty,Геологическая,14,walk,Центр,0,0
ekb,"Свердловская область, Екатеринбург, улица Репина",9750000,58.67,empty,23.0,2,16,29,empty,0,2026,monolithBrick,empty,without,empty,60.54778206214736,56.82518083542044,empty,4,"Площадь 1905 года,Геологическая,Динамо","5,5,6","transport,transport,transport","ВИЗ,Верх-Исетский",0,0
ekb,"Свердловская обл, Екатеринбург, ул. Таганская, 51А",4050000,33.4,8.0,18.0,1,7,9,2007,empty,empty,panel,empty,empty,empty,60.632473,56.90171,empty,1,,,,"Эльмаш,Орджоникидзевский",0,0
ekb,"Свердловская область, Екатеринбург, улица Викулова",9750000,68.93,empty,28.8,2,2,15,empty,0,2025,monolithBrick,empty,without,empty,60.5464725449819,56.8293412227864,1,empty,"Площадь 1905 года,Геологическая,Динамо","5,5,6","transport,transport,transport","ВИЗ,Верх-Исетский",0,0
ekb,"Россия, Свердловская область, Екатеринбург, Латвийская улица, 42",2650000,28.5,5.6,15.5,1,3,9,1979,empty,empty,panel,ground,empty,1,60.769726,56.795007,1,empty,"Геологическая,Ботаническая,Чкаловская","20,21,21","transport,transport,transport","Компрессорный,Октябрьский",0,0
ekb,"Свердловская область, Екатеринбург, микрорайон Уктус, улица Щербакова",5150000,43.43,16.0,14.1,1,14,24,empty,0,2024,monolithBrick,empty,empty,empty,60.6721003399498,56.7671432673876,empty,empty,"Ботаническая,Чкаловская,Геологическая","6,9,12","transport,transport,transport","Уктус,Чкаловский",0,0
ekb,"Россия, Свердловская область, Екатеринбург, Малый переулок, 15",8600000,67.85,19.0,28.2,3,9,9,2016,empty,empty,monolith,ground,empty,0,60.625646,56.899754,empty,1,"Проспект Космонавтов,Машиностроителей,Уралмаш","11,5,5","walk,transport,transport","Эльмаш,Орджоникидзевский",0,0
ekb,"Свердловская область, Екатеринбург, улица Щербакова",5639520,37.9,empty,empty,1,7,16,empty,1,2023,monolithBrick,empty,fine,empty,60.6652592235552,56.7761873556446,empty,2,"Ботаническая,Чкаловская,Геологическая","5,7,10","transport,transport,transport","Уктус,Чкаловский",0,0
ekb,"Россия, Свердловская область, Екатеринбург, Боровая улица, 21А",5750000,48.5,10.5,28.0,2,9,9,1990,empty,empty,panel,ground,empty,empty,60.645202,56.862878,1,empty,"Машиностроителей,Динамо,Уралмаш","5,7,7","transport,transport,transport","Пионерский,Кировский",0,0
ekb,"Свердловская область, Екатеринбург, Сибирский тракт",8230000,55.42,empty,empty,3,3,32,empty,0,2025,monolithBrick,empty,empty,empty,60.6590133346384,56.8206317359151,6,10,"Ботаническая,Чкаловская,Геологическая","5,5,5","transport,transport,transport","Сибирский,Октябрьский",0,0
ekb,"Россия, Свердловская область, Екатеринбург, улица Радищева, 24",37600000,98.5,empty,empty,3,7,20,2020,empty,empty,monolith,empty,empty,1,60.587943,56.829931,2,2,"Геологическая,Площадь 1905 года,Чкаловская","15,17,5","walk,walk,transport",Центр,0,0
ekb,"Свердловская область, Екатеринбург, улица 8 Марта, 204Д",15075000,86.9,14.9,50.7,3,2,25,empty,1,2023,monolithBrick,empty,empty,empty,60.605721,56.795515,2,1,"Чкаловская,Ботаническая,Геологическая","2,3,5","transport,transport,transport","Ботанический,Чкаловский",0,0
ekb,"Россия, Свердловская область, Екатеринбург, улица Войкова, 15",11300000,94.5,10.0,52.0,2,6,7,2022,empty,empty,monolithBrick,underground,empty,1,60.619609,56.896652,empty,1,"Проспект Космонавтов,Уралмаш,Машиностроителей","8,12,3","walk,walk,transport","Эльмаш,Орджоникидзевский",0,0
ekb,"Свердловская область, Екатеринбург, микрорайон Втузгородок, Студенческая улица",6664463,41.33,empty,empty,1,2,25,empty,0,2025,monolithBrick,empty,fine,empty,60.65918742622075,56.85688592642986,empty,empty,"Уральская,Машиностроителей,Динамо","5,6,6","transport,transport,transport","Втузгородок,Кировский",0,0
ekb,"Россия, Свердловская область, Екатеринбург, улица 8 Марта, 194",13500000,101.0,16.0,empty,3,6,17,2004,empty,empty,monolith,underground,empty,0,60.611282,56.801444,1,1,"Чкаловская,Ботаническая,Геологическая","10,19,5","walk,walk,transport",Автовокзал,0,0
ekb,"Свердловская область, Екатеринбург, улица Стачек",10287094,75.91,empty,empty,3,6,25,empty,0,2025,monolithBrick,empty,empty,empty,60.623093792309696,56.892951377734306,2,empty,"Уралмаш,Проспект Космонавтов,Машиностроителей","12,15,3","walk,walk,transport","Эльмаш,Орджоникидзевский",0,0
ekb,"Россия, Свердловская область, Екатеринбург, улица Сыромолотова, 12",5000000,48.0,7.0,28.0,2,9,16,1983,empty,empty,monolith,empty,empty,0,60.678502,56.838282,1,1,"Площадь 1905 года,Геологическая,Динамо","8,9,10","transport,transport,transport","ЖБИ,Кировский",0,0
ekb,"Свердловская область, Екатеринбург, Железнодорожный район, микрорайон Вокзальный, Печёрская улица",14080000,48.9,empty,empty,1,13,14,empty,0,2024,monolith,empty,empty,empty,60.5906722136291,56.8524212386317,1,1,"Динамо,Уральская,Машиностроителей","11,14,6","walk,walk,transport","Вокзальный,Железнодорожный",0,0
ekb,"Россия, Свердловская область, Екатеринбург, Июльская улица, 21",8600000,64.0,empty,empty,3,4,9,1980,empty,empty,panel,empty,empty,0,60.640656,56.858981,1,0,"Динамо,Машиностроителей,Уралмаш","6,6,7","transport,transport,transport","Пионерский,Кировский",0,0
ekb,"Свердловская область, Екатеринбург, Комсомольская улица, 67",11636000,64.2,9.6,38.8,3,14,15,empty,empty,2020,monolithBrick,empty,rough,empty,60.662788747358775,56.83700492877299,empty,empty,"Площадь 1905 года,Геологическая,Динамо","6,6,6","transport,transport,transport","Втузгородок,Кировский",0,0
ekb,"Россия, Свердловская область, Екатеринбург, улица Амундсена, 52",9800000,74.0,15.0,35.0,2,13,16,2010,empty,empty,brick,underground,empty,empty,60.582257,56.800306,1,1,"Чкаловская,Геологическая,Ботаническая","3,6,7","transport,transport,transport","Юго-Западный,Ленинский",0,0
ekb,"Свердловская область, Екатеринбург, улица Репина",7450000,42.79,empty,13.1,1,16,29,empty,0,2026,monolithBrick,empty,without,empty,60.54778206214736,56.82518083542044,empty,4,"Площадь 1905 года,Геологическая,Динамо","5,5,6","transport,transport,transport","ВИЗ,Верх-Исетский",0,0
ekb,"Россия, Свердловская область, Екатеринбург, улица Рябинина, 18",6900000,56.2,10.6,30.4,2,14,14,2018,empty,empty,block,ground,empty,1,60.513069,56.798541,1,1,"Геологическая,Площадь 1905 года,Чкаловская","11,12,12","transport,transport,transport",Академический,0,0
ekb,"Свердловская область, Екатеринбург, Комсомольская улица",7734840,59.96,empty,38.9,2,1,25,empty,0,2025,monolithBrick,empty,empty,empty,60.6535058088129,56.8257419540575,3,empty,,,,"Шарташский рынок,Октябрьский",0,0
ekb,"Россия, Свердловская область, Екатеринбург, проспект Академика Сахарова, 85",13500000,111.0,25.0,empty,3,5,9,2020,empty,empty,monolithBrick,underground,empty,0,60.503888,56.789757,empty,1,"Геологическая,Площадь 1905 года,Чкаловская","12,14,14","transport,transport,transport",Академический,0,0
ekb,"Свердловская область, Екатеринбург, улица Викулова",5150000,28.03,5.7,11.0,1,2,15,empty,0,2025,monolithBrick,empty,without,empty,60.5464725449819,56.8293412227864,1,empty,"Площадь 1905 года,Геологическая,Динамо","5,5,6","transport,transport,transport","ВИЗ,Верх-Исетский",0,0
ekb,"Россия, Свердловская область, Екатеринбург, улица Хохрякова, 48",48000000,134.6,empty,114.6,3,5,10,2007,empty,empty,monolithBrick,underground,empty,1,60.592956,56.830635,1,1,"Геологическая,Площадь 1905 года,Чкаловская","11,13,5","walk,walk,transport",Центр,0,0
ekb,"Свердловская область, Екатеринбург, улица Сони Морозовой",14385104,69.7,empty,empty,3,2,29,empty,0,2026,monolithBrick,empty,empty,empty,60.6261522169788,56.8343286341302,empty,4,"Площадь 1905 года,Геологическая,Динамо","2,2,3","transport,transport,transport",Центр,0,0
ekb,"Россия, Свердловская область, Екатеринбург, улица Смазчиков, 3",16900000,160.0,20.0,empty,5,16,16,2007,empty,empty,brick,empty,empty,2,60.619789,56.859665,1,1,"Уральская,Динамо,Машиностроителей","18,4,5","walk,transport,transport","Пионерский,Кировский",empty,0
ekb,"Свердловская область, Екатеринбург, улица Амундсена",8360000,65.3,empty,empty,3,3,22,empty,0,2025,monolithBrick,empty,empty,empty,60.52350597332581,56.764118215559066,3,1,"Чкаловская,Ботаническая,Геологическая","11,11,13","transport,transport,transport",Академический,0,0
ekb,"Россия, Свердловская область, Екатеринбург, Инженерная улица, 17",2700000,33.4,5.8,21.6,1,3,3,1949,empty,empty,brick,ground,empty,1,60.709153,56.749871,empty,empty,"Ботаническая,Чкаловская,Геологическая","11,14,18","transport,transport,transport","Химмаш,Чкаловский",0,0
ekb,"Свердловская область, Екатеринбург, Железнодорожный район, микрорайон Новая Сортировка, улица Софьи Перовской",7890000,63.27,12.5,33.6,3,17,18,empty,0,2024,monolithBrick,empty,fine,empty,60.561760530440274,56.86127015346791,2,4,"Уральская,Динамо,Машиностроителей","4,4,5","transport,transport,transport","Новая Сортировка,Железнодорожный",0,0
ekb,"Россия, Свердловская область, Екатеринбург, жилой район Сортировочный, микрорайон Старая Сортировка, Кунарская улица, 14к1",5199000,57.7,8.4,29.8,2,17,19,2011,empty,empty,brick,ground,empty,0,60.51041,56.881502,1,1,"Уральская,Уралмаш,Динамо","11,12,13","transport,transport,transport","Старая Сортировка,Железнодорожный",0,0
ekb,"Свердловская область, Екатеринбург, Хрустальногорская улица, 89",8225220,68.04,9.8,42.4,3,11,17,empty,empty,2023,monolithBrick,empty,fine,empty,60.499334,56.795771,2,2,"Чкаловская,Геологическая,Площадь 1905 года","10,11,11","transport,transport,transport",Широкая Речка,0,0
ekb,"Россия, Свердловская область, Екатеринбург, Первомайская улица, 35",6890000,42.4,6.5,empty,2,3,5,1961,empty,empty,brick,ground,empty,1,60.622708,56.843432,0,0,"Площадь 1905 года,Динамо,Геологическая","4,4,5","transport,transport,transport",Центр,0,0
ekb,"Свердловская область, Екатеринбург, Комсомольская улица",5188960,31.64,empty,10.2,1,13,25,empty,0,2025,monolithBrick,empty,empty,empty,60.6535058088129,56.8257419540575,3,empty,,,,"Шарташский рынок,Октябрьский",0,0
ekb,"Россия, Свердловская область, Екатеринбург, бульвар Есенина, 3",7300000,63.3,7.0,empty,3,7,9,1988,empty,empty,panel,empty,empty,empty,60.676499,56.826848,1,empty,"Геологическая,Ботаническая,Площадь 1905 года","9,10,10","transport,transport,transport","Синие Камни,Октябрьский",0,0
ekb,"Свердловская область, Екатеринбург, проспект Космонавтов",8298300,59.7,empty,empty,2,3,19,empty,0,2025,monolith,empty,empty,empty,60.6073771547046,56.8642862124356,1,2,"Уральская,Машиностроителей,Динамо","12,2,3","walk,transport,transport","Завокзальный,Железнодорожный",0,0
ekb,"Россия, Свердловская область, Екатеринбург, улица Чкалова, 250",8270000,65.9,14.2,empty,2,5,10,2007,empty,empty,panel,empty,empty,empty,60.53523,56.781518,1,1,"Чкаловская,Ботаническая,Геологическая","10,12,12","transport,transport,transport","УНЦ,Ленинский",0,0
ekb,"Свердловская область, Екатеринбург, проспект Космонавтов",6995687,53.34,16.4,empty,3,18,26,empty,0,2025,monolith,empty,empty,empty,60.608424336,56.9226282397,empty,empty,"Проспект Космонавтов,Уралмаш,Машиностроителей","4,6,7","transport,transport,transport","Уралмаш,Орджоникидзевский",0,0
ekb,"Россия, Свердловская область, Екатеринбург, Машинная улица, 31В",15500000,78.0,empty,empty,3,19,19,2020,empty,empty,monolith,underground,empty,1,60.637045,56.807422,1,1,"Ботаническая,Чкаловская,Геологическая","20,7,9","walk,transport,transport",Октябрьский,0,0
ekb,"Свердловская область, Екатеринбург, микрорайон Юго-Западный, улица Шаумяна",12130000,71.4,empty,empty,2,2,24,empty,0,2026,monolith,empty,empty,empty,60.590827700205715,56.80765657289382,1,1,"Чкаловская,Геологическая","16,5","walk,transport",Юго-Западный,0,0
ekb,"Россия, Свердловская область, Екатеринбург, улица Хохрякова, 48",54700000,133.4,empty,93.8,4,5,10,2007,empty,empty,monolithBrick,underground,empty,0,60.592956,56.830635,1,1,"Геологическая,Площадь 1905 года,Чкаловская","11,13,5","walk,walk,transport",Центр,0,0
ekb,"Свердловская область, Екатеринбург, проспект Космонавтов",6241500,36.5,empty,empty,1,2,19,empty,0,2025,monolith,empty,empty,empty,60.6073771547046,56.8642862124356,1,2,"Уральская,Машиностроителей,Динамо","12,2,3","walk,transport,transport","Завокзальный,Железнодорожный",0,0
ekb,"Россия, Свердловская область, Екатеринбург, улица Шевелёва, 11",4300000,35.2,5.9,21.5,1,3,3,1959,empty,empty,brick,ground,empty,1,60.576364,56.844092,empty,empty,"Динамо,Площадь 1905 года,Геологическая","4,4,5","transport,transport,transport","ВИЗ,Верх-Исетский",0,0
ekb,"Свердловская область, Екатеринбург, проспект Космонавтов, 26А/2",9850000,73.54,17.5,35.9,3,3,32,empty,empty,2023,monolithBrick,empty,fine,empty,60.617370627,56.8803995497,1,3,"Машиностроителей,Уралмаш,Проспект Космонавтов","6,12,3","walk,walk,transport","Эльмаш,Орджоникидзевский",0,0
ekb,"Россия, Свердловская область, Екатеринбург, проезд Горнистов, 13",3500000,43.3,6.2,27.6,2,2,5,1983,empty,empty,panel,ground,empty,1,60.824802,56.767535,empty,empty,"Геологическая,Ботаническая,Площадь 1905 года","24,26,26","transport,transport,transport","Кольцово,Октябрьский",0,0
ekb,"Свердловская область, Екатеринбург, улица Щербакова",7452800,55.1,empty,22.9,2,14,18,empty,1,2023,monolithBrick,empty,empty,empty,60.6658278518656,56.7768352870143,3,1,"Ботаническая,Чкаловская,Геологическая","5,7,10","transport,transport,transport","Уктус,Чкаловский",0,0
ekb,"Россия, Свердловская область, Екатеринбург, Посадская улица, 54",8760000,73.4,empty,empty,4,2,5,1965,empty,empty,panel,ground,empty,empty,60.583676,56.817099,empty,empty,"Геологическая,Чкаловская,Площадь 1905 года","3,5,6","transport,transport,transport","Юго-Западный,Верх-Исетский",0,0
ekb,"Свердловская область, Екатеринбург, улица Репина",7600000,41.85,empty,12.2,1,7,12,empty,0,2026,monolithBrick,empty,without,empty,60.5481683002447,56.82470434006292,empty,3,"Площадь 1905 года,Геологическая,Динамо","5,5,6","transport,transport,transport","ВИЗ,Верх-Исетский",0,0
ekb,"Россия, Свердловская область, Екатеринбург, жилой комплекс Ольховский Парк",12500000,57.9,20.6,22.0,2,24,32,empty,0,2024,monolithBrick,multilevel,fine,0,60.5727252841,56.852120448,2,2,"Уральская,Динамо,Площадь 1905 года","4,6,7","transport,transport,transport","Заречный,Железнодорожный",0,0
ekb,"Свердловская область, Екатеринбург, улица Академика Парина, 35/2",9558657,66.7,empty,empty,3,27,31,empty,1,2023,monolithBrick,empty,fine,empty,60.507769,56.782775,1,1,"Чкаловская,Геологическая,Ботаническая","10,11,12","transport,transport,transport",Академический,0,0
ekb,"Россия, Свердловская область, Екатеринбург, улица Большакова, 111",7600000,49.3,8.5,32.0,2,8,14,1996,empty,empty,brick,empty,empty,0,60.597079,56.816375,2,0,"Геологическая,Чкаловская,Площадь 1905 года","17,18,5","walk,walk,transport",Ленинский,0,0
ekb,"Свердловская область, Екатеринбург, улица Ландау",11220000,88.19,32.3,20.6,2,1,9,empty,0,2024,monolith,empty,empty,1,60.52425332806027,56.76771894262857,1,1,"Ботаническая,Геологическая,Чкаловская","11,12,22","transport,transport,transport",Академический,0,0
ekb,"Свердловская область, Екатеринбург, улица Академика Ландау, 14/2",7250000,73.2,20.0,30.0,3,10,25,2023,empty,empty,monolith,ground,empty,empty,60.522366,56.772009,2,2,"Геологическая,Ботаническая,Чкаловская","18,20,20","transport,transport,transport",Академический,0,0
ekb,"Свердловская область, Екатеринбург, улица Шаумяна, 28",10915800,64.4,empty,empty,2,5,15,empty,1,2024,monolithBrick,empty,empty,empty,60.584575,56.809586,empty,1,"Чкаловская,Геологическая,Площадь 1905 года","2,3,5","transport,transport,transport","Юго-Западный,Ленинский",0,0
ekb,"Россия, Свердловская область, Екатеринбург, улица 8 Марта, 70",3700000,17.8,empty,empty,1,3,12,empty,empty,empty,empty,ground,empty,empty,60.604293,56.822001,empty,empty,"Геологическая,Чкаловская,Площадь 1905 года","8,19,3","walk,walk,transport",Центр,1,0
ekb,"Свердловская область, Екатеринбург, улица 8 Марта",13370000,83.77,20.5,40.4,3,2,25,empty,0,2025,monolithBrick,empty,empty,empty,60.6037776348872,56.7951242710681,2,2,,,,"Ботанический,Чкаловский",0,0
ekb,"Россия, Свердловская область, Екатеринбург, улица Калинина, 59",8500000,54.3,11.0,30.0,2,14,17,2020,empty,empty,brick,underground,empty,empty,60.58638,56.897222,empty,4,"Уралмаш,Машиностроителей,Проспект Космонавтов","4,5,5","transport,transport,transport","Уралмаш,Орджоникидзевский",0,0
ekb,"Свердловская область, Екатеринбург, улица Шаумяна",9643872,54.24,empty,empty,2,12,29,empty,0,2026,monolithBrick,empty,empty,empty,60.590541262564685,56.80627778116669,3,empty,"Чкаловская,Геологическая,Ботаническая","19,4,4","walk,transport,transport",Юго-Западный,0,0
ekb,"Свердловская обл, Екатеринбург, ул. Садовая, 7",8990000,58.0,10.0,32.0,2,10,10,2012,empty,empty,brick,empty,empty,empty,60.641869,56.862406,1,1,,,,"Пионерский,Кировский",0,0
ekb,"Свердловская область, Екатеринбург, улица Раевского, 18/4",10450000,74.77,empty,40.5,3,2,33,empty,0,2024,monolithBrick,empty,fine,empty,60.659117,56.858262,2,2,"Уральская,Машиностроителей,Динамо","5,5,6","transport,transport,transport","Втузгородок,Кировский",0,0
ekb,"Свердловская область, Екатеринбург г., Кировский, Данилы Зверева ул., д.5, к.А",12500000,76.8,22.0,40.0,4,7,12,2019,empty,empty,panel,empty,empty,0,60.650987,56.858405,3,empty,"Динамо,Площадь 1905 года,Уралмаш","7,8,8","transport,transport,transport","Пионерский,Кировский",empty,0
ekb,"Свердловская область, Екатеринбург, микрорайон Юго-Западный, улица Шаумяна",9500000,46.2,empty,empty,1,3,24,empty,0,2026,monolith,empty,empty,empty,60.590827700205715,56.80765657289382,empty,1,"Чкаловская,Геологическая","16,5","walk,transport",Юго-Западный,0,0
ekb,"Россия, Свердловская область, Екатеринбург, улица Победы, 31",4000000,34.2,8.5,17.5,1,9,16,1989,empty,empty,block,ground,empty,empty,60.603736,56.896593,1,1,"Проспект Космонавтов,Уралмаш,Машиностроителей","11,14,4","walk,walk,transport","Уралмаш,Орджоникидзевский",0,0
ekb,"Свердловская область, Екатеринбург, Павлодарская улица",9490000,70.86,empty,empty,2,3,8,empty,0,2025,monolith,empty,empty,empty,60.64264676057349,56.78539745093138,5,1,"Ботаническая,Чкаловская,Геологическая","3,5,8","transport,transport,transport","Уктус,Чкаловский",0,0
ekb,"Россия, Свердловская область, Екатеринбург, Новосинарский бульвар, 1",4200000,36.0,empty,empty,2,8,10,2023,empty,empty,monolith,ground,empty,empty,60.751545,56.781064,empty,1,"Геологическая,Ботаническая,Динамо","20,21,21","transport,transport,transport","Птицефабрика,Октябрьский",0,0
ekb,"Свердловская область, Екатеринбург, улица Щербакова",5654400,38.2,empty,12.1,1,8,18,empty,1,2023,monolithBrick,empty,empty,empty,60.6658278518656,56.7768352870143,3,1,"Ботаническая,Чкаловская,Геологическая","5,7,10","transport,transport,transport","Уктус,Чкаловский",0,0
ekb,"Россия, Свердловская область, Екатеринбург, улица Бакинских Комиссаров, 107",5890000,51.0,8.0,30.2,2,10,11,2006,empty,empty,panel,ground,empty,empty,60.58824,56.906512,empty,1,"Проспект Космонавтов,Машиностроителей,Уралмаш","5,6,6","transport,transport,transport","Уралмаш,Орджоникидзевский",0,0
ekb,"Свердловская область, Екатеринбург, улица Очеретина",9377000,77.97,12.3,43.1,3,2,13,empty,0,2025,monolithBrick,empty,empty,empty,60.516740963,56.7982949417,empty,empty,"Чкаловская,Геологическая,Площадь 1905 года","9,9,10","transport,transport,transport",Академический,0,0
ekb,"Россия, Свердловская область, Екатеринбург, Машинная улица, 4",7290000,40.9,13.8,16.7,1,3,27,2023,empty,empty,monolithBrick,underground,empty,empty,60.626921,56.814956,2,2,"Чкаловская,Ботаническая,Геологическая","3,4,6","transport,transport,transport",Автовокзал,0,0
ekb,"Свердловская область, Екатеринбург, улица Академика Ландау",12714000,112.7,empty,42.6,3,6,23,empty,0,2025,monolithBrick,empty,without,empty,60.5094352142629,56.7793083544394,5,2,"Чкаловская,Геологическая,Ботаническая","10,12,12","transport,transport,transport",Академический,0,0
ekb,"Россия, Свердловская область, Екатеринбург, улица Шейнкмана, 86А",7990000,39.0,empty,empty,1,16,16,2017,empty,empty,monolith,underground,empty,0,60.587180000000004,56.828286,1,2,"Геологическая,Площадь 1905 года,Чкаловская","15,19,6","walk,walk,transport",Центр,1,0
ekb,"Свердловская область, Екатеринбург, микрорайон Втузгородок, Студенческая улица",8580276,59.96,empty,empty,2,2,25,empty,0,2025,monolithBrick,empty,empty,empty,60.659831156384065,56.85715041807529,empty,empty,"Уральская,Машиностроителей,Динамо","5,6,6","transport,transport,transport","Втузгородок,Кировский",0,0
ekb,"Россия, Свердловская область, Екатеринбург, улица Фурманова, 55А",5500000,45.0,6.0,30.0,2,3,5,1962,empty,empty,block,ground,empty,1,60.605955,56.815109,empty,empty,"Чкаловская,Геологическая,Площадь 1905 года","10,14,4","walk,walk,transport",Автовокзал,0,0
ekb,"Свердловская область, Екатеринбург, микрорайон Старая Сортировка, Сортировочная улица",8100000,70.8,22.3,23.2,2,8,17,empty,0,2024,monolith,empty,empty,1,60.5374314206832,56.8732006577973,2,1,"Уральская,Машиностроителей,Проспект Космонавтов","8,10,12","transport,transport,transport","Старая Сортировка,Железнодорожный",0,0
