region,address,price,total_area,kitchen_area,living_area,rooms_count,floor,floors_number,build_date,is_complete,completion_year,house_material,parking,decoration,balcony,longitude,latitude,passenger_elevator,cargo_elevator,metro,metro_distance,metro_transport,district,is_apartments,is_auction
spb,"Санкт-Петербург, Петровский проспект, 9к2",16835400,42.3,19.6,17.7,1,7,9,empty,1,2024,monolith,underground,without,empty,30.265935099195,59.9619383819374,1,empty,"Спортивная,Чкаловская,Крестовский остров","2,3,5","transport,transport,transport","Петровский,Петроградский",0,0
spb,"Россия, Санкт-Петербург город, город Сестрорецк, улица Максима Горького, дом 2а, строение 3",39950000,71.3,26.4,28.4,2,3,5,2020,empty,empty,monolith,underground,empty,empty,29.954341,60.115158,1,1,,,,"Сестрорецк,Курортный",1,1
spb,"Санкт-Петербург, Большой Смоленский проспект",15950301,52.91,17.1,23.5,2,3,12,empty,0,2026,monolithBrick,empty,fine,1,30.4169244974,59.9040094133,3,3,"Елизаровская,Площадь Александра Невского,Ломоносовская","20,5,7","walk,transport,transport","Невская застава,Невский",0,0
spb,"Санкт-Петербург, Аптекарский проспект, 18 лит. а",51000000,98.0,35.7,40.0,3,3,5,2020,empty,empty,monolith,empty,empty,1,30.319515,59.974387,1,empty,Петроградская,15,walk,"Аптекарский остров,Петроградский",0,1
spb,"Санкт-Петербург, Ремесленная улица",20143235,57.47,10.2,29.1,2,6,8,empty,0,2024,monolith,empty,without,empty,30.2670742473,59.9570898054,1,empty,"Чкаловская,Крестовский остров,Спортивная","20,3,4","walk,transport,transport","Петровский,Петроградский",0,0
spb,"Санкт-Петербург, Аптекарский проспект, 18",27000000,60.0,20.0,34.0,2,7,10,empty,empty,empty,monolith,empty,empty,1,30.319515,59.974387,empty,empty,Петроградская,15,walk,"Аптекарский остров,Петроградский",0,1
spb,"Санкт-Петербург, жилой комплекс Айди Светлановский",10169034,35.78,9.8,16.9,1,2,12,empty,0,2024,monolithBrick,underground,empty,empty,30.3274265495974,60.0065677292286,8,16,"Удельная,Пионерская,Площадь Мужества","18,3,6","walk,transport,transport","Светлановское,Выборгский",0,0
spb,"Россия, Санкт-Петербург, Ремесленная улица, 17",26000000,65.77,19.0,35.7,2,4,8,2024,empty,empty,monolith,underground,empty,empty,30.268671,59.957305,1,1,"Василеостровская,Спортивная,Чкаловская","4,4,5","transport,transport,transport","Петровский,Петроградский",0,1
spb,"Санкт-Петербург, жилой комплекс Айди Светлановский",10142475,36.56,11.1,13.4,1,2,12,empty,0,2025,monolithBrick,underground,empty,empty,30.3271529642773,60.0070861597257,6,12,"Удельная,Пионерская,Площадь Мужества","18,4,6","walk,transport,transport","Светлановское,Выборгский",0,0
spb,"Санкт-Петербург, Захарьевская ул., д. 41",50004000,86.1,10.0,50.0,2,5,6,1907,empty,empty,monolith,empty,empty,empty,30.366785,59.947428,1,1,Чернышевская,10,walk,"Смольнинское,Центральный",0,1
spb,"Санкт-Петербург, улица Шостаковича",10153567,34.5,15.9,10.3,1,3,16,empty,0,2026,monolith,underground,fine,empty,30.3312110979,60.0605205522,empty,empty,"Проспект Просвещения,Парнас,Озерки","17,5,8","walk,transport,transport","Шувалово-Озерки,Выборгский",0,0
spb,"Санкт-Петербург, Центральный район, 8-я Советская ул., д.17-19, литер А",34900000,158.3,49.0,68.5,5,3,5,empty,empty,empty,brick,empty,empty,0,30.37319,59.936638,empty,empty,"Площадь Восстания,Чернышевская","14,19","walk,walk","Смольнинское,Центральный",empty,1
spb,"Санкт-Петербург, улица Шостаковича",14564624,57.5,18.7,20.0,2,5,16,empty,0,2026,monolith,underground,fine,empty,30.3312110978692,60.0605205521894,empty,empty,"Проспект Просвещения,Парнас,Озерки","17,5,8","walk,transport,transport","Шувалово-Озерки,Выборгский",0,0
spb,"Санкт-Петербург, Парадная ул., д. 3, к. 2",54000000,96.0,22.1,46.5,3,3,8,2009,empty,empty,empty,empty,empty,1,30.367369,59.942146,1,empty,Чернышевская,13,walk,"Смольнинское,Центральный",0,1
spb,"Санкт-Петербург, Заневский проспект, 65А",11949999,46.3,26.7,14.6,1,11,15,empty,0,2024,empty,empty,fine,empty,30.43423666997013,59.93209710600549,empty,empty,,,,"Малая Охта,Красногвардейский",1,0
spb,"Санкт-Петербург, Парадная ул., д. 3, к. 2",83500000,141.0,16.5,79.5,4,7,9,2009,empty,empty,empty,empty,empty,2,30.367369,59.942146,1,empty,Чернышевская,13,walk,"Смольнинское,Центральный",0,1
spb,"Санкт-Петербург, проспект Юрия Гагарина",21533220,77.18,19.6,33.2,2,14,23,empty,0,2025,monolithBrick,empty,empty,empty,30.342415701079,59.8515188652706,empty,empty,,,,"Гагаринское,Московский",0,0
spb,"Санкт-Петербург, Василеостровский район, Невская губа",11850000,35.0,14.5,12.5,1,4,19,empty,empty,2025,monolith,empty,without,empty,30.1826923147481,59.9429282832316,2,2,"Приморская,Горный институт,Василеостровская","6,9,10","transport,transport,transport","Морской,Василеостровский",0,1
spb,"Санкт-Петербург, проспект Юрия Гагарина",21097980,75.62,22.3,29.5,2,14,23,empty,0,2025,monolithBrick,empty,empty,empty,30.342415701079,59.8515188652706,empty,empty,,,,"Гагаринское,Московский",0,0
spb,"Санкт-Петербург, Большая Морская ул., д. 4",80000000,107.2,25.6,63.7,3,2,7,2006,empty,empty,monolith,underground,empty,empty,30.318258,59.937463,1,empty,Адмиралтейская,4,walk,"Дворцовый,Центральный",0,1
spb,"Санкт-Петербург, проспект Юрия Гагарина",20543580,74.84,21.5,29.5,2,16,23,empty,0,2025,monolithBrick,empty,empty,empty,30.342415701079,59.8515188652706,empty,empty,,,,"Гагаринское,Московский",0,0
spb,"2-я Березовая ал., 13-15",160000000,125.0,16.0,12.0,3,3,3,2004,empty,empty,monolithBrick,empty,empty,empty,30.288407,59.980492,empty,empty,,,,"Чкаловское,Петроградский",0,1
spb,"Санкт-Петербург, проспект Юрия Гагарина",23947200,83.15,25.6,37.4,2,15,23,empty,0,2025,monolithBrick,empty,empty,empty,30.342415701079,59.8515188652706,empty,empty,,,,"Гагаринское,Московский",0,0
spb,"Санкт-Петербург, территория Усть-Славянка, Славянская улица, 8",11400000,51.3,13.7,23.4,2,23,23,2023,empty,empty,monolithBrick,underground,empty,1,30.526146,59.833176,2,1,Рыбацкое,15,walk,"Рыбацкое,Невский",0,1
spb,"Санкт-Петербург, Заневский проспект, 65А",13129999,43.1,13.6,23.2,2,4,15,empty,0,2024,empty,empty,fine,empty,30.43423666997013,59.93209710600549,empty,empty,,,,"Малая Охта,Красногвардейский",1,0
spb,"Россия, Санкт-Петербург, Земледельческая улица, 5к2",9100000,38.1,11.1,15.5,1,13,21,2010,empty,empty,monolithBrick,underground,empty,empty,30.324447,59.990665,3,empty,"Черная речка,Лесная,Выборгская","20,20,6","walk,walk,transport","Чёрная речка,Приморский",0,1
spb,"Санкт-Петербург, Пулковское шоссе",6114825,35.29,empty,empty,1,3,5,empty,0,2025,monolith,empty,fine,empty,30.3051918411248,59.7474489641058,empty,1,"Купчино,Проспект Славы,Обухово","29,29,30","transport,transport,transport","Пулковский меридиан,Московский",0,0
spb,"Санкт-Петербург, проспект Авиаконструкторов, 54",10800000,37.3,10.2,14.5,1,12,12,2022,empty,empty,monolithBrick,underground,empty,empty,30.204863,60.033602,1,1,"Комендантский проспект,Старая Деревня,Удельная","9,14,14","transport,transport,transport","Юнтолово,Приморский",0,1
spb,"Санкт-Петербург, 11-я линия Васильевского острова, 56",22733515,65.36,23.1,20.6,1,6,7,empty,0,2023,monolithBrick,empty,empty,empty,30.2694300687856,59.9443172673353,empty,1,"Василеостровская,Спортивная,Горный институт","8,14,4","walk,walk,transport","Васильевский,Василеостровский",0,0
spb,"Россия, Санкт-Петербург, Малая Зеленина улица, 8",39000000,142.6,15.0,75.0,3,6,9,2021,empty,empty,monolith,underground,empty,1,30.279693,59.963543,1,1,"Чкаловская,Крестовский остров,Спортивная","11,3,4","walk,transport,transport","Чкаловское,Петроградский",0,1
spb,"Санкт-Петербург, 11-я линия Васильевского острова, 56",21061933,65.36,23.1,20.6,2,2,7,empty,0,2023,monolithBrick,empty,empty,empty,30.2694300687856,59.9443172673353,empty,1,"Василеостровская,Спортивная,Горный институт","8,14,4","walk,walk,transport","Васильевский,Василеостровский",0,0
spb,"Россия, Санкт-Петербург, Комендантский проспект, 17к1",10000000,44.0,13.0,17.0,1,10,16,2005,empty,empty,monolithBrick,ground,empty,1,30.255672,60.012413,2,1,"Комендантский проспект,Старая Деревня,Пионерская","4,6,7","walk,transport,transport","Озеро Долгое,Приморский",0,1
spb,"Санкт-Петербург, Заневский проспект",13079999,34.16,13.4,12.3,1,11,14,empty,0,2024,empty,empty,empty,empty,30.4342202421,59.9310787561,empty,empty,,,,"Малая Охта,Красногвардейский",0,0
spb,"Санкт-Петербург, Дрезденская ул., 4 лит. Б",9690000,48.4,7.8,26.9,2,3,5,1956,empty,empty,stalin,empty,empty,0,30.325974,60.013231,0,0,Удельная,10,walk,"Светлановское,Выборгский",0,1
spb,"Санкт-Петербург, Большой Сампсониевский проспект, 32кА-Б",16151784,42.46,empty,13.2,1,4,12,empty,0,2026,empty,empty,empty,empty,30.3398229933605,59.9667986652653,empty,empty,"Выборгская,Площадь Ленина,Лесная","11,3,6","walk,transport,transport","Сампсониевское,Выборгский",0,0
spb,"Санкт-Петербург, Петроградский район, Большая Посадская ул., д.12, литер А",34500000,95.0,12.0,59.0,3,6,9,2015,empty,empty,monolithBrick,empty,empty,1,30.32504,59.959197,2,empty,"Горьковская,Петроградская,Спортивная","8,17,5","walk,walk,transport","Посадский,Петроградский",empty,1
spb,"Санкт-Петербург, улица Стахановцев, 1",16960832,40.46,empty,11.5,1,6,11,empty,0,2024,empty,empty,empty,empty,30.403334024718017,59.9297767513777,empty,empty,"Новочеркасская,Площадь Александра Невского,Ладожская","12,4,4","walk,transport,transport","Малая Охта,Красногвардейский",0,0
spb,"Санкт-Петербург, Петроградский район, Съезжинская ул., д.24",43900000,153.6,37.5,67.7,3,6,6,1908,empty,empty,old,empty,empty,1,30.300893,59.954349,1,empty,"Спортивная,Горьковская","10,14","walk,walk","Введенский,Петроградский",empty,1
spb,"г. Санкт-Петербург, Заневский проспект",19019999,58.17,15.3,24.9,2,10,14,empty,0,2024,empty,underground,empty,empty,30.4328863381,59.9315247299,2,1,,,,"Малая Охта,Красногвардейский",0,0
spb,"Россия, Санкт-Петербург, Парашютная улица, 15",19880000,93.2,10.0,empty,3,3,4,2000,empty,empty,brick,ground,empty,1,30.27769,60.017976,empty,empty,"Комендантский проспект,Пионерская,Удельная","4,5,5","transport,transport,transport","Юнтолово,Приморский",0,1
spb,"Санкт-Петербург, Петровский проспект, 22к2",19118473,39.3,12.7,14.1,1,3,8,empty,1,2021,monolith,empty,without,empty,30.2637303234,59.9600554472,empty,empty,"Крестовский остров,Чкаловская,Спортивная","3,3,3","transport,transport,transport","Петровский,Петроградский",0,0
spb,"Санкт-Петербург, Студенческая улица, 14к2",18200000,61.73,14.5,29.2,2,6,14,2022,empty,empty,monolith,underground,empty,empty,30.326872,59.991754,1,1,"Лесная,Пионерская,Выборгская","20,5,6","walk,transport,transport","Чёрная речка,Приморский",0,1
spb,"Санкт-Петербург, Большой Сампсониевский проспект, 32кА-Б",19269600,59.2,empty,22.3,2,2,12,empty,0,2026,empty,empty,empty,empty,30.3398229933605,59.9667986652653,empty,empty,"Выборгская,Площадь Ленина,Лесная","11,3,6","walk,transport,transport","Сампсониевское,Выборгский",0,0
spb,"Санкт-Петербург, Приморский пр-кт, д. 78, к. 2, стр. 1",53000000,107.7,25.0,43.2,2,7,8,2016,empty,empty,empty,empty,empty,empty,30.188469,59.987235,1,empty,Беговая,15,walk,"№ 65,Приморский",1,1
spb,"Санкт-Петербург, Малоохтинский проспект",24359720,71.87,empty,26.1,2,2,11,empty,0,2024,empty,empty,empty,empty,30.4023469718,59.9299382987,empty,empty,"Новочеркасская,Площадь Александра Невского,Ладожская","12,4,4","walk,transport,transport","Малая Охта,Красногвардейский",0,0
spb,"Россия, Санкт-Петербург, набережная Мартынова, 74Д",58320000,201.8,19.8,107.1,3,1,6,2009,empty,empty,empty,empty,empty,empty,30.250031,59.974779,1,empty,Крестовский остров,10,walk,"Чкаловское,Петроградский",0,1
spb,"Санкт-Петербург, улица Шкапина, 43-45, лит. А",11849999,35.99,16.0,11.3,1,2,9,empty,0,2024,monolithBrick,empty,empty,empty,30.28985984693904,59.90372426252108,22,empty,"Балтийская,Нарвская,Фрунзенская","11,14,6","walk,walk,transport","Екатерингофский,Адмиралтейский",0,0
spb,"Россия, Санкт-Петербург, Малый проспект Петроградской стороны, 79-81-83",56000000,120.0,32.1,44.7,3,3,6,2023,empty,empty,brick,empty,empty,empty,30.305708,59.965588,empty,1,"Петроградская,Чкаловская,Горьковская","6,15,19","walk,walk,walk","Аптекарский остров,Петроградский",0,1
spb,"Санкт-Петербург, улица Тамбасова",7535060,29.11,9.0,10.6,1,2,9,empty,0,2026,monolith,empty,rough,empty,30.154253944427,59.8414847874383,3,5,"Проспект Ветеранов,Ленинский проспект,Автово","10,11,13","transport,transport,transport","Сосновая поляна,Красносельский",0,0
spb,"Россия, Санкт-Петербург, Ремесленная улица, 17",17500000,38.5,19.5,11.0,1,4,8,2024,empty,empty,monolith,underground,empty,empty,30.268671,59.957305,1,1,"Василеостровская,Спортивная,Чкаловская","4,4,5","transport,transport,transport","Петровский,Петроградский",0,1
spb,"Санкт-Петербург, Петровский проспект, 22к2",29137942,68.9,16.9,30.7,2,6,8,empty,1,2022,monolith,empty,without,empty,30.2604003273694,59.9606612037655,empty,empty,"Крестовский остров,Чкаловская,Спортивная","19,5,5","walk,transport,transport","Петровский,Петроградский",0,0
spb,"Санкт-Петербург, Приморский район, Планерная ул., д.91, к.2",8000000,30.8,13.0,10.0,1,9,13,2022,empty,empty,monolith,empty,empty,0,30.200201,60.032784,2,empty,Комендантский проспект,9,transport,"Юнтолово,Приморский",empty,1
spb,"Санкт-Петербург, Зеленогорск, Приморское шоссе, 570Л",16225848,47.4,13.8,12.5,1,3,12,empty,0,2024,monolithBrick,empty,fine,1,29.6625910085972,60.1917979990791,empty,empty,,,,"Зеленогорск,Курортный",1,0
spb,"Санкт-Петербург, Петроградский район, набережная Мартынова, 74Б",58320000,201.8,19.8,107.0,5,1,6,2008,empty,empty,brick,empty,empty,empty,30.250031,59.974779,empty,empty,"Крестовский остров,Зенит","11,7","walk,transport","Чкаловское,Петроградский",0,1
spb,"Санкт-Петербург, улица Шкапина, 43-45, лит. А",17009999,59.87,20.1,20.1,2,2,9,empty,0,2024,monolithBrick,empty,empty,empty,30.28985984693904,59.90372426252108,22,empty,"Балтийская,Нарвская,Фрунзенская","11,14,6","walk,walk,transport","Екатерингофский,Адмиралтейский",0,0
spb,"Санкт-Петербург, Центральный район, набережная Кутузова, 24",165000000,135.0,53.5,30.0,4,4,4,2018,empty,empty,monolithBrick,empty,empty,empty,30.340581,59.948658,empty,empty,,,,"Литейный,Центральный",0,1
spb,"Санкт-Петербург, улица Тамбасова",11676359,49.64,12.8,24.5,2,2,9,empty,0,2026,monolith,empty,rough,empty,30.154253944427,59.8414847874383,3,5,"Проспект Ветеранов,Ленинский проспект,Автово","10,11,13","transport,transport,transport","Сосновая поляна,Красносельский",0,0
spb,"Санкт-Петербург, Выборгский район, Зеленогорская ул., д.7",14500000,48.0,14.0,20.0,1,2,17,2020,empty,empty,monolith,empty,empty,0,30.323396,60.001919,2,empty,Пионерская,3,transport,"Светлановское,Выборгский",empty,1
spb,"Санкт-Петербург, Московский проспект, 103к6Й",14150000,46.0,13.8,21.8,1,15,16,empty,0,2024,monolith,underground,fine,empty,30.3135398499,59.8904829749,empty,empty,"Московские ворота,Электросила,Фрунзенская","5,19,5","walk,walk,transport","Московская застава,Московский",1,0
spb,"Санкт-Петербург, Кутузова наб, д. 24",165000000,135.0,9.0,64.7,4,4,4,2015,empty,empty,brick,empty,empty,empty,30.340581,59.948658,1,empty,Чернышевская,18,walk,"Литейный,Центральный",0,1
spb,"Санкт-Петербург, Светлановский проспект, 121к1",9406200,51.4,empty,empty,1,5,25,empty,1,2020,monolith,multilevel,rough,empty,30.405089,60.046185,1,empty,"Гражданский проспект,Девяткино,Политехническая","5,6,7","transport,transport,transport","Прометей,Калининский",0,0
spb,"Санкт-Петербург, жилой комплекс Айди Светлановский",11400000,33.01,10.3,14.3,1,4,12,empty,empty,2024,monolith,underground,without,empty,30.3274265496,60.0065677292,1,1,"Удельная,Пионерская,Озерки","18,3,5","walk,transport,transport","Светлановское,Выборгский",0,1
spb,"Санкт-Петербург, Зеленогорск, Приморское шоссе, 570Л",16826400,46.0,13.8,12.5,2,5,12,empty,0,2024,monolithBrick,empty,fine,1,29.6625910085972,60.1917979990791,empty,empty,,,,"Зеленогорск,Курортный",1,0
spb,"Санкт-Петербург, Студенческая улица, 14к2",22500000,75.67,14.1,42.2,3,2,14,2022,empty,empty,monolith,underground,empty,empty,30.326872,59.991754,1,1,"Лесная,Пионерская,Выборгская","20,5,6","walk,transport,transport","Чёрная речка,Приморский",0,1
spb,"Санкт-Петербург, Светлановский проспект, 121к1",14402100,78.7,13.0,40.6,2,5,25,empty,1,2020,monolith,multilevel,rough,empty,30.405089,60.046185,1,empty,"Гражданский проспект,Девяткино,Политехническая","5,6,7","transport,transport,transport","Прометей,Калининский",1,0
spb,"Санкт-Петербург, проспект Авиаконструкторов, 54",24000000,79.9,26.3,22.4,2,12,12,2022,empty,empty,monolithBrick,underground,empty,empty,30.204863,60.033602,1,1,"Комендантский проспект,Старая Деревня,Удельная","9,14,14","transport,transport,transport","Юнтолово,Приморский",0,1
spb,"Санкт-Петербург, аллея Академика Лихачёва, 7",20989800,62.1,empty,54.1,1,3,23,empty,1,2021,empty,empty,empty,empty,30.346546,60.002494,4,4,"Площадь Мужества,Политехническая,Пионерская","17,5,5","walk,transport,transport","Светлановское,Выборгский",0,0
spb,"Санкт-Петербург, Петроградский район, Южная дорога, д. 5",350000000,324.0,88.2,130.0,5,1,4,2003,empty,empty,monolith,empty,empty,empty,30.243302,59.969677,empty,empty,,,,"Чкаловское,Петроградский",1,1
spb,"Санкт-Петербург, аллея Академика Лихачёва, 7",40193640,124.4,empty,116.4,2,3,23,empty,1,2021,empty,empty,empty,empty,30.346546,60.002494,4,4,"Площадь Мужества,Политехническая,Пионерская","17,5,5","walk,transport,transport","Светлановское,Выборгский",0,0
spb,"Санкт-Петербург, Вязовая ул., д. 8",105000000,150.0,27.8,63.9,3,3,10,2018,empty,empty,monolith,empty,empty,empty,30.276109,59.967691,1,empty,Крестовский остров,15,walk,"Чкаловское,Петроградский",0,1
spb,"Санкт-Петербург, Ивинская улица, 19к1",6234150,34.5,empty,9.3,1,19,24,empty,1,2023,monolith,empty,without,empty,30.128021,60.032587,empty,empty,"Комендантский проспект,Старая Деревня,Беговая","11,12,13","transport,transport,transport","Лахта-Ольгино,Приморский",0,0
spb,"Санкт-Петербург, Невский пр-кт, д. 6, литера А",83610000,237.9,14.0,194.8,6,4,5,1770,empty,empty,brick,empty,empty,empty,30.314566,59.937012,1,empty,Адмиралтейская,4,walk,"Дворцовый,Центральный",0,1
spb,"Санкт-Петербург, территория Невская Губа",12259999,38.68,14.0,12.7,1,7,19,empty,0,2025,empty,empty,empty,empty,30.1841809407485,59.9425286095122,empty,empty,,,,"Морской,Василеостровский",0,0
spb,"Санкт-Петербург, Петроградский район, Южная дорога, д. 5",400000000,443.0,73.0,160.0,4,2,4,2003,empty,empty,monolith,empty,empty,empty,30.243302,59.969677,empty,empty,,,,"Чкаловское,Петроградский",1,1
spb,"г. Санкт-Петербург город, проспект Малоохтинский",11213489,27.62,3.7,15.2,1,6,9,empty,0,2024,empty,underground,without,empty,30.4057134308945,59.9380727109185,empty,empty,"Новочеркасская,Площадь Александра Невского,Ладожская","14,4,4","walk,transport,transport","Малая Охта,Красногвардейский",0,0
spb,"Санкт-Петербург, Петроградский район, Петровский проспект, д. 2, стр. 2",67000000,127.6,32.6,61.0,3,4,6,2018,empty,empty,monolithBrick,empty,empty,empty,30.279289,59.953543,empty,empty,Спортивная,10,walk,"Петровский,Петроградский",1,1
spb,"Санкт-Петербург, Малая Зеленина улица, 4",32399940,87.9,empty,empty,2,2,9,empty,0,2025,monolithBrick,underground,without,empty,30.2820885522513,59.9622383546934,empty,2,"Чкаловская,Спортивная,Крестовский остров","8,20,2","walk,walk,transport","Чкаловское,Петроградский",0,0
spb,"Санкт-Петербург, Красное Село, Спирина ул., 2к1 лит. А",6100000,60.3,6.2,43.2,3,5,9,1978,empty,empty,stalin,empty,empty,1,30.08492,59.74714,1,0,Проспект Ветеранов,25,transport,"Красное Село,Красносельский",0,1
spb,"Санкт-Петербург, 12-я линия Васильевского острова, 41к1Ж",17309948,39.66,5.6,21.8,1,2,7,empty,0,2024,empty,underground,without,empty,30.269219,59.943566,empty,empty,"Василеостровская,Спортивная,Горный институт","8,18,3","walk,walk,transport","Васильевский,Василеостровский",0,0
spb,"Россия, Санкт-Петербург, Ленинский проспект, 51",6890000,40.0,14.0,16.0,1,12,25,2013,empty,empty,panel,multilevel,empty,empty,30.167314,59.862565,2,4,"Ленинский проспект,Автово,Кировский завод","9,10,11","transport,transport,transport","Южно-Приморский,Красносельский",0,1
spb,"Санкт-Петербург, Ивинская улица, 19к1",9221320,53.8,empty,22.8,2,17,24,empty,1,2023,monolith,empty,without,empty,30.128021,60.032587,empty,empty,"Комендантский проспект,Старая Деревня,Беговая","11,12,13","transport,transport,transport","Лахта-Ольгино,Приморский",0,0
spb,"Санкт-Петербург, Динамовская ул., д. 2",350000000,363.0,35.0,243.2,5,7,7,2005,empty,empty,monolith,empty,empty,1,30.260541,59.973906,2,2,Крестовский остров,3,walk,"Чкаловское,Петроградский",0,1
spb,"Санкт-Петербург, Пионерская улица",11933352,21.88,14.4,2.5,1,2,8,empty,0,2025,empty,empty,rough,empty,30.2845134722134,59.9604870610312,empty,empty,"Чкаловская,Спортивная,Петроградская","8,17,4","walk,walk,transport","Чкаловское,Петроградский",0,0
spb,"Санкт-Петербург, Каменноостровский пр-кт, д. 64, к. 2 литера А",101990000,212.3,20.3,142.0,4,5,8,2008,empty,empty,empty,empty,empty,empty,30.302672,59.974703,1,1,,,,"Чкаловское,Петроградский",0,1
spb,"Санкт-Петербург, территория Невская Губа",15759999,59.95,13.8,27.7,2,5,19,empty,0,2025,empty,empty,empty,empty,30.1841809407485,59.9425286095122,empty,empty,,,,"Морской,Василеостровский",0,0
spb,"Санкт-Петербург, Выборгский район, Большой Сампсониевский проспект, 4-6",350000000,611.0,145.0,330.0,6,23,23,2008,empty,empty,monolithBrick,empty,empty,empty,30.343914,59.957359,empty,empty,"Площадь Ленина,Горьковская,Выборгская","13,20,4","walk,walk,transport","Сампсониевское,Выборгский",0,1
spb,"г. Санкт-Петербург город, проспект Малоохтинский",25522693,76.98,25.5,30.8,2,2,9,empty,0,2024,empty,underground,without,empty,30.4057134308945,59.9380727109185,empty,empty,"Новочеркасская,Площадь Александра Невского,Ладожская","14,4,4","walk,transport,transport","Малая Охта,Красногвардейский",0,0
spb,"Санкт-Петербург, Одоевского ул., 17",10200000,52.7,16.0,17.1,1,2,10,2022,empty,empty,monolith,empty,empty,0,30.261233,59.951948,1,1,Василеостровская,20,walk,"Остров Декабристов,Василеостровский",1,1
spb,"Санкт-Петербург, 12-я линия Васильевского острова, 41к1Ж",29338861,52.13,11.3,21.3,2,3,7,empty,0,2024,empty,underground,without,empty,30.269219,59.943566,empty,empty,"Василеостровская,Спортивная,Горный институт","8,18,3","walk,walk,transport","Васильевский,Василеостровский",0,0
spb,"Санкт-Петербург, Выборгский район, Калязинская ул., д.7",34000000,132.0,15.7,72.4,3,3,5,2010,empty,empty,brick,empty,empty,0,30.319075,60.015381,empty,empty,Удельная,3,walk,"Светлановское,Выборгский",empty,1
spb,"Санкт-Петербург, жилой комплекс Айди Светлановский",22703578,93.25,22.7,41.0,3,3,12,empty,0,2024,monolithBrick,underground,empty,empty,30.3274265495974,60.0065677292286,8,16,"Удельная,Пионерская,Площадь Мужества","18,3,6","walk,transport,transport","Светлановское,Выборгский",0,0
spb,"Санкт-Петербург, Ленинский проспект, 76к1 лит. А",9990000,57.8,8.6,29.5,2,9,18,2010,empty,empty,brick,empty,empty,1,30.187939,59.860184,1,1,Ленинский проспект,7,transport,"Южно-Приморский,Красносельский",0,1
spb,"Санкт-Петербург, жилой комплекс Айди Светлановский",19577578,75.03,18.8,38.2,3,2,12,empty,0,2024,monolithBrick,underground,empty,empty,30.3274265495974,60.0065677292286,8,16,"Удельная,Пионерская,Площадь Мужества","18,3,6","walk,transport,transport","Светлановское,Выборгский",0,0
spb,"Санкт-Петербург, 2-я Берёзовая аллея, д. 13-15",160000000,125.0,16.0,12.0,3,3,3,2003,empty,empty,empty,empty,empty,empty,30.289026,59.980668,1,empty,Крестовский остров,6,transport,"Чкаловское,Петроградский",0,1
spb,"Санкт-Петербург, Пионерская улица",30076946,68.34,23.8,26.5,2,3,8,empty,0,2025,empty,empty,rough,empty,30.2845134722134,59.9604870610312,empty,empty,"Чкаловская,Спортивная,Петроградская","8,17,4","walk,walk,transport","Чкаловское,Петроградский",0,0
spb,"Санкт-Петербург, Петроградский район, Каменноостровский проспект, 54/31",104900000,222.0,49.0,104.0,4,7,7,1911,empty,empty,brick,empty,empty,empty,30.305969,59.971533,empty,empty,,,,"Чкаловское,Петроградский",0,1
spb,"Санкт-Петербург, Пискаревский проспект",13230000,35.0,6.5,19.8,1,4,10,empty,0,2024,monolithBrick,underground,empty,empty,30.4088977135887,59.9582992543031,empty,4,"Площадь Ленина,Новочеркасская,Чернышевская","6,6,8","transport,transport,transport","Большая Охта,Красногвардейский",0,0
spb,"Россия, Санкт-Петербург, Белоостровская улица, 28",13850000,40.7,10.5,16.8,1,8,10,2022,empty,empty,monolith,ground,empty,0,30.310128,59.987226,1,1,"Черная речка,Пионерская,Лесная","9,5,6","walk,transport,transport","Чёрная речка,Приморский",0,1
spb,"Санкт-Петербург, Миргородская улица",19450000,47.5,17.6,14.8,1,2,9,empty,0,2025,monolith,underground,without,empty,30.3694563372924,59.9252000525308,9,empty,"Площадь Восстания,Площадь Александра Невского,Маяковская","13,13,16","walk,walk,walk","Лиговка-Ямская,Центральный",0,0
spb,"Санкт-Петербург, Петровский пр-кт, д. 2",67000000,127.6,10.0,empty,4,4,6,2019,empty,empty,brick,empty,empty,empty,30.276818,59.953908,1,empty,Спортивная,14,walk,"Петровский,Петроградский",1,1
spb,"Санкт-Петербург, Петровский проспект, 28к2",17241750,39.5,11.1,16.4,1,2,8,empty,1,2023,monolithBrick,empty,rough,empty,30.252079,59.961201,empty,empty,"Крестовский остров,Спортивная,Зенит","16,6,7","walk,transport,transport","Петровский,Петроградский",0,0
spb,"Санкт-Петербург, Центральный район, Кирочная ул., д.31, к.2",42500000,79.6,14.4,42.4,2,3,8,2015,empty,empty,monolithBrick,empty,empty,0,30.3655,59.943061,empty,1,Чернышевская,5,walk,"Смольнинское,Центральный",empty,1
spb,"Санкт-Петербург, Звенигородская улица, 7к2",28500000,58.7,empty,23.5,1,7,7,empty,1,2021,monolithBrick,empty,empty,empty,30.340419,59.917592,empty,empty,"Звенигородская,Обводный канал,Пушкинская","8,9,12","walk,walk,walk","Семёновский,Адмиралтейский",0,0
spb,"Санкт-Петербург, Торфяная дорога, 15к3",7600000,32.2,empty,empty,1,7,12,2020,empty,empty,monolith,empty,empty,1,30.260469,59.994247,empty,empty,"Старая Деревня,Комендантский проспект,Пионерская","13,3,6","walk,transport,transport","Озеро Долгое,Приморский",1,1
spb,"Санкт-Петербург, Петровский проспект, 24к2",22950000,76.5,27.5,17.8,1,1,8,empty,1,2019,monolithBrick,empty,rough,empty,30.2554189629514,59.9601572795654,empty,empty,,,,"Петровский,Петроградский",0,0
spb,"Россия, Санкт-Петербург, 17-я линия Васильевского острова, 28",14750000,64.0,11.1,empty,3,3,5,1910,empty,empty,brick,ground,empty,empty,30.265805,59.93864,empty,empty,"Василеостровская,Спортивная","11,4","walk,transport","№ 7,Василеостровский",0,1
spb,"Санкт-Петербург, улица Челюскина, 8",10189999,34.59,8.8,14.2,1,9,20,empty,1,2022,empty,empty,without,empty,30.187679,59.94207,2,empty,,,,"Морской,Василеостровский",0,0
spb,"Россия, Санкт-Петербург, улица Шевченко, 29",13200000,56.0,24.0,22.0,3,2,5,1961,empty,empty,brick,ground,empty,empty,30.241559,59.939041,empty,empty,"Приморская,Василеостровская,Чкаловская","17,5,7","walk,transport,transport","Гавань,Василеостровский",0,1
spb,"Санкт-Петербург, Пискаревский проспект",20720000,67.6,13.9,36.8,2,5,10,empty,0,2024,monolithBrick,underground,empty,empty,30.4088977136,59.9582992543,empty,4,"Площадь Ленина,Новочеркасская,Чернышевская","6,6,8","transport,transport,transport","Большая Охта,Красногвардейский",0,0
spb,"Россия, Санкт-Петербург, проспект Королёва, 7",17700000,80.0,11.4,empty,3,20,25,2011,empty,empty,monolith,underground,empty,0,30.290895,60.010735,3,empty,"Пионерская,Комендантский проспект,Удельная","13,4,5","walk,transport,transport","Комендантский аэродром,Приморский",0,1
spb,"Санкт-Петербург, Миргородская улица",28595965,70.6,16.6,34.2,2,4,9,empty,0,2025,monolith,underground,without,empty,30.3694563372924,59.9252000525308,9,empty,"Площадь Восстания,Площадь Александра Невского,Маяковская","13,13,16","walk,walk,walk","Лиговка-Ямская,Центральный",0,0
spb,"Санкт-Петербург, Петродворцовый район, посёлок Стрельна, Красносельское шоссе, 22",7999999,45.0,17.9,16.2,1,3,4,2022,empty,empty,monolithBrick,underground,empty,1,30.070296,59.848741,empty,1,"Ленинский проспект,Проспект Ветеранов,Автово","16,17,18","transport,transport,transport","Стрельна,Петродворцовый",0,1
spb,"Санкт-Петербург, Лиговский проспект",10800000,31.5,11.5,11.0,1,3,14,empty,0,2026,monolithBrick,underground,fine,empty,30.34592204103043,59.90264079714706,6,8,"Волковская,Обводный канал,Фрунзенская","18,18,6","walk,walk,transport","Волковское,Фрунзенский",0,0
spb,"Россия, Санкт-Петербург, Школьная улица, 70",12900000,55.0,empty,37.9,3,3,5,1969,empty,empty,brick,multilevel,empty,0,30.259822,59.986529,empty,empty,"Старая Деревня,Комендантский проспект,Беговая","8,4,5","walk,transport,transport","Чёрная речка,Приморский",0,1
spb,"Санкт-Петербург, Петровский проспект, 28к2",27160650,64.9,19.5,27.6,2,5,8,empty,1,2023,monolithBrick,empty,rough,empty,30.252079,59.961201,empty,empty,"Крестовский остров,Спортивная,Зенит","16,6,7","walk,transport,transport","Петровский,Петроградский",0,0
spb,"Санкт-Петербург, набережная Реки Смоленки, 3к2",22500000,76.5,19.9,32.8,2,7,11,2015,empty,empty,brick,ground,empty,empty,30.262796,59.94969,1,1,"Спортивная,Василеостровская,Приморская","16,17,6","walk,walk,transport","Остров Декабристов,Василеостровский",0,1
spb,"Санкт-Петербург, Ивинская улица, 1к2",6224769,32.62,9.5,15.9,1,4,23,empty,0,2025,monolith,empty,fine,empty,30.135406,60.027862,4,6,"Зенит,Беговая,Проспект Просвещения","11,14,17","transport,transport,transport","Лахта-Ольгино,Приморский",0,0
spb,"Санкт-Петербург, Пулковское шоссе, 40К3",6500000,31.2,8.5,15.0,1,1,27,2015,empty,empty,monolithBrick,ground,empty,empty,30.327627,59.819196,1,1,"Звездная,Купчино,Московская","6,8,9","transport,transport,transport","Звёздное,Московский",0,1
spb,"Санкт-Петербург, Звенигородская улица, 7к2",27000000,54.7,empty,26.8,2,7,7,empty,1,2021,monolithBrick,empty,empty,empty,30.340419,59.917592,empty,empty,"Звенигородская,Обводный канал,Пушкинская","8,9,12","walk,walk,walk","Семёновский,Адмиралтейский",0,0
spb,"Россия, Санкт-Петербург, улица Нахимова, 20",17890000,74.5,15.7,empty,2,7,17,2010,empty,empty,brick,ground,empty,0,30.22353,59.940438,1,1,"Приморская,Василеостровская","16,8","walk,transport","Гавань,Василеостровский",0,1
spb,"Санкт-Петербург, Петровский проспект, 24к2",22400000,70.0,10.8,31.8,2,2,8,empty,1,2019,monolithBrick,empty,rough,empty,30.255418963,59.9601572796,empty,empty,,,,"Петровский,Петроградский",0,0
spb,"Россия, Санкт-Петербург, Морская набережная, 37к1Б",16600000,65.5,19.0,30.6,2,11,18,2003,empty,empty,brick,ground,empty,empty,30.223396,59.95967,1,1,"Приморская,Василеостровская","5,7","transport,transport","Остров Декабристов,Василеостровский",0,1
spb,"Санкт-Петербург, улица Гастелло, 7А",40343400,72.3,18.4,34.8,2,3,6,empty,1,2022,monolithBrick,empty,rough,empty,30.3246,59.857897,empty,empty,"Московская,Парк Победы,Ленинский проспект","7,15,5","walk,walk,transport","Звёздное,Московский",0,0
spb,"Санкт-Петербург, улица Беринга, 27к6",16200000,43.0,16.5,15.1,2,4,13,2023,empty,empty,monolithBrick,ground,empty,empty,30.239071,59.946338,1,1,"Приморская,Василеостровская","7,6","walk,transport","Васильевский,Василеостровский",0,1
spb,"Санкт-Петербург, улица Челюскина, 8",22339999,86.4,25.1,35.7,2,3,20,empty,1,2022,empty,empty,without,empty,30.187679,59.94207,2,empty,,,,"Морской,Василеостровский",0,0
spb,"Санкт-Петербург, Байконурская ул., 19к1",9698000,64.8,10.0,42.1,3,1,9,empty,empty,empty,panel,empty,empty,0,30.277438,60.008936,empty,empty,Пионерская,20,walk,"Комендантский аэродром,Приморский",0,1
spb,"Санкт-Петербург, Лиговский проспект",16000000,48.7,12.1,21.5,2,3,14,empty,0,2026,monolithBrick,underground,fine,empty,30.34592204103043,59.90264079714706,6,8,"Волковская,Обводный канал,Фрунзенская","18,18,6","walk,walk,transport","Волковское,Фрунзенский",0,0
spb,"Россия, Санкт-Петербург, Витебский проспект, 97к1",10600000,50.4,18.2,15.2,1,4,25,2016,empty,empty,monolithBrick,multilevel,empty,0,30.370611,59.831494,1,2,"Купчино,Звездная,Дунайская","3,19,7","walk,walk,transport","Гагаринское,Московский",0,1
spb,"Санкт-Петербург, Ивинская улица, 1к2",8772153,50.14,15.6,20.3,2,3,23,empty,0,2025,monolith,empty,fine,empty,30.135406,60.027862,4,6,"Зенит,Беговая,Проспект Просвещения","11,14,17","transport,transport,transport","Лахта-Ольгино,Приморский",0,0
spb,"Россия, Санкт-Петербург, Богатырский проспект, 3к1",8500000,29.0,6.7,15.5,1,5,9,1973,empty,empty,panel,ground,empty,0,30.294461,60.001617,1,empty,"Пионерская,Комендантский проспект,Удельная","4,4,6","walk,transport,transport","Комендантский аэродром,Приморский",0,1
spb,"Санкт-Петербург, Петроградский район, муниципальный округ Аптекарский Остров, набережная реки Карповки",20456954,40.5,17.0,11.6,1,3,8,empty,1,2023,monolith,empty,without,empty,30.3050356986023,59.9706290606325,empty,1,"Петроградская,Чкаловская,Чернышевская","8,19,9","walk,walk,transport","Чкаловское,Петроградский",0,0
spb,"Россия, Санкт-Петербург, Благодатная улица, 29",7990000,42.6,5.8,27.6,2,3,5,1961,empty,empty,brick,ground,empty,1,30.309876,59.87495,empty,empty,"Электросила,Парк Победы,Московские ворота","10,19,4","walk,walk,transport","Новоизмайловское,Московский",0,1
spb,"Санкт-Петербург, набережная Чёрной речки, 41",18464200,48.59,23.7,11.4,1,4,9,empty,0,2025,monolith,empty,empty,1,30.3090336587189,59.986000772714,1,1,"Черная речка,Лесная,Выборгская","7,5,5","walk,transport,transport","Чёрная речка,Приморский",0,0
spb,"Санкт-Петербург, Детский переулок, 2",9690000,41.7,13.8,13.5,1,5,11,2021,empty,empty,monolith,empty,empty,1,30.316713,59.893827,empty,empty,"Московские ворота,Фрунзенская","5,18","walk,walk","Московская застава,Московский",1,1
spb,"Санкт-Петербург, посёлок Парголово, Толубеевский проезд, 34к2",7799904,33.77,10.2,12.5,1,22,27,empty,0,2024,monolith,empty,fine,empty,30.354002,60.085038,4,6,,,,"Парголово,Парнас,Выборгский",0,0
spb,"Россия, Санкт-Петербург, Южная дорога, 5",400000000,443.0,16.0,253.0,5,2,4,2003,empty,empty,monolithBrick,underground,empty,1,30.243302,59.969677,1,0,"Крестовский остров,Зенит,Чкаловская","13,6,8","walk,transport,transport","Чкаловское,Петроградский",1,1
spb,"Санкт-Петербург, Белоостровская улица, 9",15444000,39.6,16.6,11.0,1,11,12,empty,0,2023,monolith,empty,empty,empty,30.3293758981469,59.9855426367199,empty,empty,"Лесная,Черная речка,Выборгская","11,20,3","walk,walk,transport","Чёрная речка,Приморский",0,0
spb,"Санкт-Петербург, Медиков проспект, 10, корп. 5",33500000,83.1,12.3,65.8,3,3,9,empty,empty,empty,empty,empty,empty,empty,30.315158,59.974622,empty,empty,Петроградская,16,walk,"Аптекарский остров,Петроградский",0,1
spb,"Санкт-Петербург, набережная реки Карповки, 31к2",23680000,59.2,21.4,26.3,2,3,7,empty,1,2023,monolith,empty,without,empty,30.306148,59.970218,empty,3,"Чкаловская,Горьковская,Чернышевская","17,4,8","walk,transport,transport","Чкаловское,Петроградский",1,0
spb,"Санкт-Петербург, Галерная ул., д. 40, литера А, помещ 3-Н",20131000,69.9,8.0,empty,2,2,7,2016,empty,empty,empty,empty,empty,empty,30.2882,59.931368,1,empty,Адмиралтейская,5,transport,"Адмиралтейский,Адмиралтейский",1,1
spb,"Санкт-Петербург, Василеостровский район, Невская губа",11089999,36.68,14.5,11.5,1,8,18,empty,0,2024,empty,empty,empty,empty,30.1943675674254,59.9432899185978,8,8,,,,"Морской,Василеостровский",0,0
spb,"Санкт-Петербург, Реки Фонтанки наб, д. 47, литера А",45000000,81.9,13.8,44.2,2,3,3,1825,empty,empty,brick,empty,empty,empty,30.338667,59.930259,empty,empty,,,,"№ 78,Центральный",0,1
spb,"Санкт-Петербург, набережная Чёрной речки, 41",23766070,58.76,21.6,22.9,2,6,9,empty,0,2025,monolith,empty,empty,empty,30.3095379140129,59.9859255115768,1,1,"Черная речка,Лесная,Выборгская","9,5,5","walk,transport,transport","Чёрная речка,Приморский",0,0
spb,"Санкт-Петербург, Петровский проспект, 11к3",43900000,77.0,20.5,36.0,2,3,11,2023,empty,empty,monolith,underground,empty,empty,30.26062,59.962511,1,empty,"Спортивная,Чкаловская,Крестовский остров","5,5,5","transport,transport,transport","Петровский,Петроградский",0,1
spb,"Санкт-Петербург, посёлок Парголово, Толубеевский проезд, 34к2",9760212,44.0,8.8,22.6,2,25,27,empty,0,2024,monolith,empty,fine,empty,30.354002,60.085038,4,6,,,,"Парголово,Парнас,Выборгский",0,0
spb,"Санкт-Петербург, Петровский пр-кт, д. 22, к. 2, стр. 1",32000000,70.0,14.4,37.8,2,4,8,2021,empty,empty,empty,empty,empty,empty,30.2622,59.959993,1,empty,"Крестовский остров,Чкаловская,Спортивная","3,3,5","transport,transport,transport","Петровский,Петроградский",0,1
spb,"Санкт-Петербург, Белоостровская улица, 9",20510000,58.6,19.0,18.8,2,11,12,empty,0,2023,monolith,empty,empty,empty,30.3293758981,59.9855426367,empty,empty,"Лесная,Черная речка,Выборгская","11,20,3","walk,walk,transport","Чёрная речка,Приморский",0,0
spb,"ул. Спортивная, д. 2",275000000,200.0,65.0,79.0,4,6,6,2018,empty,empty,monolithBrick,empty,empty,empty,30.270243,59.966813,empty,empty,,,,"Чкаловское,Петроградский",0,1
spb,"Санкт-Петербург, Петроградская набережная",16990000,43.77,empty,empty,1,7,9,empty,0,2024,monolithBrick,empty,without,empty,30.3322039312131,59.9635361341323,empty,12,"Горьковская,Выборгская,Петроградская","18,20,20","walk,walk,walk","Посадский,Петроградский",0,0
spb,"Санкт-Петербург, Троицкий проспект, 10",21000000,92.5,8.8,59.7,3,5,5,1879,empty,empty,old,empty,empty,0,30.300462,59.915706,0,0,Технологический институт,10,walk,"Измайловское,Адмиралтейский",0,1
spb,"Санкт-Петербург, Василеостровский район, Невская губа",14209999,48.97,17.2,21.1,2,8,18,empty,0,2024,empty,empty,empty,empty,30.1943675674254,59.9432899185978,8,8,,,,"Морской,Василеостровский",0,0
spb,"Россия, Санкт-Петербург, улица Подвойского, 34к1",11999999,65.7,10.5,42.9,3,3,9,1971,empty,empty,block,ground,empty,0,30.487374,59.916234,1,0,"Улица Дыбенко,Проспект Большевиков,Новочеркасская","17,18,10","walk,walk,transport","Оккервиль,Невский",0,1
spb,"Санкт-Петербург, улица Шостаковича",20066696,84.2,18.0,36.3,3,8,15,empty,0,2026,monolith,underground,fine,empty,30.33054591,60.0600914625,empty,empty,"Проспект Просвещения,Парнас,Озерки","17,5,8","walk,transport,transport","Шувалово-Озерки,Выборгский",0,0
spb,"Санкт-Петербург, Курортный район, Зеленогорск г., Курортный, Мира ул., д.19",22000000,122.7,18.1,66.5,4,3,3,2013,empty,empty,brick,empty,empty,1,29.685233,60.197474,empty,empty,Беговая,40,transport,"Зеленогорск,Курортный",empty,1
spb,"Санкт-Петербург, набережная реки Смоленки, 8/86",10497494,26.91,empty,17.6,1,3,9,empty,0,2025,monolith,empty,empty,empty,30.2714274589988,59.9487290053826,13,13,"Василеостровская,Спортивная,Чкаловская","11,12,5","walk,walk,transport","Васильевский,Василеостровский",0,0
spb,"Россия, Санкт-Петербург, Большой Сампсониевский проспект, 4-6",350000000,789.0,30.0,480.0,6,23,23,2008,empty,empty,empty,empty,empty,3,30.343914,59.957359,3,empty,"Площадь Ленина,Выборгская,Горьковская","13,2,20","walk,transport,walk","Сампсониевское,Выборгский",0,1
spb,"Санкт-Петербург, Уральская улица",12700151,33.32,15.6,10.2,1,2,12,empty,0,2025,monolithBrick,underground,fine,empty,30.2503252486568,59.957056708759,empty,empty,"Василеостровская,Спортивная,Приморская","4,4,5","transport,transport,transport","Остров Декабристов,Василеостровский",0,0
spb,"Россия, Санкт-Петербург, улица Егорова, 28Г",18700000,93.2,24.0,64.3,4,4,5,1902,empty,empty,brick,ground,empty,0,30.315482,59.910081,empty,empty,"Фрунзенская,Технологический институт,Балтийская","9,11,15","walk,walk,walk","Измайловское,Адмиралтейский",0,1
spb,"Санкт-Петербург, Петроградская набережная",22100800,58.16,empty,empty,2,4,9,empty,0,2024,monolithBrick,empty,without,empty,30.3322039312131,59.9635361341323,empty,12,"Горьковская,Выборгская,Петроградская","18,20,20","walk,walk,walk","Посадский,Петроградский",0,0
spb,"Санкт-Петербург, Красногвардейский район, Магнитогорская ул., д.3, к.2",24500000,57.3,26.2,20.8,2,5,15,2018,empty,empty,panel,empty,empty,1,30.417393,59.936303,2,1,Новочеркасская,13,walk,"Большая Охта,Красногвардейский",empty,1
spb,"Санкт-Петербург, Пискарёвский проспект",10208835,58.17,15.7,33.3,3,9,20,empty,0,2024,monolith,empty,fine,empty,30.4670323017,59.9995203388,empty,empty,"Гражданский проспект,Девяткино,Академическая","6,7,15","transport,transport,transport","Полюстрово,Красногвардейский",0,0
spb,"Санкт-Петербург, Петроградский район, Крестовский проспект, 30",299900000,326.0,35.0,171.0,5,7,7,2007,empty,empty,monolith,empty,empty,empty,30.264026,59.965993,empty,empty,"Крестовский остров,Чкаловская","12,6","walk,transport","Чкаловское,Петроградский",0,1
spb,"Санкт-Петербург, проспект Обуховской Обороны",11450250,32.97,10.5,14.3,1,3,9,empty,0,2025,monolithBrick,empty,fine,empty,30.4198306388678,59.9056993901135,30,empty,"Елизаровская,Площадь Александра Невского,Ломоносовская","18,4,5","walk,transport,transport","Невская застава,Невский",0,0
spb,"Санкт-Петербург, Адмиралтейский район, Московский пр-кт., д.73, к.5",16700000,42.0,12.7,17.5,1,4,19,empty,empty,empty,monolith,empty,empty,0,30.314808,59.904189,2,empty,Фрунзенская,5,walk,"Измайловское,Адмиралтейский",empty,1
spb,"Санкт-Петербург, проспект Бакунина, 33",21008640,54.71,empty,empty,1,2,9,empty,0,2025,monolith,empty,without,empty,30.3856123386212,59.9307976119265,1,1,"Площадь Восстания,Владимирская,Ладожская","20,6,7","walk,transport,transport","Смольнинское,Центральный",0,0
spb,"Санкт-Петербург, Таврическая ул., д. 5",85000000,170.0,68.1,96.9,4,5,6,1909,empty,empty,brick,empty,empty,empty,30.378283,59.941538,1,empty,,,,"Смольнинское,Центральный",0,1
spb,"Санкт-Петербург, набережная реки Смоленки, 8/86",20546283,64.6,18.0,30.0,2,4,9,empty,0,2025,monolith,empty,empty,empty,30.2714274589988,59.9487290053826,13,13,"Василеостровская,Спортивная,Чкаловская","11,12,5","walk,walk,transport","Васильевский,Василеостровский",0,0
spb,"Санкт-Петербург, Петроградский район, Ждановская ул., д.45",300000000,248.0,5.0,161.6,4,9,11,2017,empty,empty,monolithBrick,empty,empty,1,30.267485,59.962719,1,empty,"Спортивная,Чкаловская","5,5","transport,transport","Петровский,Петроградский",empty,1
spb,"Санкт-Петербург, 20-я линия Васильевского острова, 19",29809944,64.44,30.3,13.4,1,3,9,empty,0,2024,monolith,underground,empty,1,30.2650035595243,59.9349620833011,empty,1,"Василеостровская,Спортивная,Адмиралтейская","18,5,7","walk,transport,transport","№ 7,Василеостровский",0,0
spb,"Санкт-Петербург, Уральская улица",18000026,56.31,17.2,25.0,2,2,6,empty,0,2025,monolithBrick,underground,fine,empty,30.2516770820002,59.9569813821899,empty,empty,"Василеостровская,Спортивная,Приморская","4,4,5","transport,transport,transport","Остров Декабристов,Василеостровский",0,0
spb,"Санкт-Петербург, проспект Юрия Гагарина",28729170,104.66,24.2,46.6,3,18,23,empty,0,2025,monolithBrick,empty,empty,empty,30.3424157011,59.8515188653,empty,empty,,,,"Гагаринское,Московский",0,0
spb,"Россия, Санкт-Петербург, Черниговская улица, 17",16900000,73.5,19.5,32.3,2,4,14,empty,empty,empty,monolith,underground,empty,1,30.330942,59.897636,1,1,"Фрунзенская,Технологический институт,Пушкинская","4,5,5","transport,transport,transport","Московская застава,Московский",0,1
spb,"Санкт-Петербург, 20-я линия Васильевского острова, 5",29275793,63.0,23.0,29.1,2,1,7,empty,0,2021,empty,underground,without,empty,30.268473,59.931896,empty,empty,"Горный институт,Василеостровская,Спортивная","9,3,4","walk,transport,transport","№ 7,Василеостровский",0,0
spb,"Россия, Санкт-Петербург, Ушаковская набережная, 1к3А1",19000000,70.35,23.0,21.3,1,3,20,empty,empty,empty,empty,underground,empty,empty,30.317413,59.982577,3,empty,"Черная речка,Лесная,Выборгская","13,4,6","walk,transport,transport","Чёрная речка,Приморский",0,1
spb,"Санкт-Петербург, проспект Обуховской Обороны",18900348,56.33,17.4,24.0,2,3,9,empty,0,2025,monolithBrick,empty,fine,empty,30.4198306388678,59.9056993901135,30,empty,"Елизаровская,Площадь Александра Невского,Ломоносовская","18,4,5","walk,transport,transport","Невская застава,Невский",0,0
spb,"Санкт-Петербург, Петроградский район, Петровский проспект, 11к2",36900000,126.7,21.2,54.0,3,2,9,2021,empty,empty,monolithBrick,empty,empty,empty,30.259598,59.961255,empty,empty,,,,"Петровский,Петроградский",0,1
spb,"Санкт-Петербург, проспект Бакунина, 33",23608848,62.59,14.6,30.7,2,2,9,empty,0,2025,monolith,empty,without,empty,30.3856123386212,59.9307976119265,1,1,"Площадь Восстания,Чернышевская,Ладожская","20,6,7","walk,transport,transport","Смольнинское,Центральный",0,0
spb,"Санкт-Петербург, Захарьевская ул., д. 41",106640000,211.8,40.0,120.5,6,1,6,1907,empty,empty,monolith,empty,empty,empty,30.366785,59.947428,1,1,Чернышевская,10,walk,"Смольнинское,Центральный",0,1
spb,"Санкт-Петербург, 20-я линия Васильевского острова, 19",36669105,82.31,30.1,24.8,2,4,9,empty,0,2024,monolith,underground,empty,empty,30.2650035595243,59.9349620833011,empty,1,"Василеостровская,Спортивная,Приморская","18,5,8","walk,transport,transport","№ 7,Василеостровский",0,0
spb,"Санкт-Петербург, улица Вадима Шефнера, 10к1",12590000,65.0,22.2,21.1,2,13,19,2016,empty,empty,monolith,underground,empty,empty,30.205636,59.938649,1,1,Приморская,6,transport,"Морской,Василеостровский",0,1
spb,"Санкт-Петербург, набережная Чёрной речки",15122688,37.12,18.0,10.3,1,6,10,empty,0,2025,monolith,underground,empty,empty,30.308031454382,59.9864141873289,1,1,"Черная речка,Пионерская,Петроградская","6,5,7","walk,transport,transport","Чёрная речка,Приморский",0,0
spb,"Санкт-Петербург, Московский проспект, 72к2",16000000,41.3,13.5,16.4,1,4,10,2023,empty,empty,monolith,underground,empty,empty,30.320827,59.906625,empty,1,"Фрунзенская,Технологический институт,Балтийская","2,14,17","walk,walk,walk","Московская застава,Московский",0,1
spb,"Санкт-Петербург, Петровский проспект, 26к2",30618000,72.9,14.3,34.9,2,3,8,empty,1,2022,monolithBrick,empty,rough,empty,30.2540958286042,59.960448183556,empty,empty,"Чкаловская,Спортивная,Крестовский остров","3,3,5","transport,transport,transport","Петровский,Петроградский",0,0
spb,"Россия, Санкт-Петербург, Кременчугская улица, 17к3",32500000,108.5,13.9,67.9,3,8,11,2015,empty,empty,monolith,multilevel,empty,0,30.370063,59.92042,1,1,"Площадь Восстания,Площадь Александра Невского,Маяковская","17,18,4","walk,walk,transport","Лиговка-Ямская,Центральный",0,1
spb,"Санкт-Петербург, жилой комплекс Кантемировская 11",10121000,36.1,16.8,10.5,1,3,13,empty,0,2026,panel,open,fine,empty,30.3367814400934,59.9839807987186,1,1,"Лесная,Выборгская,Площадь Мужества","6,4,6","walk,transport,transport","Сампсониевское,Выборгский",0,0
spb,"Санкт-Петербург, Петроградский район, Петровский проспект, д. 2",37103093,76.6,14.8,36.0,2,4,6,2018,empty,empty,monolithBrick,empty,empty,empty,30.278741,59.953272,empty,empty,,,,"Петровский,Петроградский",1,1
spb,"Санкт-Петербург, набережная Чёрной речки",20345062,53.98,18.3,22.3,2,3,10,empty,0,2025,monolith,underground,empty,empty,30.308031454382,59.9864141873289,1,1,"Черная речка,Старая Деревня,Петроградская","8,4,7","walk,transport,transport","Чёрная речка,Приморский",0,0
spb,"Санкт-Петербург, Центральный район, Кирочная улица, 70",37400000,78.8,30.0,39.0,2,3,10,2018,empty,empty,monolithBrick,empty,empty,empty,30.391246,59.939938,empty,empty,"Чернышевская,Площадь Александра Невского","4,5","transport,transport","Смольнинское,Центральный",0,1
spb,"Санкт-Петербург, Малодетскосельский проспект, 40",26680015,66.86,12.2,33.6,2,2,10,empty,1,2022,monolith,empty,empty,empty,30.3198120674571,59.910753004524,empty,empty,"Технологический институт,Фрунзенская,Пушкинская","7,8,17","walk,walk,walk","Семёновский,Адмиралтейский",0,0
spb,"Санкт-Петербург, Петроградский район, Петровский проспект, д. 2, стр. 2",38134021,77.0,16.5,38.0,2,4,6,2018,empty,empty,monolithBrick,empty,empty,empty,30.278741,59.953272,empty,empty,,,,"Петровский,Петроградский",1,1
spb,"Санкт-Петербург, проспект Энергетиков, 6",8085854,37.42,17.5,14.9,1,2,15,empty,0,2025,monolith,open,fine,empty,30.43418839021181,59.93594422205156,3,2,"Ладожская,Новочеркасская,Площадь Александра Невского","9,4,6","walk,transport,transport","Малая Охта,Красногвардейский",1,0
spb,"ул. Стремянная, д. 15/1",60200000,133.7,16.1,86.0,4,7,7,2013,empty,empty,monolithBrick,empty,empty,empty,30.352088,59.930751,empty,empty,,,,"Владимирский,Центральный",0,1
spb,"Санкт-Петербург, Сызранская улица, 23А",13478684,38.07,13.5,14.1,1,3,11,empty,0,2023,monolithBrick,underground,empty,empty,30.3389992982844,59.8770498928064,empty,empty,"Электросила,Парк Победы,Бухарестская","17,3,3","walk,transport,transport","Московская застава,Московский",0,0
spb,"Гагаринская ул., д.1/24, лит.А",84500000,89.0,20.0,60.0,2,4,4,2015,empty,empty,brick,empty,empty,empty,30.341174,59.948325,empty,empty,,,,"Литейный,Центральный",0,1
spb,"Санкт-Петербург, Манчестерская улица",11004750,33.5,13.0,11.5,1,2,10,empty,0,2023,monolithBrick,underground,rough,empty,30.3349877559567,60.0111260041716,empty,empty,"Удельная,Академическая,Озерки","5,5,5","transport,transport,transport","Светлановское,Выборгский",0,0
spb,"Санкт-Петербург, Петроградский район, Спортивная улица, 2",175000000,230.0,64.0,90.0,5,5,6,2018,empty,empty,monolithBrick,empty,empty,empty,30.270243,59.966813,empty,empty,,,,"Чкаловское,Петроградский",0,1
spb,"Санкт-Петербург, жилой комплекс Кантемировская 11",15634340,55.9,11.6,30.0,2,6,13,empty,0,2026,panel,open,fine,1,30.3367814400934,59.9839807987186,1,1,"Лесная,Выборгская,Площадь Мужества","6,4,6","walk,transport,transport","Сампсониевское,Выборгский",0,0
spb,"наб. Кутузова, 24/1",392000000,280.0,20.0,140.0,4,3,4,1835,empty,empty,brick,empty,empty,empty,30.340581,59.948658,empty,empty,,,,"Литейный,Центральный",0,1
spb,"Санкт-Петербург, 11-я линия Васильевского острова, 56",28660412,90.96,20.0,26.0,3,4,7,empty,0,2023,monolithBrick,empty,empty,empty,30.2694300687856,59.9443172673353,empty,1,"Василеостровская,Спортивная,Горный институт","8,14,4","walk,walk,transport","Васильевский,Василеостровский",0,0
spb,"Санкт-Петербург, улица Масляный канал",18432225,39.01,17.9,12.0,1,3,5,empty,0,2026,monolithBrick,empty,rough,empty,30.2666254576706,59.9280565371692,empty,empty,"Горный институт,Василеостровская,Спортивная","9,4,4","walk,transport,transport","№ 7,Василеостровский",0,0
spb,"Санкт-Петербург, Петроградский район, Динамовская улица, 2",350000000,363.0,140.0,103.0,5,7,7,2005,empty,empty,monolithBrick,empty,empty,empty,30.260541,59.973906,empty,empty,,,,"Чкаловское,Петроградский",0,1
spb,"Санкт-Петербург, Манчестерская улица, 3с1",16821000,62.3,12.1,32.4,2,2,10,empty,1,2022,monolithBrick,underground,rough,empty,30.3291351758866,60.0104746867154,empty,empty,"Удельная,Академическая,Озерки","17,5,5","walk,transport,transport","Светлановское,Выборгский",0,0
spb,"Санкт-Петербург, Сызранская улица, 23А",17694982,56.13,13.3,26.7,2,2,11,empty,0,2023,monolithBrick,underground,empty,empty,30.3376233250601,59.877074163509,empty,empty,"Электросила,Парк Победы,Бухарестская","17,3,3","walk,transport,transport","Московская застава,Московский",0,0
spb,"Санкт-Петербург, Петроградский район, Петроградский район, ул. Спортивная, дом 2",89000000,86.8,15.0,41.0,3,5,6,2017,empty,empty,monolithBrick,empty,empty,empty,30.270243,59.966813,empty,empty,"Крестовский остров,Чкаловская,Спортивная","15,5,7","walk,transport,transport","Чкаловское,Петроградский",0,1
spb,"Санкт-Петербург, Петровский проспект, 9к2",16789640,42.7,19.6,18.1,1,7,9,empty,1,2024,monolith,underground,without,empty,30.265935099195,59.9619383819374,1,empty,"Спортивная,Чкаловская,Крестовский остров","2,3,5","transport,transport,transport","Петровский,Петроградский",0,0
spb,"Санкт-Петербург, Петроградский район, Петровский проспект, 11к3",92500000,153.0,36.5,71.0,4,9,9,2022,empty,empty,monolithBrick,empty,empty,empty,30.26062,59.962511,empty,empty,,,,"Петровский,Петроградский",0,1
spb,"Санкт-Петербург, Московский проспект, 72к2",20150400,41.98,13.5,16.4,1,3,10,empty,0,2023,monolithBrick,underground,empty,empty,30.320827,59.906625,empty,empty,"Фрунзенская,Технологический институт,Балтийская","2,14,17","walk,walk,walk","Московская застава,Московский",0,0
spb,"Санкт-Петербург, проспект Энгельса",12150039,34.65,10.7,17.6,1,2,12,empty,0,2024,monolithBrick,empty,fine,empty,30.3434962567,60.0099368193,empty,empty,"Удельная,Академическая,Озерки","5,5,5","transport,transport,transport","Светлановское,Выборгский",0,0
spb,"Санкт-Петербург, Ремесленная улица",14704320,34.68,16.0,10.9,1,4,8,empty,0,2024,monolith,underground,without,empty,30.2689893446,59.9584671703,1,empty,"Спортивная,Крестовский остров,Чкаловская","20,3,4","walk,transport,transport","Петровский,Петроградский",0,0
spb,"г. Санкт-Петербург, Заневский проспект",21919999,91.14,22.9,52.1,3,7,14,empty,0,2024,empty,underground,empty,empty,30.432886338108027,59.93152472989683,2,1,,,,"Малая Охта,Красногвардейский",0,0
spb,"Санкт-Петербург, Вязовая ул., д. 8",200000000,228.13,24.6,109.8,4,4,8,2018,empty,empty,monolith,empty,empty,empty,30.276109,59.967691,1,empty,Крестовский остров,15,walk,"Чкаловское,Петроградский",0,1
spb,"Санкт-Петербург, улица Масляный канал",20188980,41.16,5.4,25.9,2,4,8,empty,0,2026,monolithBrick,empty,rough,1,30.2666254576706,59.9280565371692,empty,empty,"Горный институт,Василеостровская,Спортивная","9,4,4","walk,transport,transport","№ 7,Василеостровский",0,0
spb,"Санкт-Петербург, Петроградский район, 1-я Берёзовая аллея, 7",127666888,111.3,40.0,40.0,2,1,4,2017,empty,empty,monolithBrick,empty,empty,empty,30.294398,59.97862,empty,empty,,,,"Чкаловское,Петроградский",1,1
spb,"Санкт-Петербург, Большой Смоленский проспект",9600249,31.27,13.6,10.2,1,2,12,empty,0,2026,monolithBrick,empty,fine,empty,30.416924497374623,59.90400941334616,3,3,"Елизаровская,Площадь Александра Невского,Ломоносовская","20,5,7","walk,transport,transport","Невская застава,Невский",0,0
spb,"Санкт-Петербург, проспект Авиаконструкторов, 54",10995534,38.06,empty,15.2,1,8,12,empty,1,2023,monolithBrick,empty,rough,empty,30.2020821473,60.0333075986,empty,empty,"Комендантский проспект,Старая Деревня,Пионерская","8,8,9","transport,transport,transport","Юнтолово,Приморский",0,0
spb,"Санкт-Петербург, проспект Большевиков",7999999,61.35,20.6,empty,3,16,24,empty,0,2026,monolith,empty,fine,0,30.4927675943,59.894251723,1,1,Улица Дыбенко,15,walk,"№ 54,Невский",1,1
spb,"Санкт-Петербург, Большой Сампсониевский проспект, 32кА-Б",25143930,78.33,empty,32.8,3,3,12,empty,0,2026,empty,empty,empty,empty,30.3398229933605,59.9667986652653,empty,empty,"Выборгская,Площадь Ленина,Лесная","11,3,6","walk,transport,transport","Сампсониевское,Выборгский",0,0
spb,"Санкт-Петербург, Союзный проспект, 8к1",7490000,42.1,9.9,16.0,1,13,15,2014,empty,empty,monolith,empty,empty,1,30.439512,59.918661,empty,empty,Проспект Большевиков,20,walk,"Правобережный,Невский",0,1
spb,"Санкт-Петербург, Фарфоровская улица, 9",14550232,41.5,18.6,12.1,1,10,24,empty,1,2023,monolithBrick,empty,fine,empty,30.428445,59.880274,2,2,"Ломоносовская,Елизаровская,Пролетарская","15,3,4","walk,transport,transport","Ивановский,Невский",0,0
spb,"Санкт-Петербург, Петровский проспект, 9к2",23292240,73.2,25.8,42.4,2,5,9,empty,1,2024,monolith,underground,without,empty,30.266407167980457,59.96108300440474,1,empty,"Спортивная,Чкаловская,Крестовский остров","2,3,5","transport,transport,transport","Петровский,Петроградский",0,0
spb,"Россия, Санкт-Петербург, Малодетскосельский проспект, 10",12190000,45.0,5.0,35.0,1,2,4,1889,empty,empty,brick,ground,empty,empty,30.327923,59.913573,empty,empty,"Технологический институт,Пушкинская,Фрунзенская","11,13,15","walk,walk,walk","Семёновский,Адмиралтейский",0,1
spb,"Санкт-Петербург, Московский проспект, 72к2",24660000,61.65,14.3,31.5,2,2,10,empty,0,2023,monolithBrick,underground,empty,empty,30.320827,59.906625,empty,empty,"Фрунзенская,Технологический институт,Балтийская","2,14,17","walk,walk,walk","Московская застава,Московский",0,0
spb,"Санкт-Петербург, Центральный район, улица Пестеля, 13-15",78000000,211.0,65.1,92.0,6,3,5,1900,empty,empty,brick,empty,empty,empty,30.342827,59.942475,empty,empty,,,,"Литейный,Центральный",0,1
spb,"Санкт-Петербург, проспект Энгельса",18700111,64.39,21.0,29.2,2,2,7,empty,0,2024,monolithBrick,empty,fine,empty,30.34349625667901,60.00993681934059,empty,empty,"Удельная,Академическая,Озерки","5,5,5","transport,transport,transport","Светлановское,Выборгский",0,0
spb,"Санкт-Петербург, посёлок Парголово, Тихоокеанская улица, 1к2",7210000,59.2,12.6,28.5,2,23,25,2021,empty,empty,monolith,underground,empty,1,30.243096,60.073912,3,1,"Проспект Просвещения,Озерки,Парнас","11,12,13","transport,transport,transport","Парголово,Выборгский",0,1
spb,"Санкт-Петербург, улица Стахановцев, 1",29635250,91.75,empty,38.0,3,2,11,empty,0,2024,empty,empty,empty,empty,30.402679565717705,59.92946981051301,empty,empty,"Новочеркасская,Площадь Александра Невского,Ладожская","7,20,4","walk,walk,transport","Малая Охта,Красногвардейский",0,0
spb,"Санкт-Петербург, улица Чирикова, 5",8100000,34.56,12.1,13.3,1,6,13,empty,0,2023,monolith,empty,rough,empty,30.200363,59.934109,1,1,"Приморская,Спортивная,Горный институт","13,13,15","transport,transport,transport","Гавань,Василеостровский",0,1
spb,"Санкт-Петербург, Ремесленная улица",19866250,57.5,10.2,29.1,2,5,8,empty,0,2024,monolith,empty,without,empty,30.2670742473,59.9570898054,1,empty,"Чкаловская,Крестовский остров,Спортивная","20,3,4","walk,transport,transport","Петровский,Петроградский",0,0
spb,"Санкт-Петербург, Василеостровский район, Кораблестроителей ул., д.19, к.1, литер А",9000000,36.6,10.0,21.6,1,6,9,1973,empty,empty,panel,empty,empty,1,30.216748,59.942575,2,empty,Приморская,18,walk,"Морской,Василеостровский",empty,1
spb,"Санкт-Петербург, Октябрьская набережная, 102",6114900,32.7,15.0,11.5,1,4,25,empty,0,2025,monolith,empty,fine,empty,30.4855351813,59.8716824931,1,1,"Елизаровская,Улица Дыбенко,Ломоносовская","6,6,7","transport,transport,transport","Народный,Невский",0,0
spb,"Россия, Санкт-Петербург, Комендантский проспект, 63",10990000,33.5,12.0,10.0,1,2,20,2022,empty,empty,monolith,multilevel,empty,0,30.228947,60.035351,1,1,"Комендантский проспект,Старая Деревня,Пионерская","6,10,10","transport,transport,transport","Коломяги,Приморский",0,1
spb,"Санкт-Петербург, территория Шувалово, Береговая улица, 12",9207670,41.29,empty,empty,1,2,5,empty,0,2024,empty,empty,empty,1,30.290509,60.058165,3,1,"Проспект Просвещения,Озерки,Парнас","8,9,11","transport,transport,transport","Шувалово-Озерки,Выборгский",0,0
spb,"Россия, Санкт-Петербург, Можайская улица, 37-39",11400000,36.1,2.4,26.7,1,4,6,1906,empty,empty,brick,ground,empty,empty,30.328957,59.914439,empty,empty,"Пушкинская,Технологический институт,Звенигородская","11,12,16","walk,walk,walk","Семёновский,Адмиралтейский",0,1
spb,"Санкт-Петербург, Петровский проспект, 22к2",38353197,110.4,20.5,56.3,3,3,8,empty,1,2022,monolith,empty,without,empty,30.2604003274,59.9606612038,empty,empty,"Крестовский остров,Чкаловская,Спортивная","19,5,5","walk,transport,transport","Петровский,Петроградский",0,0
spb,"Санкт-Петербург, проспект Энергетиков, 9к3",21000000,77.6,12.3,48.6,3,6,21,2016,empty,empty,panel,underground,empty,empty,30.438677,59.936873,1,1,"Новочеркасская,Площадь Александра Невского","5,6","transport,transport","Большая Охта,Красногвардейский",0,1
spb,"Санкт-Петербург, жилой комплекс Айди Светлановский",15041518,57.01,19.5,23.8,2,2,12,empty,0,2025,monolithBrick,underground,empty,empty,30.3271529642773,60.0070861597257,6,12,"Удельная,Пионерская,Площадь Мужества","18,4,6","walk,transport,transport","Светлановское,Выборгский",0,0
spb,"Санкт-Петербург, Центральный район, Миргородская улица, 20",38900000,103.95,12.7,61.0,3,5,9,2021,empty,empty,monolithBrick,empty,empty,empty,30.373522,59.924898,empty,empty,"Площадь Александра Невского,Площадь Восстания","10,16","walk,walk","Лиговка-Ямская,Центральный",0,1
spb,"Санкт-Петербург, проспект Авиаконструкторов, 54",14643000,65.08,empty,25.5,2,2,12,empty,1,2023,monolithBrick,empty,rough,empty,30.2020821473,60.0333075986,empty,empty,"Комендантский проспект,Старая Деревня,Пионерская","8,8,9","transport,transport,transport","Юнтолово,Приморский",0,0
spb,"Санкт-Петербург, Большая Разночинная улица, 21",64824000,108.04,31.5,45.0,3,9,9,empty,0,2024,monolith,empty,without,empty,30.288002,59.960778,1,empty,"Чкаловская,Спортивная,Горьковская","4,16,4","walk,walk,transport","Чкаловское,Петроградский",0,1
spb,"Санкт-Петербург, Московское шоссе, 3к5",10960100,63.5,16.3,32.6,1,2,12,empty,1,2021,monolith,underground,without,empty,30.331193,59.833764,1,1,"Звездная,Купчино,Ленинский проспект","16,5,6","walk,transport,transport","Звёздное,Московский",1,0
spb,"Санкт-Петербург, Петроградский район, Петровский проспект, 11к2",83950000,204.0,77.0,64.0,4,4,8,2022,empty,empty,monolith,empty,empty,empty,30.259598,59.961255,empty,empty,,,,"Петровский,Петроградский",0,1
spb,"Санкт-Петербург, жилой комплекс Витебский Парк, 5",9150796,32.4,15.9,9.3,1,2,12,empty,0,2025,monolith,open,fine,empty,30.34201919911088,59.90096121181521,1,1,"Обводный канал,Бухарестская,Волковская","7,7,8","transport,transport,transport","Волковское,Фрунзенский",0,0
spb,"Санкт-Петербург, Петроградский район, Морской проспект, 24",129000000,271.0,43.0,100.0,6,2,7,2008,empty,empty,monolithBrick,empty,empty,empty,30.264098,59.970357,empty,empty,"Крестовский остров,Чкаловская","4,4","walk,transport","Чкаловское,Петроградский",0,1
spb,"Санкт-Петербург, жилой комплекс Аэронавт, 1",9886232,33.7,15.9,10.1,1,2,13,empty,0,2025,monolith,open,fine,empty,30.343916204204216,59.90324817546317,1,1,"Обводный канал,Фрунзенская,Звенигородская","18,6,6","walk,transport,transport","Волковское,Фрунзенский",0,0
spb,"Санкт-Петербург, территория Шувалово, Береговая улица, 12",15557000,66.2,empty,empty,2,3,5,empty,0,2024,empty,empty,empty,1,30.290509,60.058165,3,1,"Проспект Просвещения,Озерки,Парнас","8,9,11","transport,transport,transport","Шувалово-Озерки,Выборгский",0,0
spb,"Санкт-Петербург, улица Шкапина, 43-45, лит. А",19729999,62.8,11.4,32.7,3,6,9,empty,0,2024,monolithBrick,empty,empty,empty,30.28985984693904,59.90372426252108,22,empty,"Балтийская,Нарвская,Фрунзенская","11,14,6","walk,walk,transport","Екатерингофский,Адмиралтейский",0,0
spb,"Россия, Санкт-Петербург, Можайская улица, 37-39",9999000,36.0,5.0,26.0,1,4,7,1906,empty,empty,brick,empty,empty,0,30.328957,59.914439,1,empty,"Пушкинская,Технологический институт,Звенигородская","11,12,16","walk,walk,walk","Семёновский,Адмиралтейский",0,1
spb,"Санкт-Петербург, улица Тамбасова",15585144,73.04,12.3,41.9,3,2,9,empty,0,2026,monolith,empty,rough,empty,30.154253944427,59.8414847874383,3,5,"Проспект Ветеранов,Ленинский проспект,Автово","10,11,13","transport,transport,transport","Сосновая поляна,Красносельский",0,0
spb,"Санкт-Петербург, Серебристый бульвар, 24к2 лит. А",7200000,44.4,6.2,26.6,2,7,9,1975,empty,empty,stalin,empty,empty,1,30.278902,60.007789,1,empty,Пионерская,15,walk,"Комендантский аэродром,Приморский",0,1
spb,"Санкт-Петербург, бульвар Головнина",8968318,35.67,9.5,13.8,1,2,13,empty,0,2025,monolithBrick,empty,empty,empty,30.203160172,59.9348449519,empty,empty,"Горный институт,Приморская,Зенит","5,6,6","transport,transport,transport","Гавань,Василеостровский",0,0
spb,"Россия, Санкт-Петербург, Басков переулок, 1/3",24400000,107.7,empty,empty,5,5,5,1860,empty,empty,brick,ground,empty,empty,30.350723,59.939528,empty,empty,"Маяковская,Владимирская,Достоевская","16,18,18","walk,walk,walk","Литейный,Центральный",0,1
spb,"Санкт-Петербург, проспект Ветеранов",11500499,55.32,10.7,28.9,2,1,4,empty,0,2024,monolithBrick,empty,fine,empty,30.09298518734132,59.83751180964183,empty,empty,"Ленинский проспект,Проспект Ветеранов,Автово","15,16,17","transport,transport,transport","Сосновая поляна,Красносельский",0,0
spb,"Санкт-Петербург, посёлок Парголово, Заречная улица, 11к6, стр.1",13000000,94.5,15.0,empty,3,24,28,2021,empty,empty,monolith,ground,empty,empty,30.314862,60.069346,1,3,"Парнас,Озерки,Проспект Просвещения","19,9,9","walk,transport,transport","Парголово,Парнас,Выборгский",0,1
spb,"Санкт-Петербург, бульвар Головнина",10025390,32.03,15.0,10.3,1,15,15,empty,0,2024,monolith,empty,empty,empty,30.1957602347,59.9334418342,1,empty,"Горный институт,Зенит,Приморская","5,7,10","transport,transport,transport","Гавань,Василеостровский",0,0
spb,"Санкт-Петербург, Красногвардейский район, Пискаревский проспект, дом 1",45000000,97.8,36.0,53.0,3,2,11,2016,empty,empty,monolithBrick,empty,empty,empty,30.405475,59.95762,empty,empty,,,,"Большая Охта,Красногвардейский",0,1
spb,"Санкт-Петербург, Московское шоссе, 3к5",11441620,54.2,13.1,36.1,2,10,12,empty,1,2021,monolith,underground,without,empty,30.331193,59.833764,1,1,"Звездная,Купчино,Ленинский проспект","16,5,6","walk,transport,transport","Звёздное,Московский",1,0
spb,"Россия, Санкт-Петербург, улица Александра Матросова, 8к4",25600000,54.9,17.0,33.0,2,5,12,2022,empty,empty,monolithBrick,multilevel,empty,0,30.332981,59.979381,1,1,"Лесная,Выборгская,Петроградская","10,5,6","walk,transport,transport","Сампсониевское,Выборгский",0,1
spb,"Санкт-Петербург, жилой комплекс Витебский Парк, 5",12949593,47.8,15.3,22.5,2,2,12,empty,0,2025,monolith,open,fine,empty,30.34201919911088,59.90096121181521,1,1,"Обводный канал,Бухарестская,Волковская","7,7,8","transport,transport,transport","Волковское,Фрунзенский",0,0
spb,"Россия, Санкт-Петербург, 3-й Рабфаковский переулок, 8",7300000,60.7,6.7,43.7,3,4,5,1961,empty,empty,panel,empty,empty,empty,30.46754,59.852488,empty,empty,"Обухово,Пролетарская","11,19","walk,walk","Обуховский,Невский",0,1
spb,"Санкт-Петербург, жилой комплекс Аэронавт, 1",14447552,51.5,16.7,20.3,2,3,14,empty,0,2025,monolith,open,fine,empty,30.343916204204216,59.90324817546317,1,1,"Обводный канал,Фрунзенская,Звенигородская","18,6,6","walk,transport,transport","Волковское,Фрунзенский",0,0
spb,"Россия, Санкт-Петербург, бульвар Александра Грина, 2к2",21900000,102.9,31.5,45.0,3,16,18,2023,empty,empty,empty,underground,empty,0,30.206103,59.935124,0,0,"Приморская,Горный институт,Василеостровская","7,9,11","transport,transport,transport","Гавань,Василеостровский",empty,1
spb,"Санкт-Петербург, посёлок Парголово, Михайловская дорога",5859999,32.46,13.5,10.2,1,2,15,empty,0,2025,empty,empty,fine,empty,30.2595334338955,60.0666031991921,empty,empty,,,,"Парголово,Выборгский",0,0
spb,"Санкт-Петербург, Реки Малой Невки наб, д. 33",389000000,1285.8,empty,empty,6,3,3,2006,empty,empty,monolith,empty,empty,empty,30.285828,59.974658,empty,empty,,,,"Чкаловское,Петроградский",0,1
spb,"Санкт-Петербург, бульвар Головнина",14426650,61.39,25.8,22.3,2,9,17,empty,0,2024,monolith,empty,empty,empty,30.1950999431,59.9336818467,1,empty,"Горный институт,Зенит,Приморская","5,7,10","transport,transport,transport","Гавань,Василеостровский",0,0
spb,"Россия, Санкт-Петербург, набережная реки Малой Невки, 33",299990000,1285.8,20.0,700.0,6,2,2,2006,empty,empty,brick,empty,empty,empty,30.285828,59.974658,empty,empty,"Чкаловская,Крестовский остров,Черная речка","4,4,5","transport,transport,transport","Чкаловское,Петроградский",0,1
spb,"Санкт-Петербург, Светлановский проспект, 121к1",22900000,108.5,20.9,61.3,3,24,25,empty,1,2020,monolith,multilevel,rough,1,30.405089,60.046185,1,empty,"Гражданский проспект,Девяткино,Политехническая","5,6,7","transport,transport,transport","Прометей,Калининский",0,0
spb,"Санкт-Петербург, Южная дорога, 5",145000000,134.0,30.0,74.0,3,4,4,2003,empty,empty,monolith,empty,empty,empty,30.243302,59.969677,1,empty,Крестовский остров,13,walk,"Чкаловское,Петроградский",1,1
spb,"Санкт-Петербург, жилой комплекс Айди Светлановский",9126691,32.67,10.1,12.9,1,2,12,empty,0,2025,monolithBrick,underground,empty,empty,30.3271529642773,60.0070861597257,6,12,"Удельная,Пионерская,Площадь Мужества","18,4,6","walk,transport,transport","Светлановское,Выборгский",0,0
spb,"Санкт-Петербург, Петроградский район, Пионерская улица, 50",100000000,260.0,40.0,80.0,4,16,16,2018,empty,empty,monolith,empty,empty,empty,30.273171,59.963539,empty,empty,,,,"Петровский,Петроградский",0,1
spb,"Санкт-Петербург, Коломяжский проспект, 13к2",10090307,39.04,13.7,13.1,1,3,25,empty,0,2025,monolith,empty,without,empty,30.302272755322807,59.99968516510183,2,2,"Пионерская,Площадь Мужества,Черная речка","9,5,5","walk,transport,transport","Комендантский аэродром,Приморский",0,0
spb,"Санкт-Петербург, Революции шоссе, 12к2с1",12100000,37.6,10.8,15.9,1,4,8,empty,empty,empty,monolith,empty,empty,0,30.417216,59.961052,empty,2,Новочеркасская,7,transport,"Полюстрово,Красногвардейский",0,1
spb,"Санкт-Петербург, Кубинская улица",8600110,31.22,10.6,14.1,1,2,12,empty,0,2025,monolithBrick,underground,fine,empty,30.293863079345,59.8459262978017,empty,empty,"Ленинский проспект,Автово,Московская","2,5,6","transport,transport,transport","Новоизмайловское,Московский",0,0
spb,"Санкт-Петербург, Петроградский район, проспект Динамо, 12",194945010,253.0,41.0,147.0,5,3,7,2007,empty,empty,brick,empty,empty,empty,30.275004,59.968934,empty,empty,"Крестовский остров,Чкаловская,Петроградская","15,17,5","walk,walk,transport","Чкаловское,Петроградский",0,1
spb,"Санкт-Петербург, Суздальское шоссе",7531446,37.07,14.0,10.9,1,23,25,empty,0,2024,monolith,empty,without,1,30.27288382028093,60.055563372075106,2,1,"Озерки,Удельная,Комендантский проспект","12,13,13","transport,transport,transport","Коломяги,Приморский",0,0
spb,"Санкт-Петербург, Петроградский район, Кемская улица, 1",65000000,137.0,38.6,57.0,3,3,9,2007,empty,empty,monolithBrick,empty,empty,empty,30.259571,59.973221,empty,empty,"Крестовский остров,Чкаловская,Старая Деревня","1,4,15","walk,transport,transport","Чкаловское,Петроградский",0,1
spb,"Санкт-Петербург, улица Коли Томчака",23789623,53.7,empty,24.0,2,5,11,empty,0,2025,monolith,empty,fine,empty,30.3243249914006,59.8919251720379,empty,empty,"Московские ворота,Электросила,Фрунзенская","6,20,5","walk,walk,transport","Московская застава,Московский",0,0
spb,"Санкт-Петербург, Петроградский район, Константиновский проспект, 26",116900000,310.0,11.4,117.0,4,4,4,1999,empty,empty,monolithBrick,empty,empty,empty,30.266964,59.971582,empty,empty,"Крестовский остров,Чкаловская","5,4","walk,transport","Чкаловское,Петроградский",0,1
spb,"Санкт-Петербург, Ремесленная улица",34671651,59.8,empty,26.9,2,4,8,empty,0,2026,monolith,empty,without,empty,30.2721254722134,59.95551122432,20,20,"Чкаловская,Василеостровская,Крестовский остров","19,4,7","walk,transport,transport","Петровский,Петроградский",1,0
spb,"Санкт-Петербург, Захарьевская ул., д. 41",395412000,359.2,17.6,238.4,6,3,6,1907,empty,empty,monolith,empty,empty,empty,30.366785,59.947428,1,1,Чернышевская,10,walk,"Смольнинское,Центральный",0,1
spb,"Санкт-Петербург, Арцеуловская аллея, 9",7578888,34.55,11.4,12.9,1,10,13,empty,1,2024,monolith,empty,empty,empty,30.19579,60.036443,empty,empty,"Старая Деревня,Пионерская,Озерки","16,16,18","transport,transport,transport","Юнтолово,Приморский",0,0
spb,"Санкт-Петербург, Петроградский район, набережная Гребного канала, 1",84858453,101.6,49.0,27.0,2,1,5,2016,empty,empty,monolithBrick,empty,empty,empty,30.243069,59.976765,empty,empty,"Крестовский остров,Зенит","17,5","walk,transport","Чкаловское,Петроградский",1,1
spb,"Санкт-Петербург, бульвар Александра Грина",12187130,42.17,19.6,12.0,1,8,16,empty,0,2024,monolith,empty,without,empty,30.1935700339,59.9325646212,1,empty,Приморская,11,transport,"Гавань,Василеостровский",0,0
spb,"Санкт-Петербург, Захарьевская ул., д. 41",281498000,313.9,12.4,179.4,6,5,6,1907,empty,empty,monolith,empty,empty,empty,30.366785,59.947428,1,1,Чернышевская,10,walk,"Смольнинское,Центральный",0,1
spb,"Санкт-Петербург, жилой комплекс Айди Светлановский",12893861,48.87,14.2,21.0,2,10,12,empty,0,2024,monolithBrick,underground,empty,empty,30.3274265495974,60.0065677292286,8,16,"Удельная,Пионерская,Площадь Мужества","18,3,6","walk,transport,transport","Светлановское,Выборгский",0,0
spb,"Россия, Санкт-Петербург, пос. Шушары, Московское шоссе, 286",6200000,53.7,10.2,30.4,2,2,13,2013,empty,empty,panel,empty,empty,1,30.477286,59.755195,1,1,"Шушары,Купчино,Звездная","14,15,16","transport,transport,transport","Шушары,Пушкинский",0,1
spb,"Санкт-Петербург, Коломяжский проспект, 13к3",14756890,56.74,13.5,29.8,2,2,16,empty,0,2025,monolith,empty,without,empty,30.3034636561267,59.9994487311941,2,2,"Пионерская,Площадь Мужества,Черная речка","9,5,5","walk,transport,transport","Комендантский аэродром,Приморский",0,0
spb,"Санкт-Петербург, Калининский район, Черкасова ул., д.4, к.1",9700000,45.9,7.0,28.6,2,4,9,1975,empty,empty,panel,empty,empty,0,30.419354,60.025853,1,empty,"Гражданский проспект,Академическая","16,6","walk,transport","№ 21,Калининский",empty,1
spb,"Санкт-Петербург, аллея Академика Лихачёва, 7",54431900,157.0,empty,149.0,3,15,23,empty,1,2021,empty,empty,empty,empty,30.346546,60.002494,4,4,"Площадь Мужества,Политехническая,Пионерская","17,5,5","walk,transport,transport","Светлановское,Выборгский",0,0
spb,"Санкт-Петербург, улица Адмирала Трибуца, 7",18000000,89.0,15.0,53.0,3,7,7,2013,empty,empty,monolithBrick,underground,empty,empty,30.146356,59.851779,1,1,"Ленинский проспект,Проспект Ветеранов,Автово","10,11,12","transport,transport,transport","Южно-Приморский,Красносельский",0,1
spb,"Санкт-Петербург, Кубинская улица",14300355,52.7,16.8,23.9,2,2,12,empty,0,2025,monolithBrick,underground,fine,empty,30.293863079345,59.8459262978017,empty,empty,"Ленинский проспект,Автово,Московская","2,5,6","transport,transport,transport","Новоизмайловское,Московский",0,0
spb,"Россия, Санкт-Петербург, улица Доблести, 28к1",15000000,87.6,12.6,52.7,3,8,16,2006,empty,empty,panel,ground,empty,1,30.177528,59.851078,1,1,"Ленинский проспект,Автово,Проспект Ветеранов","8,10,10","transport,transport,transport","Южно-Приморский,Красносельский",0,1
spb,"Санкт-Петербург, Суздальское шоссе",10419907,52.06,12.1,28.9,2,7,25,empty,0,2024,monolith,empty,without,1,30.274117094605312,60.05579840620606,2,1,"Озерки,Удельная,Пионерская","12,13,15","transport,transport,transport","Коломяги,Приморский",0,0
spb,"Санкт-Петербург, Невский район, Русановская ул., д.18, к.6",5980000,36.2,9.5,16.7,1,11,24,2022,empty,empty,monolithBrick,empty,empty,1,30.512267,59.868885,3,empty,"Ломоносовская,Пролетарская,Улица Дыбенко","9,10,12","transport,transport,transport","Народный,Невский",empty,1
spb,"Санкт-Петербург, Плесецкая улица, 2",13147839,45.51,empty,15.1,1,11,12,empty,1,2021,monolithBrick,empty,fine,empty,30.205959,60.029508,empty,empty,"Комендантский проспект,Старая Деревня,Пионерская","7,8,9","transport,transport,transport","Юнтолово,Приморский",0,0
spb,"Санкт-Петербург, набережная реки Крестовки, 5К",478000000,1277.8,28.0,290.0,6,1,3,empty,empty,empty,empty,empty,empty,empty,30.28113,59.975,empty,empty,"Крестовский остров,Черная речка,Чкаловская","4,4,4","transport,transport,transport","Чкаловское,Петроградский",0,1
spb,"Санкт-Петербург, Планерная улица",9317922,37.6,14.9,14.3,1,3,13,empty,empty,2023,monolithBrick,empty,empty,empty,30.202175225025,60.0315180048801,empty,empty,"Комендантский проспект,Старая Деревня,Пионерская","8,8,9","transport,transport,transport","Юнтолово,Приморский",0,0
spb,"Санкт-Петербург, Петродворцовый район, Петергоф г., Петродворцовый, Парковая (Знаменка) ул., д.14, к.2, строение 1",8650000,57.14,14.3,30.4,2,5,5,2018,empty,empty,panel,empty,empty,1,29.939779,59.860694,empty,empty,Проспект Ветеранов,20,transport,"Петергоф,Петродворцовый",empty,1
spb,"Санкт-Петербург, Октябрьская набережная, 40А",10837530,36.9,13.3,15.2,1,2,15,empty,0,2024,monolith,empty,empty,empty,30.4482384101,59.8982936281,1,empty,"Елизаровская,Улица Дыбенко,Ломоносовская","19,6,6","walk,transport,transport","№ 54,Невский",0,0
spb,"Санкт-Петербург, Красносельский район, Ветеранов пр-кт., д.169, к.6, строение 1",6400000,33.18,11.4,empty,1,2,10,empty,empty,empty,brick,empty,empty,0,30.116559,59.842024,1,1,Проспект Ветеранов,13,transport,"Сосновая поляна,Красносельский",empty,1
spb,"Санкт-Петербург, Малая Зеленина улица, 4",41427633,109.51,empty,empty,3,2,9,empty,0,2025,monolithBrick,underground,without,empty,30.2820885522513,59.9622383546934,empty,2,"Чкаловская,Спортивная,Крестовский остров","8,20,2","walk,walk,transport","Чкаловское,Петроградский",0,0
spb,"Санкт-Петербург, Центральный район, Поварской пер., д.6",22600000,119.8,18.6,64.4,5,4,4,empty,empty,empty,brick,empty,empty,0,30.35243,59.929831,empty,empty,"Маяковская,Владимирская,Достоевская","3,7,7","walk,walk,walk","Владимирский,Центральный",empty,1
spb,"Санкт-Петербург, Арцеуловская аллея, 9",12348888,51.53,14.1,25.9,2,2,13,empty,1,2024,monolith,empty,empty,empty,30.195723276175,60.0360276478697,empty,empty,"Пионерская,Удельная,Беговая","16,16,18","transport,transport,transport","Юнтолово,Приморский",0,0
spb,"Россия, Санкт-Петербург, Выборгское шоссе, 15",11300000,47.7,13.0,20.0,1,11,29,2012,empty,empty,monolith,underground,empty,0,30.311951,60.052923,1,1,"Проспект Просвещения,Озерки,Удельная","17,5,7","walk,transport,transport","Шувалово-Озерки,Выборгский",0,1
spb,"Санкт-Петербург, бульвар Александра Грина",13314492,58.68,5.2,38.7,2,2,14,empty,0,2024,monolith,empty,without,empty,30.1956782502,59.9317892521,1,empty,Приморская,11,transport,"Гавань,Василеостровский",0,0
spb,"Санкт-Петербург, Фрунзенский район, Будапештская ул., д.40, к.1, литер А",7295000,37.0,7.0,22.6,2,4,5,1965,empty,empty,panel,empty,empty,1,30.377663,59.859614,empty,empty,Проспект Славы,13,walk,"Купчино,Фрунзенский",empty,1
spb,"Санкт-Петербург, дорога Муринская",4498000,26.0,9.2,10.3,1,3,25,empty,0,2025,monolith,empty,fine,empty,30.4841887356,59.9963320722,1,1,Академическая,19,transport,"Полюстрово,Красногвардейский",0,0
spb,"Россия, Санкт-Петербург, Большой Сампсониевский проспект, 4-6",27900000,70.0,6.0,44.0,2,8,25,2008,empty,empty,brick,underground,empty,empty,30.343914,59.957359,3,empty,"Площадь Ленина,Горьковская,Выборгская","13,20,4","walk,walk,transport","Сампсониевское,Выборгский",0,1
spb,"Санкт-Петербург, Ивинская улица, 19к1",9195750,54.9,empty,29.6,3,4,24,empty,1,2023,monolith,empty,without,empty,30.128021,60.032587,empty,empty,"Комендантский проспект,Старая Деревня,Беговая","11,12,13","transport,transport,transport","Лахта-Ольгино,Приморский",0,0
spb,"Санкт-Петербург, Тверская ул., д. 4",110000000,209.0,28.0,122.0,5,5,5,1907,empty,empty,monolith,empty,empty,1,30.37928,59.94714,1,empty,Чернышевская,18,walk,"Смольнинское,Центральный",0,1
spb,"Санкт-Петербург, Василеостровский район, Невская губа",20209999,72.39,13.6,34.9,3,2,19,empty,0,2025,empty,underground,empty,empty,30.1826923147481,59.9429282832316,empty,empty,,,,"Морской,Василеостровский",0,0
spb,"Санкт-Петербург, Красносельский район, Горелово тер., Красносельский, Красносельское ш., д.56, к.2",13850000,81.4,10.0,45.0,3,8,16,2012,empty,empty,panel,empty,empty,1,30.155061,59.794306,1,1,"Проспект Ветеранов,Автово","16,18","transport,transport","Горелово,Красносельский",empty,1
spb,"г. Санкт-Петербург город, проспект Малоохтинский",37496610,95.28,33.3,40.4,3,3,9,empty,0,2024,empty,underground,without,empty,30.4057134308945,59.9380727109185,empty,empty,"Новочеркасская,Площадь Александра Невского,Ладожская","14,4,4","walk,transport,transport","Малая Охта,Красногвардейский",0,0
spb,"Санкт-Петербург, проспект Юнтоловский, 49к6",6150000,36.4,12.0,15.3,1,1,5,2014,empty,empty,monolith,empty,empty,0,30.144146,60.029175,1,0,,,,"Лахта-Ольгино,Приморский",0,1
spb,"Санкт-Петербург, Плесецкая улица, 2",16882215,68.56,empty,28.7,2,2,12,empty,1,2021,monolithBrick,empty,rough,empty,30.205959,60.029508,empty,empty,"Комендантский проспект,Старая Деревня,Пионерская","7,8,9","transport,transport,transport","Юнтолово,Приморский",0,0
spb,"Санкт-Петербург, Приморский район, Авиаконструкторов пр-кт., д.63, к.2",7550000,36.2,9.6,16.1,1,3,13,2023,empty,empty,monolith,empty,empty,1,30.20737,60.03451,1,1,"Комендантский проспект,Удельная,Старая Деревня","9,13,14","transport,transport,transport","Юнтолово,Приморский",empty,1
spb,"Санкт-Петербург, Октябрьская набережная, 40А",16928910,71.1,20.3,37.1,2,2,15,empty,0,2024,monolith,empty,empty,empty,30.4482384101,59.8982936281,1,empty,"Елизаровская,Улица Дыбенко,Ломоносовская","19,6,6","walk,transport,transport","№ 54,Невский",0,0
spb,"Санкт-Петербург, Горелово тер., Коммунаров ул., д.118, к.1",9850000,72.9,8.4,43.9,3,7,10,1996,empty,empty,panel,empty,empty,0,30.150623,59.786396,1,empty,Проспект Ветеранов,16,transport,"Горелово,Красносельский",empty,1
spb,"Санкт-Петербург, дорога Муринская",6567000,39.8,13.1,21.7,2,3,25,empty,0,2025,monolith,empty,fine,empty,30.4841887356,59.9963320722,1,1,Академическая,19,transport,"Полюстрово,Красногвардейский",0,0
spb,"Санкт-Петербург, Пушкинский район, Шушары п., Пушкинский, Новгородский пр-кт., д.8, литер А",6980000,38.4,13.8,16.5,1,3,25,2016,empty,empty,monolith,empty,empty,1,30.368357,59.808776,2,1,"Купчино,Звездная","8,9","transport,transport","Шушары,Пушкинский",empty,1
spb,"Санкт-Петербург, 12-я линия Васильевского острова, 41к1Ж",40756503,77.14,11.4,39.8,3,2,7,empty,0,2024,empty,underground,without,empty,30.269219,59.943566,empty,empty,"Василеостровская,Спортивная,Горный институт","8,18,3","walk,walk,transport","Васильевский,Василеостровский",0,0
spb,"Россия, Санкт-Петербург, Малая Конюшенная улица, 12",29900000,61.0,empty,24.0,1,3,6,empty,empty,empty,brick,empty,empty,empty,30.325462,59.936557,empty,empty,"Гостиный двор,Невский проспект,Адмиралтейская","2,4,8","walk,walk,walk","Дворцовый,Центральный",0,1
spb,"Санкт-Петербург, проспект Будённого",7100058,30.66,13.3,10.4,1,2,4,empty,0,2026,monolithBrick,empty,fine,empty,30.0873704669017,59.8420480268995,empty,empty,"Автово,Ленинский проспект,Проспект Ветеранов","15,15,18","transport,transport,transport","Стрельна,Петродворцовый",0,0
spb,"Санкт-Петербург, Крестовский пр-кт, д. 4",165000000,325.2,15.0,110.2,6,1,4,2021,empty,empty,empty,empty,empty,empty,30.274617,59.969767,1,empty,"Крестовский остров,Петроградская","12,5","walk,transport","Чкаловское,Петроградский",0,1
spb,"Санкт-Петербург, Пушкинский район, посёлок Шушары, территория Пулковское, Кокколевская улица",5081670,28.71,empty,13.9,1,2,4,empty,0,2026,monolithBrick,empty,rough,empty,30.3622727646774,59.750452924856184,1,empty,"Купчино,Звездная,Московская","20,21,22","transport,transport,transport","Шушары,Пушкинский",0,0
spb,"Санкт-Петербург, Песочная наб, д. 40",123500000,141.0,48.3,53.4,3,7,14,2006,empty,empty,empty,empty,empty,empty,30.285406,59.96766,1,empty,Чкаловская,14,walk,"Чкаловское,Петроградский",0,1
spb,"Санкт-Петербург, Пионерская улица",37081235,92.32,24.1,43.1,3,2,8,empty,0,2025,empty,empty,rough,empty,30.2845134722,59.960487061,empty,empty,"Чкаловская,Спортивная,Петроградская","8,17,4","walk,walk,transport","Чкаловское,Петроградский",0,0
spb,"Санкт-Петербург, Петровский проспект, 22к2",17300000,46.9,16.8,17.5,1,5,8,2021,empty,empty,monolith,empty,empty,0,30.2622,59.959993,empty,empty,Крестовский остров,5,transport,"Петровский,Петроградский",0,1
spb,"Санкт-Петербург, Невский район, Октябрьская набережная",5292549,33.81,empty,empty,1,4,17,empty,0,2026,monolith,empty,without,empty,30.4446687142905,59.9020234252957,1,1,,,,"Невский,Невский",1,0
spb,"Санкт-Петербург, Адмирала Лазарева наб, д. 22",142000000,142.1,10.0,90.0,4,2,9,2021,empty,empty,monolith,empty,empty,empty,30.277339,59.964377,1,empty,Чкаловская,13,walk,"Чкаловское,Петроградский",0,1
spb,"Санкт-Петербург, набережная реки Карповки, 27",29376000,54.4,15.3,20.0,1,6,8,empty,0,2024,monolithBrick,empty,empty,empty,30.3077471779086,59.9702423965668,12,25,"Петроградская,Чкаловская,Черная речка","5,18,3","walk,walk,transport","Аптекарский остров,Петроградский",0,0
spb,"Санкт-Петербург, Выборгский район, Манчестерская ул., д.4",24499000,128.5,13.0,75.5,3,3,11,1999,empty,empty,brick,empty,empty,2,30.328067,60.011558,2,empty,Удельная,14,walk,"Светлановское,Выборгский",empty,1
spb,"Санкт-Петербург, Орлово-Денисовский проспект",6750092,30.5,13.0,10.4,1,10,12,empty,0,2026,monolithBrick,empty,fine,empty,30.26446055554072,60.053401800300385,1,1,"Проспект Просвещения,Озерки,Удельная","13,13,13","transport,transport,transport","Коломяги,Приморский",0,0
spb,"Санкт-Петербург, Итальянская ул., д. 12А",300000000,380.0,61.2,184.3,3,6,6,2001,empty,empty,monolith,underground,empty,2,30.33873,59.936444,1,empty,"Гостиный двор,Невский проспект","6,8","walk,walk","Дворцовый,Центральный",0,1
spb,"Санкт-Петербург, Партизанская улица, 5Б",8241250,34.7,15.7,10.7,1,2,12,empty,0,2026,monolith,empty,empty,empty,30.4269064091,59.943485454,1,1,"Ладожская,Новочеркасская,Чернышевская","4,4,8","transport,transport,transport","Большая Охта,Красногвардейский",0,0
spb,"Санкт-Петербург, Адмиралтейский район, Гороховая ул., д.58, литер А",18490000,78.1,15.7,57.4,4,1,6,1777,empty,empty,brick,empty,empty,0,30.329819,59.923568,empty,empty,"Звенигородская,Пушкинская,Садовая","6,6,12","walk,walk,walk","Семёновский,Адмиралтейский",empty,1
spb,"Санкт-Петербург, проспект Будённого",11500340,50.25,16.3,20.8,2,2,4,empty,0,2026,monolithBrick,empty,fine,empty,30.0832505938538,59.8446503286593,empty,empty,"Автово,Ленинский проспект,Проспект Ветеранов","15,15,18","transport,transport,transport","Стрельна,Петродворцовый",0,0
spb,"Санкт-Петербург, Приморский район, Глухарская ул., д.34, к.1",6880000,36.42,11.4,12.8,1,6,13,empty,empty,2024,monolithBrick,empty,empty,0,30.19579,60.036443,2,empty,Комендантский проспект,11,transport,"Юнтолово,Приморский",empty,1
spb,"Санкт-Петербург, Октябрьская набережная",8100158,31.3,10.0,14.1,1,13,17,empty,0,2026,monolithBrick,empty,fine,empty,30.444137651985,59.9034985752405,7,8,"Проспект Большевиков,Ломоносовская,Новочеркасская","6,8,8","transport,transport,transport","Невский,Невский",0,0
spb,"Санкт-Петербург, Петроградский район, Южная дорога., д.5",140000000,129.7,32.2,76.4,4,4,4,2003,empty,empty,monolith,empty,empty,2,30.243302,59.969677,1,empty,Крестовский остров,13,walk,"Чкаловское,Петроградский",1,1
spb,"Санкт-Петербург, Пушкинский район, посёлок Шушары, территория Пулковское, Кокколевская улица",8891520,50.52,empty,22.7,2,2,4,empty,0,2026,monolithBrick,empty,rough,empty,30.3622727646774,59.750452924856184,1,empty,"Купчино,Звездная,Московская","20,21,22","transport,transport,transport","Шушары,Пушкинский",0,0
spb,"Санкт-Петербург, Пискаревский проспект, 1",24000000,55.0,15.0,30.0,2,13,13,2016,empty,empty,monolithBrick,underground,empty,1,30.405475,59.95762,1,1,"Площадь Ленина,Новочеркасская,Площадь Александра Невского","5,6,7","transport,transport,transport","Большая Охта,Красногвардейский",0,1
spb,"Санкт-Петербург, Пискаревский проспект",27800000,98.2,17.6,55.6,3,2,10,empty,0,2024,monolithBrick,underground,empty,empty,30.4088977136,59.9582992543,empty,4,"Площадь Ленина,Новочеркасская,Чернышевская","6,6,8","transport,transport,transport","Большая Охта,Красногвардейский",0,0
spb,"Россия, Санкт-Петербург, набережная канала Грибоедова, 85/9",39990000,130.0,17.7,74.6,4,3,6,1997,empty,empty,brick,empty,empty,empty,30.305322,59.927116,empty,empty,"Спасская,Сенная площадь,Садовая","11,12,15","walk,walk,walk","Адмиралтейский,Адмиралтейский",0,1
spb,"Санкт-Петербург, Миргородская улица",36067792,97.7,23.8,45.8,3,2,6,empty,0,2025,monolith,underground,without,empty,30.370238814468,59.9249378506328,empty,empty,"Площадь Александра Невского,Площадь Восстания,Маяковская","14,15,18","walk,walk,walk","Лиговка-Ямская,Центральный",0,0
spb,"Россия, Санкт-Петербург, Щербаков переулок, 2/58",17300000,90.0,9.5,64.3,4,3,5,1875,empty,empty,brick,ground,empty,0,30.340257,59.929123,0,0,"Достоевская,Владимирская","5,6","walk,walk","Владимирский,Центральный",0,1
spb,"Санкт-Петербург, Петровский проспект, 28к2",61819200,129.6,37.4,59.8,3,2,7,empty,1,2023,monolithBrick,empty,rough,empty,30.252079,59.961201,empty,empty,"Крестовский остров,Спортивная,Зенит","16,6,7","walk,transport,transport","Петровский,Петроградский",0,0
spb,"Санкт-Петербург, Санкт-Петербург, Суздальское шоссе, 26к2",12250000,56.5,11.0,27.4,2,8,25,2016,empty,empty,monolith,ground,empty,empty,30.272228,60.058349,3,empty,"Проспект Просвещения,Парнас,Озерки","10,11,12","transport,transport,transport","Коломяги,Приморский",empty,1
spb,"Санкт-Петербург, Невский район, Октябрьская набережная",7445741,54.78,empty,empty,2,2,14,empty,0,2026,monolithBrick,empty,without,empty,30.4424693028983,59.900622148131,1,1,,,,"Невский,Невский",1,0
spb,"ул. Блохина, д. 2/77",145000000,330.0,39.4,200.0,6,5,5,1911,empty,empty,brick,empty,empty,empty,30.305582,59.950447,empty,empty,,,,"Введенский,Петроградский",0,1
spb,"Санкт-Петербург, набережная реки Карповки, 27",31108000,70.7,20.7,30.2,2,3,8,empty,0,2024,monolithBrick,empty,empty,empty,30.3077471779,59.9702423966,12,25,"Петроградская,Чкаловская,Черная речка","5,18,3","walk,walk,transport","Аптекарский остров,Петроградский",0,0
spb,"Санкт-Петербург, проспект Маршака, 4",14200000,93.1,12.6,63.1,4,7,18,2015,empty,empty,panel,ground,empty,empty,30.446277,60.035432,2,empty,"Девяткино,Гражданский проспект,Академическая","5,6,11","transport,transport,transport","Полюстрово,Красногвардейский",0,1
spb,"Санкт-Петербург, Орлово-Денисовский проспект",10750249,49.2,16.0,22.1,2,5,12,empty,0,2026,monolithBrick,empty,fine,empty,30.26446055554072,60.053401800300385,1,1,"Проспект Просвещения,Озерки,Удельная","13,13,13","transport,transport,transport","Коломяги,Приморский",0,0
spb,"Санкт-Петербург, Петроградский район, Ждановская улица, 45",59000000,159.1,55.0,59.0,3,4,10,2017,empty,empty,monolithBrick,empty,empty,empty,30.267485,59.962719,empty,empty,"Крестовский остров,Спортивная,Чкаловская","5,5,5","transport,transport,transport","Петровский,Петроградский",0,1
spb,"Санкт-Петербург, улица Гастелло, 7А",79380000,140.0,36.7,62.2,3,6,6,empty,1,2022,monolithBrick,empty,rough,empty,30.3246,59.857897,empty,empty,"Московская,Парк Победы,Ленинский проспект","7,15,5","walk,walk,transport","Звёздное,Московский",0,0
spb,"Россия, Санкт-Петербург, улица Александра Матросова, 3",16200000,39.1,11.0,16.0,1,3,9,2021,empty,empty,empty,underground,empty,1,30.335146,59.978192,1,empty,"Лесная,Выборгская,Площадь Ленина","13,18,5","walk,walk,transport","Сампсониевское,Выборгский",0,1
spb,"Санкт-Петербург, Партизанская улица, 5Б",13575000,54.3,17.3,23.8,2,2,12,empty,0,2026,monolith,empty,empty,empty,30.4269064091,59.943485454,1,1,"Ладожская,Новочеркасская,Чернышевская","4,4,8","transport,transport,transport","Большая Охта,Красногвардейский",0,0
spb,"Санкт-Петербург, Просвещения проспект, 99",22500000,92.4,13.6,65.0,3,7,25,2008,empty,empty,monolithBrick,empty,empty,1,30.428598,60.033185,empty,empty,Гражданский проспект,11,walk,"№ 21,Калининский",0,1
spb,"Санкт-Петербург, улица Челюскина, 8",20679999,80.3,11.2,49.6,3,2,20,empty,1,2022,empty,empty,without,empty,30.187679,59.94207,2,empty,,,,"Морской,Василеостровский",0,0
spb,"Санкт-Петербург, Петроградский район, Депутатская улица, 26",134000000,133.8,19.6,70.0,3,4,7,2012,empty,empty,monolithBrick,empty,empty,empty,30.270306,59.974586,empty,empty,"Крестовский остров,Чкаловская","9,4","walk,transport","Чкаловское,Петроградский",0,1
spb,"Санкт-Петербург, Октябрьская набережная",12650343,50.81,10.4,27.1,2,3,21,empty,0,2026,monolithBrick,empty,fine,empty,30.4449852300337,59.9040213213878,8,8,"Проспект Большевиков,Ломоносовская,Новочеркасская","6,8,8","transport,transport,transport","Невский,Невский",0,0
spb,"Санкт-Петербург, Петроградский район, 1-я Берёзовая аллея, 7",346050000,307.85,47.0,98.0,6,4,4,2017,empty,empty,monolithBrick,empty,empty,empty,30.294398,59.97862,empty,empty,"Черная речка,Петроградская","13,7","walk,transport","Чкаловское,Петроградский",1,1
spb,"Санкт-Петербург, Лиговский проспект",22163595,82.5,20.7,39.8,3,4,14,empty,0,2026,monolithBrick,underground,fine,empty,30.34592204103043,59.90264079714706,6,8,"Волковская,Обводный канал,Фрунзенская","18,18,6","walk,walk,transport","Волковское,Фрунзенский",0,0
spb,"Конногвардейский бульвар, д.5, лит. А",54900000,67.6,20.0,29.0,2,6,7,2013,empty,empty,empty,empty,empty,empty,30.300794,59.934416,empty,empty,,,,"Адмиралтейский,Адмиралтейский",1,1
spb,"Санкт-Петербург, Комендантский проспект",8000213,32.65,11.3,14.0,1,6,12,empty,0,2025,monolithBrick,empty,fine,empty,30.2462919052115,60.0400392033035,empty,empty,"Озерки,Проспект Просвещения,Комендантский проспект","6,7,10","transport,transport,transport","Коломяги,Приморский",0,0
spb,"Санкт-Петербург, Петроградский район, 2-я Берёзовая аллея, 19",290000000,442.0,26.3,115.0,6,1,3,2003,empty,empty,brick,empty,empty,empty,30.287149,59.980605,empty,empty,"Черная речка,Крестовский остров","17,6","walk,transport","Чкаловское,Петроградский",1,1
spb,"Санкт-Петербург, Ивинская улица, 1к4",11910212,62.57,17.3,32.2,3,2,23,empty,0,2026,monolith,empty,fine,empty,30.137247,60.028433,4,6,"Зенит,Беговая,Проспект Просвещения","11,14,17","transport,transport,transport","Лахта-Ольгино,Приморский",0,0
spb,"Санкт-Петербург, Петроградский район, Ждановская улица, 45",96000000,150.0,50.0,48.0,3,3,10,2017,empty,empty,monolith,empty,empty,empty,30.267485,59.962719,empty,empty,"Крестовский остров,Спортивная,Чкаловская","5,5,5","transport,transport,transport","Петровский,Петроградский",0,1
spb,"Санкт-Петербург, Пулковское шоссе",9369698,37.51,10.7,17.2,1,3,12,empty,0,2025,monolithBrick,empty,empty,empty,30.3351159320087,59.8247839491884,20,20,"Звездная,Купчино,Московская","6,8,9","transport,transport,transport","Звёздное,Московский",0,0
spb,"Санкт-Петербург, Петроградский район, Петровская коса, 6, корп.1, стр.,1",118000000,238.0,56.0,87.0,4,3,7,2022,empty,empty,monolithBrick,empty,empty,empty,30.245782,59.961599,empty,empty,,,,"Петровский,Петроградский",0,1
spb,"Санкт-Петербург, пос. Шушары, Школьная улица",5857961,32.33,10.9,12.1,1,2,13,empty,0,2025,monolithBrick,empty,fine,empty,30.3543439937487,59.8132724548754,empty,empty,"Купчино,Звездная,Дунайская","3,6,6","transport,transport,transport","Шушары,Пушкинский",0,0
spb,"г. СПб, Петровский пр-кт, д. 26, корп. 2, стр. 1",31900000,73.0,14.3,34.9,2,5,8,empty,empty,empty,monolithBrick,empty,rough,empty,30.2540958286042,59.960448183556,empty,empty,Крестовский остров,5,transport,"Петровский,Петроградский",0,1
spb,"Санкт-Петербург, улица Маршала Казакова",7832370,34.58,16.5,11.8,1,2,23,empty,0,2025,monolith,empty,fine,empty,30.2258601296,59.8629576204,1,1,"Автово,Кировский завод,Ленинский проспект","6,6,6","transport,transport,transport","Юго-Запад,Красносельский",0,0
spb,"Россия, Санкт-Петербург, проспект Энгельса, 126к2",13000000,54.0,9.0,empty,2,6,19,1998,empty,empty,brick,ground,empty,1,30.322004,60.04197,1,1,"Озерки,Проспект Просвещения,Удельная","10,17,6","walk,walk,transport","Шувалово-Озерки,Выборгский",0,1
spb,"Санкт-Петербург, Суздальское шоссе",9881750,42.5,10.9,12.7,1,5,8,empty,0,2024,monolith,empty,without,1,30.2750217671501,60.0556029062709,empty,empty,"Проспект Просвещения,Озерки,Удельная","11,12,13","transport,transport,transport","Коломяги,Приморский",0,0
spb,"Россия, Санкт-Петербург, Глазурная улица, 2",8490000,41.1,9.0,17.2,1,4,10,2000,empty,empty,panel,ground,empty,0,30.399852,59.915679,1,0,"Площадь Александра Невского,Маяковская,Площадь Восстания","19,5,5","walk,transport,transport","Невская застава,Невский",0,1
spb,"Санкт-Петербург, Комендантский проспект",12700031,53.62,17.0,22.2,2,2,12,empty,0,2025,monolithBrick,empty,fine,empty,30.2462919052115,60.0400392033035,empty,empty,"Озерки,Проспект Просвещения,Комендантский проспект","6,7,10","transport,transport,transport","Коломяги,Приморский",0,0
spb,"Россия, Санкт-Петербург, Репищева улица, 19к1",5550000,33.3,9.7,17.4,1,6,10,1994,empty,empty,panel,empty,empty,1,30.284301,60.025606,1,empty,"Комендантский проспект,Озерки,Пионерская","5,6,6","transport,transport,transport","Коломяги,Приморский",0,1
spb,"Санкт-Петербург, Пулковское шоссе",12776978,54.38,13.4,24.2,2,3,12,empty,0,2025,monolithBrick,empty,empty,empty,30.3351159320087,59.8247839491884,20,20,"Звездная,Купчино,Московская","6,8,9","transport,transport,transport","Звёздное,Московский",0,0
spb,"Санкт-Петербург, Санкт-Петербург, Константиновский проспект, 26",48900000,98.0,35.9,34.0,2,5,5,2000,empty,empty,brick,underground,empty,0,30.268159,59.97278,1,1,"Крестовский остров,Чкаловская,Петроградская","7,4,7","walk,transport,transport","Чкаловское,Петроградский",empty,1
spb,"Санкт-Петербург, набережная реки Карповки, 31к2",34476000,101.4,18.0,57.4,3,2,7,empty,1,2023,monolith,empty,without,empty,30.306148,59.970218,empty,3,"Горьковская,Спортивная,Чернышевская","4,5,8","transport,transport,transport","Чкаловское,Петроградский",1,0
spb,"Россия, Санкт-Петербург, Свеаборгская улица, 12",25000000,106.0,empty,empty,4,3,15,2003,empty,empty,panel,ground,empty,0,30.329999,59.873261,1,1,"Парк Победы,Электросила,Бухарестская","14,15,5","walk,walk,transport","Московская застава,Московский",0,1
spb,"Санкт-Петербург, Сестрорецк, Авиационная улица",6361000,24.89,5.0,12.4,1,3,5,empty,0,2025,monolithBrick,empty,empty,empty,30.0114727725,60.0253009328,empty,empty,"Беговая,Зенит,Крестовский остров","17,19,23","transport,transport,transport","Сестрорецк,Курортный",0,0
spb,"Россия, Санкт-Петербург, улица Печатника Григорьева, 14",17500000,76.0,empty,empty,2,4,4,empty,empty,empty,monolithBrick,empty,empty,empty,30.350292,59.919035,empty,empty,"Лиговский проспект,Обводный канал,Звенигородская","5,8,13","walk,walk,walk","Владимирский,Центральный",0,1
spb,"Санкт-Петербург, Кубинская улица",8200030,30.42,13.2,10.0,1,2,12,empty,0,2026,monolithBrick,empty,fine,empty,30.3001790423046,59.8429316642467,empty,6,,,,"Новоизмайловское,Московский",0,0
spb,"Россия, Санкт-Петербург, улица Васенко, 12",12490000,47.0,12.0,19.0,1,9,13,2012,empty,empty,brick,multilevel,empty,0,30.394507,59.97011,2,1,"Выборгская,Площадь Ленина,Лесная","6,6,7","transport,transport,transport","Финляндский,Калининский",0,1
spb,"Санкт-Петербург, улица Курчатова",9055100,29.21,11.7,9.3,1,7,10,empty,0,2026,monolithBrick,underground,fine,empty,30.3651420397028,60.0081486497681,5,empty,"Политехническая,Площадь Мужества,Академическая","6,15,5","walk,walk,transport","Светлановское,Выборгский",1,0
spb,"Россия, Санкт-Петербург, Герасимовская улица, 16",20000000,94.0,17.0,54.0,3,3,3,1939,empty,empty,brick,ground,empty,0,30.406823,59.982397,empty,empty,"Лесная,Площадь Ленина,Выборгская","7,8,9","transport,transport,transport","Финляндский,Калининский",0,1
spb,"Санкт-Петербург, пос. Шушары, Школьная улица",8306849,48.35,11.3,24.8,2,6,13,empty,0,2025,monolithBrick,empty,empty,empty,30.3543439937487,59.8132724548754,empty,empty,"Купчино,Звездная,Дунайская","3,6,6","transport,transport,transport","Шушары,Пушкинский",0,0
spb,"г Санкт-Петербург, ул Савушкина, д 36",17990000,64.2,11.6,35.3,2,5,15,2004,empty,empty,monolithBrick,empty,empty,empty,30.286215,59.984814,empty,empty,"Черная речка,Пионерская,Старая Деревня","10,4,8","walk,transport,transport","Чёрная речка,Приморский",0,1
spb,"Санкт-Петербург, улица Маршала Казакова",11383200,47.43,16.5,21.5,2,2,23,empty,0,2025,monolith,empty,fine,empty,30.2258601296,59.8629576204,1,1,"Автово,Кировский завод,Ленинский проспект","6,6,6","transport,transport,transport","Юго-Запад,Красносельский",0,0
spb,"Россия, Санкт-Петербург, улица Ворошилова, 9",7300000,40.4,10.0,22.0,1,9,12,1992,empty,empty,panel,ground,empty,0,30.447417,59.924456,2,0,"Проспект Большевиков,Улица Дыбенко,Новочеркасская","17,5,8","walk,transport,transport","Правобережный,Невский",0,1
spb,"Санкт-Петербург, набережная Чёрной речки, 41",29614200,89.74,28.2,35.1,3,2,9,empty,0,2025,monolith,empty,empty,empty,30.3090765740639,59.9850169992482,1,1,"Черная речка,Лесная,Выборгская","6,5,5","walk,transport,transport","Чёрная речка,Приморский",0,0
spb,"Россия, Санкт-Петербург, Дачный проспект, 2к1",8750000,37.7,9.6,19.6,1,9,11,2005,empty,empty,brick,ground,empty,1,30.241497,59.850509,1,1,"Проспект Ветеранов,Ленинский проспект,Автово","16,19,5","walk,walk,transport","Дачное,Кировский",0,1
spb,"Санкт-Петербург, Суздальское шоссе, 18к3",12790410,62.26,10.7,32.8,2,2,7,empty,1,2024,monolith,empty,without,1,30.279738,60.059176,empty,empty,"Проспект Просвещения,Парнас,Озерки","11,11,12","transport,transport,transport","Коломяги,Приморский",0,0
spb,"Санкт-Петербург, Белоостровская улица, 12",15950000,39.8,10.0,12.7,1,12,14,2022,empty,empty,monolith,underground,empty,empty,30.321932,59.985597,1,1,"Черная речка,Лесная,Петроградская","16,16,5","walk,walk,transport","Чёрная речка,Приморский",0,1
