region,address,price,total_area,kitchen_area,living_area,rooms_count,floor,floors_number,build_date,is_complete,completion_year,house_material,parking,decoration,balcony,longitude,latitude,passenger_elevator,cargo_elevator,metro,metro_distance,metro_transport,district,is_apartments,is_auction
nsk,"Новосибирск, улица Аэропорт",6810000,41.1,empty,empty,2,3,15,empty,0,2025,monolith,empty,empty,empty,82.90453591534391,55.08040439520254,1,1,"Заельцовская,Гагаринская,Сибирская","3,5,7","transport,transport,transport","Аэропорт,Заельцовский",0,0
nsk,"Новосибирская область,Новосибирск,Забалуева,102",6714715,71.1,9.5,41.6,3,5,17,empty,empty,empty,monolith,empty,empty,empty,82.774676,54.987884,empty,empty,,,,Ленинский,empty,1
nsk,"Новосибирск, улица Семьи Шамшиных, с91",11320000,63.39,empty,empty,2,3,17,empty,0,2026,monolith,empty,empty,empty,82.9252218207565,55.0474968346469,empty,2,"Гагаринская,Сибирская,Маршала Покрышкина","9,10,10","walk,walk,walk",Центральный,0,0
nsk,"Новосибирская область,Новосибирск,Виктора Уса,7/1",8000000,105.0,16.0,63.0,3,8,9,empty,empty,empty,monolith,empty,empty,empty,82.884659,54.938617,empty,empty,,,,"Затулинский,Кировский",empty,1
nsk,"Новосибирск, улица Аэропорт",6810000,40.58,18.0,11.0,1,4,15,empty,0,2025,monolith,empty,empty,empty,82.90453591534391,55.08040439520254,1,1,"Заельцовская,Гагаринская,Сибирская","3,5,7","transport,transport,transport","Аэропорт,Заельцовский",0,0
nsk,"Новосибирская область,Новосибирск,Виктора Уса,2",4500000,50.1,9.0,28.0,2,12,17,empty,empty,empty,monolith,empty,empty,empty,82.882772,54.941751,empty,empty,,,,Кировский,empty,1
nsk,"Новосибирск, Большевистская улица, 43/2с",7450000,36.41,empty,empty,2,8,24,empty,0,2025,monolith,empty,empty,empty,82.977122,54.992301,1,1,,,,"Европейский Берег,Октябрьский",0,0
nsk,"Россия, Новосибирск, улица Немировича-Данченко, 118/1",6000000,62.6,7.0,43.5,3,6,9,1975,empty,empty,brick,ground,empty,1,82.903065,54.97253,1,0,"Площадь Маркса,Студенческая,Речной вокзал","18,4,8","walk,transport,transport",Кировский,0,1
nsk,"Новосибирск, Большевистская улица",4590000,19.9,empty,empty,1,12,17,empty,0,2026,monolith,empty,empty,empty,82.97490539552238,54.992681954827,1,1,,,,"Европейский Берег,Октябрьский",0,0
nsk,"Новосибирская область,Новосибирск,Забалуева,88",3900000,40.5,12.0,19.0,1,10,17,empty,empty,empty,monolith,empty,empty,empty,82.785359,54.988696,empty,empty,,,,Ленинский,empty,1
nsk,"Новосибирск, Зыряновская улица, 53с",10530000,64.46,empty,empty,2,3,11,empty,0,2025,monolith,empty,empty,empty,82.934659,55.012579,empty,1,,,,Октябрьский,0,0
nsk,"Новосибирск, Ленинский район, микрорайон Горский, 14",6499000,38.3,10.0,18.0,2,2,26,2022,empty,empty,brick,underground,empty,empty,82.904053,54.996325,3,empty,"Студенческая,Площадь Маркса,Речной вокзал","14,5,6","walk,transport,transport","Горский,Ленинский",0,1
nsk,"Новосибирск, улица Королёва, 19",9169500,61.13,empty,empty,2,20,25,empty,0,2025,monolithBrick,empty,empty,empty,82.970196,55.051773,empty,3,"Березовая Роща,Золотая Нива,Маршала Покрышкина","20,5,5","walk,transport,transport",Дзержинский,0,0
nsk,"Новосибирская область,Новосибирск,Забалуева,90",3900000,41.8,13.4,13.6,1,4,17,empty,empty,empty,monolith,empty,empty,empty,82.783661,54.988365,empty,empty,,,,Ленинский,empty,1
nsk,"Новосибирск, Овражная улица, 2А",9913400,52.7,empty,empty,2,8,25,empty,0,2025,monolithBrick,empty,rough,empty,82.906793,55.054748,empty,empty,"Заельцовская,Гагаринская,Красный Проспект","7,9,3","walk,walk,transport",Заельцовский,0,0
nsk,"Новосибирская область,Новосибирск,Забалуева,88",4500000,45.0,10.0,24.0,2,5,17,empty,empty,empty,monolith,empty,empty,empty,82.785359,54.988696,empty,empty,,,,Ленинский,empty,1
nsk,"Новосибирск, Овражная улица, 2А",11442500,59.2,empty,empty,2,14,25,empty,0,2025,monolithBrick,empty,rough,empty,82.906793,55.054748,empty,empty,"Заельцовская,Гагаринская,Красный Проспект","7,9,3","walk,walk,transport",Заельцовский,0,0
nsk,"Новосибирская область,Новосибирск,Широкая,123",4600000,59.4,7.3,39.0,3,3,5,empty,empty,empty,panel,empty,empty,1,82.844953,54.992477,empty,empty,,,,"Троллейный,Ленинский",empty,1
nsk,"Новосибирск, Овражная улица, 2А",22609600,114.2,empty,empty,2,25,25,empty,0,2025,monolithBrick,empty,rough,empty,82.906793,55.054748,empty,empty,"Заельцовская,Гагаринская,Красный Проспект","7,9,3","walk,walk,transport",Заельцовский,0,0
nsk,"Новосибирская область,Новосибирск,Забалуева,98",3700000,37.1,12.0,19.0,1,6,17,empty,empty,empty,monolith,empty,empty,empty,82.776618,54.988117,empty,empty,,,,Ленинский,empty,1
nsk,"Новосибирск, улица Декабристов, 107/7",8130000,49.28,empty,empty,2,2,17,empty,0,2025,monolith,empty,empty,empty,82.954467,55.00753,1,1,,,,Октябрьский,0,0
nsk,"Новосибирск, 1-я Чулымская улица, 112/3",6550000,40.0,empty,empty,1,26,26,2016,empty,empty,monolith,ground,empty,empty,82.889294,55.014365,1,2,"Площадь Маркса,Площадь Ленина,Студенческая","8,10,10","transport,transport,transport","Лесоперевалка,Ленинский",0,1
nsk,"Новосибирск, Овражная улица, 2А",8031600,40.2,empty,empty,1,17,25,empty,0,2025,monolithBrick,empty,rough,empty,82.906793,55.054748,empty,empty,"Заельцовская,Гагаринская,Красный Проспект","7,9,3","walk,walk,transport",Заельцовский,0,0
nsk,"Новосибирск, Тульская улица, 80",7500000,43.0,9.0,24.0,2,5,17,2021,empty,empty,empty,ground,empty,1,82.916612,54.978193,1,1,"Студенческая,Площадь Маркса,Речной вокзал","15,15,7","walk,walk,transport",Кировский,0,1
nsk,"Новосибирск, улица Дуси Ковальчук, 248/2",11882700,78.0,empty,empty,2,12,23,empty,1,2023,monolithBrick,empty,rough,empty,82.903083,55.054119,3,1,"Заельцовская,Гагаринская,Красный Проспект","13,16,3","walk,walk,transport",Заельцовский,0,0
nsk,"Новосибирская обл., г. Новосибирск, ул. Немировича-Данченко, 148/2",7200000,43.5,empty,9.7,1,5,17,empty,empty,empty,empty,empty,empty,empty,82.917043,54.991057,empty,empty,,,,Кировский,empty,1
nsk,"Новосибирск, улица Дуси Ковальчук, 248/2",7895160,45.7,empty,empty,1,3,23,empty,1,2023,monolithBrick,empty,rough,empty,82.903083,55.054119,3,1,"Заельцовская,Гагаринская,Красный Проспект","13,16,3","walk,walk,transport",Заельцовский,0,0
nsk,"Новосибирская обл., г. Новосибирск, ул. Богдана Хмельницкого, 76/1",6400000,62.1,empty,42.0,2,15,17,empty,empty,empty,empty,empty,empty,empty,82.967528,55.081813,empty,empty,,,,"Богдана Хмельницкого,Калининский",empty,1
nsk,"Новосибирск, Железнодорожный район, Прибрежная улица, 4/2",7900000,46.45,empty,28.8,2,2,24,empty,0,2025,monolithBrick,empty,empty,empty,82.889599,55.030504,empty,empty,"Площадь Гарина-Михайловского,Площадь Ленина,Красный Проспект","12,3,3","walk,transport,transport","Прибрежный,Железнодорожный",0,0
nsk,"Новосибирская обл., г. Новосибирск, ул. Виктора Шевелева, 24",6990000,85.8,empty,55.0,3,4,10,empty,empty,empty,empty,empty,empty,empty,82.970861,54.945423,empty,empty,,,,Кировский,empty,1
nsk,"Новосибирск, улица Аэропорт, 88",9900000,86.04,empty,empty,3,2,18,empty,1,2023,monolith,empty,empty,empty,82.902176,55.080694,2,1,"Заельцовская,Гагаринская,Сибирская","5,8,8","transport,transport,transport","Аэропорт,Заельцовский",0,0
nsk,"Новосибирская обл., г. Новосибирск, ул. Владимира Заровного, 26/2",13300000,64.4,empty,37.9,2,22,25,empty,empty,empty,empty,empty,empty,empty,82.970071,54.99007,empty,empty,,,,"Европейский Берег,Октябрьский",empty,1
nsk,"Новосибирск, улица Объединения, 102/4с",4545300,34.0,empty,empty,1,6,9,empty,1,2024,monolithBrick,empty,rough,empty,82.975011,55.096858,empty,empty,"Заельцовская,Березовая Роща,Гагаринская","9,9,10","transport,transport,transport",Калининский,0,0
nsk,"Новосибирская обл., г. Новосибирск, ул. Шлюзовая, 2",2530000,29.6,empty,16.5,1,1,5,empty,empty,empty,empty,empty,empty,empty,83.041424,54.84994,empty,empty,,,,"Шлюз,Советский",empty,1
nsk,"Новосибирск, улица Объединения, 102/4с",4152450,30.8,empty,empty,1,7,9,empty,1,2024,monolithBrick,empty,rough,empty,82.975011,55.096858,empty,empty,"Заельцовская,Березовая Роща,Гагаринская","9,9,10","transport,transport,transport",Калининский,0,0
nsk,"Новосибирская обл., г. Новосибирск, ул. Узловая, 8/1",5350000,52.1,empty,32.0,1,5,9,empty,empty,empty,empty,empty,empty,empty,82.992097,55.028362,empty,empty,,,,Октябрьский,empty,1
nsk,"Новосибирск, Железнодорожный район, Прибрежная улица, 4/2",7600000,41.7,empty,16.1,1,5,24,empty,0,2025,monolithBrick,empty,empty,empty,82.889599,55.030504,empty,empty,"Площадь Гарина-Михайловского,Площадь Ленина,Красный Проспект","12,3,3","walk,transport,transport","Прибрежный,Железнодорожный",0,0
nsk,"Новосибирская обл., г. Новосибирск, ул. Немировича-Данченко, 148/2",7300000,42.4,empty,12.0,1,1,17,empty,empty,empty,empty,empty,empty,empty,82.917043,54.991057,empty,empty,,,,Кировский,empty,1
nsk,"Новосибирск, улица Семьи Шамшиных, с91",11230000,78.28,empty,empty,3,15,17,empty,0,2026,monolith,empty,empty,empty,82.9250394305444,55.0480851216228,empty,2,"Гагаринская,Сибирская,Маршала Покрышкина","9,10,10","walk,walk,walk",Центральный,0,0
nsk,"Новосибирская обл., г. Новосибирск, ул. Николая Сотникова, 15",5990000,71.9,empty,37.0,3,4,18,empty,empty,empty,empty,empty,empty,empty,82.97069,54.944818,empty,empty,,,,Кировский,empty,1
nsk,"Новосибирск, улица Аэропорт",6400000,37.2,6.2,18.5,2,14,17,empty,0,2024,brick,empty,empty,empty,82.9132546283109,55.0783588838795,empty,2,"Заельцовская,Сибирская,Гагаринская","6,6,7","transport,transport,transport",Заельцовский,0,0
nsk,"Новосибирская обл., г. Новосибирск, ул. Аникина, 16",5150000,47.7,empty,25.0,1,9,26,empty,empty,empty,empty,empty,empty,empty,82.945106,54.964509,empty,empty,,,,Кировский,empty,1
nsk,"Новосибирск, улица Аэропорт",4550000,22.5,2.4,12.3,1,4,17,empty,0,2024,brick,empty,empty,empty,82.9132546283109,55.0783588838795,empty,2,"Заельцовская,Сибирская,Гагаринская","6,6,7","transport,transport,transport",Заельцовский,0,0
nsk,"Новосибирская обл., г. Новосибирск, ул. Костычева, 74/1",7460000,69.0,empty,42.0,2,15,17,empty,empty,empty,empty,empty,empty,empty,82.877221,54.969651999999996,empty,empty,,,,Кировский,empty,1
nsk,"Новосибирск, улица Декоративный Питомник, 16/1",6500000,54.0,13.4,28.3,2,11,12,empty,1,2023,brick,empty,empty,empty,82.925415,55.111114,1,1,"Заельцовская,Гагаринская,Маршала Покрышкина","9,10,11","transport,transport,transport",Калининский,0,0
nsk,"Новосибирская обл., г. Новосибирск, ул. Заслонова, 13/6",6190000,51.0,empty,28.1,2,2,4,empty,empty,empty,empty,empty,empty,empty,83.030886,55.050184,empty,empty,,,,Дзержинский,empty,1
nsk,"Новосибирск, улица Михаила Перевозчикова, 4",25000000,64.8,4.9,46.2,2,8,8,empty,1,2023,monolithBrick,empty,empty,empty,82.909129,55.060642,empty,empty,"Заельцовская,Красный Проспект,Площадь Гарина-Михайловского","2,2,4","walk,transport,transport",Заельцовский,0,0
nsk,"Новосибирская обл., г. Новосибирск, ул. Макаренко, 6",4500000,44.7,empty,30.7,2,4,5,empty,empty,empty,empty,empty,empty,empty,82.959048,55.096883,empty,empty,,,,"Юбилейный,Калининский",empty,1
nsk,"Новосибирск, Красный проспект, 220стр",9500000,50.45,5.0,34.9,2,12,21,empty,1,2024,monolithBrick,empty,empty,empty,82.9117440675,55.068377747,empty,empty,"Заельцовская,Гагаринская,Сибирская","15,3,4","walk,transport,transport",Заельцовский,0,0
nsk,"Новосибирская обл., г. Новосибирск, ул. Сакко и Ванцетти, 25",7350000,40.1,empty,11.6,1,4,17,empty,empty,empty,empty,empty,empty,empty,82.936716,55.013116,empty,empty,,,,Октябрьский,empty,1
nsk,"Новосибирск, Плановая улица",7950000,38.2,empty,empty,2,8,9,empty,0,2024,brick,empty,empty,empty,82.89442276455559,55.05607188605751,empty,2,"Заельцовская,Гагаринская,Красный Проспект","17,3,3","walk,transport,transport",Заельцовский,0,0
nsk,"Новосибирская обл., г. Новосибирск, ул. Дмитрия Шмонина, 10",4650000,50.7,empty,30.0,2,14,17,empty,empty,empty,empty,empty,empty,empty,82.960108,54.941141,empty,empty,,,,Кировский,empty,1
nsk,"Новосибирск, улица Лобачевского, 53/2",5190000,40.9,5.3,25.0,2,9,17,empty,0,2024,brick,empty,empty,empty,82.902715,55.122328,empty,empty,"Заельцовская,Гагаринская,Сибирская","13,16,16","transport,transport,transport",Заельцовский,0,0
nsk,"Новосибирская обл., г. Новосибирск, ул. Татьяны Снежиной, 21/1",3900000,42.2,empty,18.0,1,9,10,empty,empty,empty,empty,empty,empty,empty,83.014582,55.018138,empty,empty,,,,"Плющихинский,Октябрьский",empty,1
nsk,"Новосибирск, улица Дуси Ковальчук, 248/2",10867500,66.0,empty,empty,2,2,23,empty,1,2023,monolithBrick,empty,rough,empty,82.903083,55.054119,3,1,"Заельцовская,Гагаринская,Красный Проспект","13,16,3","walk,walk,transport",Заельцовский,0,0
nsk,"Новосибирская обл., г. Новосибирск, ул. Татьяны Снежиной, 51",5500000,76.2,empty,40.0,2,10,10,empty,empty,empty,empty,empty,empty,empty,83.021508,55.024363,empty,empty,,,,"Плющихинский,Октябрьский",empty,1
nsk,"Новосибирск, Ленинградская улица, 104",6600000,43.9,5.1,27.3,2,3,24,empty,0,2026,monolithBrick,empty,empty,empty,82.957593,55.013152,1,3,"Октябрьская,Речной вокзал,Золотая Нива","16,20,7","walk,walk,transport",Октябрьский,0,0
nsk,"Новосибирск, Большевистская улица",7870000,59.0,21.0,22.0,3,15,17,empty,0,2026,monolith,empty,empty,2,82.97490539552238,54.992681954827,1,1,,,,"Европейский Берег,Октябрьский",0,0
nsk,"Новосибирская обл., г. Новосибирск, ул. Владимира Заровного, 42",6500000,36.1,empty,20.0,1,14,25,empty,empty,empty,empty,empty,empty,empty,82.975317,54.988722,empty,empty,,,,"Европейский Берег,Октябрьский",empty,1
nsk,"Новосибирск, улица Декоративный Питомник, 16/1",3960000,27.9,5.2,13.4,1,2,12,empty,1,2023,brick,empty,empty,empty,82.925415,55.111114,1,1,"Заельцовская,Гагаринская,Маршала Покрышкина","9,10,11","transport,transport,transport",Калининский,0,0
nsk,"Новосибирск, Октябрьский район, микрорайон Закаменский",7409790,44.37,empty,empty,2,24,29,empty,0,2026,monolithBrick,empty,empty,empty,82.9544128696937,55.0380166146021,1,empty,"Березовая Роща,Золотая Нива,Маршала Покрышкина","11,18,6","walk,walk,transport","Фрунзенский,Дзержинский",0,0
nsk,"Новосибирск, Арктическая улица",7800000,43.2,4.3,28.0,2,3,4,empty,0,2025,brick,empty,empty,empty,82.8965689069,55.1189315191,empty,2,"Заельцовская,Гагаринская,Сибирская","12,15,15","transport,transport,transport",Заельцовский,0,0
nsk,"Новосибирск, улица Михаила Перевозчикова, 4",9650000,38.8,5.6,19.4,1,6,8,empty,1,2023,monolithBrick,empty,empty,empty,82.909129,55.060642,empty,empty,"Заельцовская,Красный Проспект,Площадь Гарина-Михайловского","2,2,4","walk,transport,transport",Заельцовский,0,0
nsk,"Новосибирск, Красный проспект, 220стр",10050000,42.75,11.9,14.3,1,11,15,empty,1,2024,monolithBrick,empty,empty,empty,82.9117440674586,55.0683777470197,empty,empty,"Заельцовская,Гагаринская,Сибирская","15,3,4","walk,transport,transport",Заельцовский,0,0
nsk,"Новосибирск, Плановая улица",5500000,19.7,3.9,9.9,1,8,16,empty,0,2024,brick,empty,empty,empty,82.89398824669586,55.056395221430705,empty,empty,"Заельцовская,Гагаринская,Красный Проспект","19,3,3","walk,transport,transport",Заельцовский,0,0
nsk,"Новосибирск, улица Лобачевского, 53/2",3850000,24.2,5.1,10.2,1,15,17,empty,0,2024,brick,empty,empty,empty,82.902715,55.122328,empty,empty,"Заельцовская,Гагаринская,Сибирская","13,16,16","transport,transport,transport",Заельцовский,0,0
nsk,"Новосибирская обл., г. Новосибирск, ул. Лескова, 23",12990000,91.0,empty,20.0,3,20,25,empty,empty,empty,empty,empty,empty,empty,82.951412,55.024817,empty,empty,,,,Октябрьский,empty,1
nsk,"Новосибирск, Сухарная улица, 105/1",8460360,59.58,empty,empty,2,13,29,empty,0,2025,monolithBrick,empty,empty,empty,82.8597456197,55.0463747175,empty,empty,"Гагаринская,Заельцовская,Красный Проспект","5,5,6","transport,transport,transport",Заельцовский,0,0
nsk,"Новосибирск, улица Дуси Ковальчук, 248/2",7649750,43.5,empty,empty,1,2,23,empty,1,2023,monolithBrick,empty,rough,empty,82.903083,55.054119,3,1,"Заельцовская,Гагаринская,Красный Проспект","13,16,3","walk,walk,transport",Заельцовский,0,0
nsk,"Новосибирск, г Новосибирск, ул Александра Чистякова, д 22/2",3700000,32.1,8.4,15.0,1,16,17,empty,empty,empty,empty,empty,empty,empty,82.968984,54.938689,empty,empty,,,,Кировский,empty,1
nsk,"Новосибирск, Светлановская улица",3247360,25.37,empty,empty,1,4,23,empty,0,2025,monolithBrick,empty,empty,empty,82.92266417594796,55.075628442056015,empty,4,"Заельцовская,Гагаринская,Маршала Покрышкина","3,5,5","transport,transport,transport",Заельцовский,1,0
nsk,"Россия, Новосибирск, Новогодняя улица, 4/1",4799999,42.7,5.6,31.0,2,2,5,1965,empty,empty,brick,ground,empty,1,82.899777,54.98025,0,0,"Площадь Маркса,Студенческая,Речной вокзал","5,14,7","walk,walk,transport",Кировский,0,1
nsk,"Новосибирск, Ленинградская улица, 104",5500000,27.41,5.9,14.2,1,4,24,empty,0,2026,monolithBrick,empty,empty,empty,82.957593,55.013152,1,3,"Октябрьская,Речной вокзал,Золотая Нива","16,20,7","walk,walk,transport",Октябрьский,0,0
nsk,"Новосибирск, Сухарная улица, 105/1",6500000,44.52,19.4,15.6,1,6,29,empty,0,2025,brick,empty,without,1,82.8592359999999,55.0461683474434,empty,empty,"Площадь Гарина-Михайловского,Гагаринская,Заельцовская","7,8,8","transport,transport,transport",Заельцовский,0,1
nsk,"Новосибирск, Октябрьский район, микрорайон Закаменский",4532200,26.66,empty,empty,1,2,29,empty,0,2026,monolithBrick,empty,empty,empty,82.9544128696937,55.0380166146021,1,empty,"Березовая Роща,Золотая Нива,Маршала Покрышкина","11,18,6","walk,walk,transport","Фрунзенский,Дзержинский",0,0
nsk,"Новосибирск, Светлановская улица, 52",6500000,39.7,8.9,17.1,1,21,25,empty,1,2021,brick,empty,without,empty,82.924454,55.077958,empty,empty,"Заельцовская,Гагаринская,Березовая Роща","5,8,8","transport,transport,transport",Заельцовский,0,1
nsk,"Новосибирск, Междуреченская улица",4470000,34.65,4.8,21.0,2,15,17,empty,1,2023,panel,empty,empty,empty,82.8549642844383,55.0238828821945,empty,empty,"Площадь Ленина,Красный Проспект,Площадь Гарина-Михайловского","13,13,14","transport,transport,transport",Ленинский,0,0
nsk,"Россия, Новосибирск, Сухарная улица, 109",7265000,40.0,empty,empty,2,9,26,2021,empty,empty,monolithBrick,underground,empty,0,82.857781,55.046692,2,1,"Площадь Гарина-Михайловского,Гагаринская,Заельцовская","6,8,8","transport,transport,transport",Заельцовский,0,1
nsk,"Новосибирск, Арктическая улица",5500000,27.0,5.8,13.1,1,3,4,empty,0,2025,brick,empty,empty,empty,82.8965689068704,55.1189315190956,empty,2,"Заельцовская,Гагаринская,Сибирская","12,15,15","transport,transport,transport",Заельцовский,0,0
nsk,"Новосибирск,Кировский, Воскресная, 4/1",3700000,57.7,12.0,30.0,2,2,3,2012,empty,empty,empty,empty,empty,1,83.000362,54.943084999999996,empty,empty,,,,Кировский,empty,1
nsk,"Новосибирск, улица Семьи Шамшиных, 91",12600000,59.46,4.0,40.5,2,16,25,empty,0,2023,monolithBrick,empty,empty,empty,82.927356,55.047208,empty,empty,"Маршала Покрышкина,Красный Проспект,Сибирская","9,12,12","walk,walk,walk",Центральный,0,0
nsk,"Новосибирск,Кировский, Бурденко, 29",4600000,83.3,12.0,46.8,3,3,3,1951,empty,empty,empty,empty,empty,1,82.912282,54.96576,empty,empty,,,,"Мира,Кировский",empty,1
nsk,"Новосибирск, улица Королёва, 19",4299360,25.44,empty,empty,1,7,25,empty,0,2025,monolithBrick,empty,empty,empty,82.970196,55.051773,empty,3,"Березовая Роща,Золотая Нива,Маршала Покрышкина","20,5,5","walk,transport,transport",Дзержинский,0,0
nsk,"Новосибирск,Кировский, Дмитрия Шмонина, 10",4900000,51.4,11.5,empty,2,16,17,2017,empty,empty,empty,empty,empty,1,82.960108,54.941141,empty,empty,,,,Кировский,empty,1
nsk,"Новосибирск, Сухарная улица",7736400,55.26,empty,empty,2,17,28,empty,0,2025,monolithBrick,empty,empty,empty,82.8587245238027,55.047147130981,empty,5,"Площадь Гарина-Михайловского,Гагаринская,Заельцовская","6,8,8","transport,transport,transport",Заельцовский,0,0
nsk,"Новосибирск,Кировский, Оловозаводская, 1/4",3700000,34.1,8.8,17.4,1,2,9,1983,empty,empty,empty,empty,empty,1,82.958177,54.964907,empty,empty,,,,"Бугринская Роща,Кировский",empty,1
nsk,"Новосибирск, улица Объединения, 102/4с",7190500,51.9,empty,empty,2,2,9,empty,1,2024,monolithBrick,empty,rough,empty,82.975011,55.096858,empty,empty,"Заельцовская,Березовая Роща,Гагаринская","9,9,10","transport,transport,transport",Калининский,0,0
nsk,"Новосибирск,Кировский, Николая Сотникова, 6",3700000,35.0,7.0,empty,1,10,17,2016,empty,empty,empty,empty,empty,1,82.963342,54.939108,empty,empty,,,,"Акварельный,Кировский",empty,1
nsk,"Новосибирск, Сухарная улица, 105/1",5678610,38.63,empty,empty,1,14,29,empty,0,2025,monolithBrick,empty,empty,empty,82.8597456197,55.0463747175,empty,empty,"Гагаринская,Заельцовская,Красный Проспект","5,5,6","transport,transport,transport",Заельцовский,0,0
nsk,"Новосибирск,Кировский, Станиславского, 29/1",4300000,35.5,8.9,18.1,1,3,9,1998,empty,empty,empty,empty,empty,1,82.873735,54.974308,empty,empty,,,,Кировский,empty,1
nsk,"Новосибирск, Красный проспект",8150000,46.95,7.3,28.9,2,3,20,empty,0,2026,monolithBrick,empty,empty,empty,82.91513198678102,55.068875174121025,2,4,"Заельцовская,Гагаринская,Сибирская","15,7,7","walk,transport,transport",Заельцовский,0,0
nsk,"Новосибирск,Кировский, Александра Чистякова, 22/3",3900000,45.0,18.0,empty,1,11,17,2023,empty,empty,empty,empty,empty,0,82.967879,54.938576,empty,empty,,,,Кировский,empty,1
nsk,"Новосибирск, Пермская улица, 12к2",4490000,39.93,4.4,26.0,2,2,23,empty,0,2025,monolithBrick,empty,empty,empty,82.850433,54.978865,empty,3,"Площадь Маркса,Студенческая,Речной вокзал","7,7,11","transport,transport,transport",Ленинский,0,0
nsk,"Новосибирск,Кировский, Виктора Уса, 7",4000000,42.8,16.0,empty,1,13,17,2013,empty,empty,empty,empty,empty,1,82.883455,54.938322,empty,empty,,,,"Затулинский,Кировский",empty,1
nsk,"Новосибирск, Междуреченская улица, 5/2",4385000,31.85,4.7,17.9,1,3,25,empty,1,2024,panel,empty,empty,empty,82.857889,55.023294,empty,empty,"Площадь Гарина-Михайловского,Красный Проспект,Площадь Ленина","11,12,13","transport,transport,transport",Ленинский,0,0
nsk,"Новосибирск,Кировский, Виктора Шевелева, 30",3900000,48.1,13.8,empty,1,5,10,2022,empty,empty,empty,empty,empty,1,82.970133,54.946969,empty,empty,,,,Кировский,empty,1
nsk,"Новосибирск, улица Семьи Шамшиных, 91",9200000,38.1,13.8,19.4,1,25,25,empty,0,2023,monolithBrick,empty,empty,empty,82.927356,55.047208,empty,empty,"Маршала Покрышкина,Красный Проспект,Сибирская","9,12,12","walk,walk,walk",Центральный,0,0
nsk,"Новосибирск,Кировский, Сибиряков-Гвардейцев, 53/10",3800000,31.4,8.8,empty,1,4,17,2023,empty,empty,empty,empty,empty,1,82.901682,54.943065,empty,empty,,,,Кировский,empty,1
nsk,"Новосибирск, Сухарная улица",3985013,22.32,empty,empty,1,8,28,empty,0,2025,monolithBrick,empty,empty,empty,82.8587245238027,55.047147130981,empty,5,"Площадь Гарина-Михайловского,Гагаринская,Заельцовская","6,8,8","transport,transport,transport",Заельцовский,0,0
nsk,"Новосибирск,Заельцовский район, Сухарная, 105/1",7600000,58.07,19.6,empty,1,12,29,empty,empty,2025,empty,empty,empty,1,82.859745619712,55.0463747175127,1,1,"Гагаринская,Заельцовская,Красный Проспект","5,5,6","transport,transport,transport",Заельцовский,empty,1
nsk,"Новосибирск, улица Объединения, 102/4с",3878550,26.9,empty,empty,1,3,9,empty,1,2024,monolithBrick,empty,rough,empty,82.975011,55.096858,empty,empty,"Заельцовская,Березовая Роща,Гагаринская","9,9,10","transport,transport,transport",Калининский,0,0
nsk,"Новосибирск,Кировский, Немировича-Данченко, 49",4800000,37.6,10.0,empty,1,4,14,2002,empty,empty,empty,empty,empty,1,82.874544,54.9719,empty,empty,,,,Кировский,empty,1
nsk,"Новосибирск, Овражная улица, 2А",7223700,37.7,empty,empty,1,9,25,empty,0,2025,monolithBrick,empty,rough,empty,82.906793,55.054748,empty,empty,"Заельцовская,Гагаринская,Красный Проспект","7,9,3","walk,walk,transport",Заельцовский,0,0
nsk,"Новосибирск,Кировский, Петухова, 95/4",4100000,46.0,4.7,empty,1,1,18,2019,empty,empty,empty,empty,empty,1,82.949742,54.943907,empty,empty,,,,Кировский,empty,1
nsk,"Новосибирск, Красный проспект",7800000,38.15,11.8,14.6,1,7,20,empty,0,2026,monolithBrick,empty,empty,empty,82.91513198678102,55.068875174121025,2,4,"Заельцовская,Гагаринская,Сибирская","15,7,7","walk,transport,transport",Заельцовский,0,0
nsk,"Новосибирск, Вознесенская, 12/1",3200000,48.0,5.0,38.0,2,3,3,empty,empty,empty,brick,empty,empty,1,83.00108,54.941456,empty,empty,Студенческая,14,transport,Кировский,empty,1
nsk,"Новосибирск, Зыряновская улица, 53с",12000000,68.96,empty,empty,3,4,11,empty,0,2025,monolith,empty,empty,empty,82.934659,55.012579,1,1,,,,Октябрьский,0,0
nsk,"Россия, Новосибирск, Ядринцевская улица, 57",12990000,55.0,18.0,empty,3,18,25,2021,empty,empty,brick,underground,empty,1,82.931039,55.034415,2,2,"Площадь Ленина,Сибирская,Красный Проспект","11,15,16","walk,walk,walk",Центральный,0,1
nsk,"Новосибирск, улица Декабристов, 107/7",10030000,62.71,empty,empty,3,2,17,empty,0,2025,monolith,empty,empty,empty,82.954467,55.00753,1,1,,,,Октябрьский,0,0
nsk,"Новосибирск, Танковая, 25/1",5500000,42.6,5.4,28.2,2,4,5,1964,empty,empty,brick,empty,empty,1,82.929422,55.061261,empty,empty,Заельцовская,16,walk,"Сухой лог,Калининский",empty,1
nsk,"Новосибирск, Железнодорожный район, Прибрежная улица, 4/2",10150000,68.25,empty,43.1,3,2,16,empty,0,2025,monolithBrick,empty,empty,empty,82.889599,55.030504,empty,empty,"Площадь Гарина-Михайловского,Площадь Ленина,Красный Проспект","12,3,3","walk,transport,transport","Прибрежный,Железнодорожный",0,0
nsk,"Новосибирск, Марата, 2",9250000,76.0,22.0,38.0,3,15,16,empty,empty,empty,brick,empty,empty,empty,83.098566,54.977883,empty,empty,Речной вокзал,20,transport,Первомайский,empty,1
nsk,"Новосибирск, улица Кирова, 50",67000000,250.47,empty,empty,2,24,25,empty,1,2022,monolithBrick,empty,empty,empty,82.9415904920644,55.01723971554,empty,empty,"Октябрьская,Речной вокзал,Площадь Ленина","3,14,2","walk,walk,transport",Октябрьский,0,0
nsk,"Новосибирск, Станиславского, 15",5100000,53.0,7.0,32.0,2,4,6,1958,empty,empty,empty,empty,empty,empty,82.872154,54.983029,empty,empty,Площадь Маркса,17,walk,Ленинский,empty,1
nsk,"Новосибирск, улица Семьи Шамшиных, с91",11230000,78.28,34.0,10.0,2,15,17,empty,0,2026,monolith,empty,empty,1,82.9250394305444,55.0480851216228,empty,2,"Гагаринская,Сибирская,Маршала Покрышкина","9,10,10","walk,walk,walk",Центральный,0,0
nsk,"Новосибирск, Гребенщикова, 14",5700000,56.3,9.3,31.4,2,3,10,empty,empty,empty,panel,empty,empty,empty,82.943804,55.114219,empty,empty,Заельцовская,10,transport,"Родники,Калининский",empty,1
nsk,"Новосибирск, улица Кирова, 50",18500000,75.95,empty,empty,1,9,25,empty,1,2022,monolithBrick,empty,empty,empty,82.9415904920644,55.01723971554,empty,empty,"Октябрьская,Речной вокзал,Площадь Ленина","3,14,2","walk,walk,transport",Октябрьский,0,0
nsk,"Новосибирск, Менделеева, 4",4900000,44.0,7.2,26.5,2,6,9,1977,empty,empty,panel,empty,empty,1,82.960494,55.07218,empty,empty,,,,"Богдана Хмельницкого,Калининский",empty,1
nsk,"Новосибирск, улица Державина, 50",9400000,44.88,empty,empty,2,2,25,empty,1,2022,monolithBrick,empty,empty,empty,82.937156,55.039729,empty,2,"Маршала Покрышкина,Красный Проспект,Сибирская","7,17,17","walk,walk,walk",Центральный,0,0
nsk,"Новосибирск, Крылова, 14",11000000,87.0,13.0,60.0,4,3,5,1938,empty,empty,brick,empty,empty,empty,82.919307,55.03994,empty,empty,,,,"Красный проспект,Центральный",empty,1
nsk,"Новосибирск, улица Аэропорт, 60",10650000,79.7,7.9,49.5,3,4,17,empty,1,2023,brick,empty,empty,empty,82.911662,55.078061,empty,2,"Заельцовская,Сибирская,Гагаринская","5,6,7","transport,transport,transport",Заельцовский,0,0
nsk,"Россия, Новосибирск, Овражная улица, 3",14900000,71.0,21.0,empty,3,17,25,2020,empty,empty,brick,underground,empty,1,82.918615,55.058946,1,2,"Заельцовская,Гагаринская,Красный Проспект","4,10,4","walk,walk,transport",Заельцовский,0,1
nsk,"Новосибирск, Нарымская улица, 22",10100000,44.71,empty,empty,2,15,25,empty,0,2025,monolithBrick,underground,empty,empty,82.906308,55.046435,2,empty,"Гагаринская,Красный Проспект,Сибирская","10,13,16","walk,walk,walk",Железнодорожный,0,0
nsk,"Новосибирск, Пешеходная, 5/1",5100000,51.0,8.0,30.0,2,3,10,1997,empty,empty,brick,empty,empty,empty,82.985674,55.027124,empty,empty,,,,Октябрьский,empty,1
nsk,"Новосибирск, улица Семьи Шамшиных, с91",11320000,63.39,14.8,16.8,1,3,17,empty,0,2026,monolith,empty,empty,1,82.9252218207565,55.0474968346469,empty,2,"Гагаринская,Сибирская,Маршала Покрышкина","9,10,10","walk,walk,walk",Центральный,0,0
nsk,"Новосибирск, Декабристов, 41",15000000,59.3,10.5,35.0,2,4,17,2013,empty,empty,brick,empty,empty,1,82.936833,55.014024,empty,empty,Октябрьская,9,walk,Октябрьский,empty,1
nsk,"Новосибирск, улица Аэропорт, 88",9900000,86.04,10.6,24.9,2,2,18,empty,1,2023,monolith,empty,empty,1,82.902176,55.080694,2,1,"Заельцовская,Гагаринская,Сибирская","5,8,8","transport,transport,transport","Аэропорт,Заельцовский",0,0
nsk,"Новосибирск, Спортивная, 7/2",7297000,74.0,14.0,empty,3,8,10,2012,empty,empty,panel,empty,empty,1,82.807188,54.981469,empty,empty,Площадь Маркса,11,transport,Ленинский,empty,1
nsk,"Новосибирск, Зыряновская улица, 53с",15830000,81.69,33.8,24.7,2,3,11,empty,0,2025,monolith,empty,empty,1,82.934659,55.012579,empty,1,,,,Октябрьский,0,0
nsk,"Новосибирск, Кошурникова, 22/2",9990000,53.4,11.6,22.4,2,15,23,2019,empty,empty,brick,empty,empty,empty,82.963737,55.040167,empty,empty,,,,Октябрьский,empty,1
nsk,"Новосибирск, Большевистская улица",8980000,70.6,22.1,27.5,2,3,17,empty,0,2026,monolith,empty,empty,1,82.97490539552238,54.992681954827,1,1,,,,"Европейский Берег,Октябрьский",0,0
nsk,"Новосибирск, 2-я Обская, 154",12500000,72.2,19.6,36.1,2,2,20,2015,empty,empty,brick,empty,empty,empty,82.957144,54.996345,empty,empty,Речной вокзал,6,transport,Октябрьский,empty,1
nsk,"Новосибирск, улица Декабристов, 107/9",14380000,105.56,empty,empty,2,2,9,empty,0,2025,monolith,empty,empty,empty,82.954889,55.006735,1,1,,,,Октябрьский,0,0
nsk,"Новосибирск, Петухова, 132",5300000,60.0,7.0,43.0,3,4,9,1968,empty,empty,panel,empty,empty,1,82.92935,54.936336,empty,empty,Площадь Маркса,12,transport,"Затулинский,Кировский",empty,1
nsk,"Новосибирск, Нарымская улица, 22",8600000,35.65,empty,empty,1,15,25,empty,0,2025,monolithBrick,underground,empty,empty,82.906308,55.046435,2,empty,"Гагаринская,Красный Проспект,Сибирская","10,13,16","walk,walk,walk",Железнодорожный,0,0
nsk,"Новосибирск, Зорге, 18",4150000,45.8,5.8,26.5,2,3,9,1974,empty,empty,brick,empty,empty,empty,82.906946,54.933967,empty,empty,Площадь Маркса,10,transport,"Затулинский,Кировский",empty,1
nsk,"Новосибирск, улица Михаила Перевозчикова, 4",23000000,68.7,7.9,42.6,3,4,8,empty,1,2023,monolithBrick,empty,empty,empty,82.909129,55.060642,empty,empty,"Заельцовская,Красный Проспект,Площадь Гарина-Михайловского","2,2,4","walk,transport,transport",Заельцовский,0,0
nsk,"Новосибирск, Авиастроителей, 18",4700000,41.45,12.8,16.2,1,11,17,2022,empty,empty,brick,empty,empty,empty,82.980105,55.074989,empty,empty,,,,"Авиастроителей,Дзержинский",empty,1
nsk,"Новосибирск, Красный проспект, 220стр",12900000,70.5,5.4,46.9,3,3,19,empty,0,2025,monolithBrick,empty,empty,empty,82.9115509484097,55.0678667219476,empty,empty,"Заельцовская,Гагаринская,Красный Проспект","11,3,4","walk,transport,transport",Заельцовский,0,0
nsk,"Новосибирск, Петухова, 68",3700000,44.0,7.0,28.0,2,6,9,empty,empty,empty,panel,empty,empty,empty,82.90859,54.94021,empty,empty,Площадь Маркса,9,transport,"Затулинский,Кировский",empty,1
nsk,"Новосибирск, Плановая улица",9750000,50.9,2.1,34.0,3,4,8,empty,0,2024,brick,empty,empty,empty,82.89328014351551,55.055345142198355,empty,2,"Заельцовская,Гагаринская,Красный Проспект","18,4,4","walk,transport,transport",Заельцовский,0,0
nsk,"Новосибирск, Героев Революции, 31",10000000,87.0,12.0,54.0,3,8,14,empty,empty,empty,brick,empty,empty,empty,83.083761,54.975667,empty,empty,,,,Первомайский,empty,1
nsk,"Новосибирск, улица Лобачевского, 53/2",11000000,80.0,14.9,37.7,3,1,17,empty,0,2024,brick,empty,empty,empty,82.902715,55.122328,empty,empty,"Заельцовская,Гагаринская,Сибирская","13,16,16","transport,transport,transport",Заельцовский,0,0
nsk,"Новосибирск, Сухарная, 101/1",5549000,38.7,14.0,16.3,1,22,25,empty,empty,empty,brick,empty,empty,1,82.862363,55.047451,empty,empty,Площадь Гарина-Михайловского,6,transport,Заельцовский,empty,1
nsk,"Новосибирск, улица Аэропорт",7410000,48.36,18.1,13.3,1,3,15,empty,0,2025,monolith,empty,empty,2,82.90453591534391,55.08040439520254,1,1,"Заельцовская,Гагаринская,Сибирская","3,5,7","transport,transport,transport","Аэропорт,Заельцовский",0,0
nsk,"Новосибирск, петухова , 118",3580000,43.9,5.7,28.1,2,1,9,1974,empty,empty,brick,empty,empty,empty,82.925828,54.937583,empty,empty,Площадь Маркса,11,transport,"Затулинский,Кировский",empty,1
nsk,"Новосибирск, Зыряновская улица, 53с",10530000,64.46,26.1,11.5,1,3,11,empty,0,2025,monolith,empty,empty,empty,82.934659,55.012579,empty,1,,,,Октябрьский,0,0
nsk,"Новосибирск, Декабристов, 41",19000000,78.0,11.0,48.0,3,8,10,2013,empty,empty,brick,empty,empty,empty,82.936833,55.014024,empty,empty,Октябрьская,9,walk,Октябрьский,empty,1
nsk,"Новосибирск, Большевистская улица, 43/2с",7450000,46.84,21.6,12.5,1,2,24,empty,0,2025,monolith,empty,empty,1,82.977122,54.992301,2,1,,,,"Европейский Берег,Октябрьский",0,0
nsk,"Новосибирск, Петухова , 146",5400000,60.0,7.1,42.4,3,4,9,empty,empty,empty,panel,empty,empty,1,82.932656,54.936486,empty,empty,Площадь Маркса,11,transport,"Затулинский,Кировский",empty,1
nsk,"Новосибирск, Ленинградская улица, 104",9300000,63.44,5.1,42.2,3,4,24,empty,0,2026,monolithBrick,empty,empty,1,82.957593,55.013152,1,3,"Октябрьская,Речной вокзал,Золотая Нива","16,20,7","walk,walk,transport",Октябрьский,0,0
nsk,"Новосибирск, улица Владимира Заровного, 42",6990000,37.0,6.0,empty,1,21,26,2019,empty,empty,brick,underground,empty,1,82.975317,54.988722,empty,3,"Речной вокзал,Студенческая,Красный Проспект","8,9,11","transport,transport,transport","Европейский Берег,Октябрьский",0,1
nsk,"Новосибирск, Октябрьский район, микрорайон Закаменский",10918720,73.28,empty,empty,3,26,29,empty,0,2026,monolithBrick,empty,empty,empty,82.9544128696937,55.0380166146021,1,empty,"Березовая Роща,Золотая Нива,Маршала Покрышкина","11,18,6","walk,walk,transport","Фрунзенский,Дзержинский",0,0
nsk,"Новосибирск, Зорге, 84",3550000,40.6,9.0,23.3,1,1,9,empty,empty,empty,panel,empty,empty,empty,82.912246,54.931065,empty,empty,Площадь Маркса,11,transport,"Затулинский,Кировский",empty,1
nsk,"Новосибирск, улица Декабристов, 107/7",8130000,49.28,16.7,19.6,1,2,17,empty,0,2025,monolith,empty,empty,empty,82.954467,55.00753,1,1,,,,Октябрьский,0,0
nsk,"Новосибирск, Громова, 22",4300000,60.8,7.0,48.8,3,9,9,1977,empty,empty,panel,empty,empty,1,82.907126,54.932436,empty,empty,Площадь Маркса,10,transport,"Затулинский,Кировский",empty,1
nsk,"Новосибирск, Арктическая улица",9300000,55.2,4.4,33.9,3,2,4,empty,0,2025,brick,empty,empty,empty,82.8965689068704,55.1189315190956,empty,2,"Заельцовская,Гагаринская,Сибирская","12,15,15","transport,transport,transport",Заельцовский,0,0
nsk,"Новосибирск, 9-й Гвардейской Дивизии, 7",7100000,79.7,8.7,49.9,4,8,9,1984,empty,empty,panel,empty,empty,1,82.850038,54.965755,empty,empty,Площадь Маркса,8,transport,"Юго-Западный,Ленинский",empty,1
nsk,"Новосибирск, улица Королёва, 19",9754875,65.25,empty,empty,3,17,25,empty,0,2025,monolithBrick,empty,empty,empty,82.970196,55.051773,empty,3,"Березовая Роща,Золотая Нива,Маршала Покрышкина","20,5,5","walk,transport,transport",Дзержинский,0,0
nsk,"Новосибирск, Тихвинская, 1",5100000,37.0,empty,empty,1,2,10,2014,empty,empty,panel,empty,empty,empty,82.867716,54.980751,empty,empty,Площадь Маркса,4,transport,Ленинский,empty,1
nsk,"Новосибирск, Сухарная улица, 105/1",10368000,76.8,empty,empty,3,3,29,empty,0,2025,monolithBrick,empty,empty,empty,82.8597456197,55.0463747175,empty,empty,"Гагаринская,Заельцовская,Красный Проспект","5,5,6","transport,transport,transport",Заельцовский,0,0
nsk,"Новосибирск, Виктора Уса, 15",2420000,22.5,3.0,13.0,1,13,17,2014,empty,empty,monolith,empty,empty,empty,82.885296,54.935565,empty,empty,Площадь Маркса,9,transport,"Затулинский,Кировский",empty,1
nsk,"Новосибирск, Междуреченская улица",6965000,59.57,5.6,37.7,3,3,17,empty,1,2023,panel,empty,empty,empty,82.8549642844383,55.0238828821945,empty,empty,"Площадь Ленина,Красный Проспект,Площадь Гарина-Михайловского","13,13,14","transport,transport,transport",Ленинский,0,0
nsk,"Новосибирск, Советская, 75",10500000,40.3,17.5,11.1,2,13,23,2019,empty,empty,empty,empty,empty,1,82.913593,55.037423,empty,empty,,,,Железнодорожный,empty,1
nsk,"Новосибирск, улица Семьи Шамшиных, 91",14200000,77.92,14.0,44.0,3,4,25,empty,0,2023,monolithBrick,empty,empty,empty,82.927356,55.047208,empty,empty,"Маршала Покрышкина,Красный Проспект,Сибирская","9,12,12","walk,walk,walk",Центральный,0,0
nsk,"Новосибирск, Красный проспект, 222/3",15650000,69.0,16.0,44.0,2,4,15,empty,empty,empty,brick,empty,empty,empty,82.911366,55.070448,empty,empty,Заельцовская,17,walk,Заельцовский,empty,1
nsk,"Новосибирск, Сухарная улица",10421760,75.52,empty,empty,3,16,28,empty,0,2025,monolithBrick,empty,empty,empty,82.8587245238027,55.047147130981,empty,5,"Площадь Гарина-Михайловского,Гагаринская,Заельцовская","6,8,8","transport,transport,transport",Заельцовский,0,0
nsk,"Новосибирск, Военная, 51",12500000,71.32,23.0,35.0,2,14,25,empty,empty,empty,monolith,empty,empty,empty,82.94923,55.024848,empty,empty,Октябрьская,17,walk,Октябрьский,empty,1
nsk,"Новосибирск, Красный проспект",10200000,66.95,3.6,43.9,3,3,20,empty,0,2026,monolithBrick,empty,empty,empty,82.91513198678102,55.068875174121025,2,4,"Заельцовская,Гагаринская,Сибирская","15,7,7","walk,transport,transport",Заельцовский,0,0
nsk,"Новосибирск, Юности, 1",3350000,26.0,empty,empty,1,4,12,empty,empty,empty,brick,empty,empty,1,82.807763,55.026804,empty,empty,Площадь Гарина-Михайловского,15,transport,"Дивногорский,Ленинский",empty,1
nsk,"Новосибирск, Пермская улица, 12к2",6350000,52.62,7.4,33.4,3,7,23,empty,0,2025,monolithBrick,empty,empty,empty,82.850433,54.978865,empty,3,"Площадь Маркса,Студенческая,Речной вокзал","7,7,11","transport,transport,transport",Ленинский,0,0
nsk,"Новосибирск, Виталия Потылицына, 9/4",3500000,42.0,empty,empty,1,9,10,2015,empty,empty,panel,empty,empty,1,83.005814,55.018174,empty,empty,,,,"Плющихинский,Октябрьский",empty,1
nsk,"Новосибирск, улица Кирова, 50",26600000,113.19,empty,empty,3,6,25,empty,1,2022,monolithBrick,empty,empty,empty,82.9415904921,55.0172397155,empty,empty,"Октябрьская,Речной вокзал,Площадь Ленина","3,14,2","walk,walk,transport",Октябрьский,0,0
nsk,"Новосибирск, Кирова, 321",4500000,45.0,7.0,30.0,2,1,5,1975,empty,empty,panel,empty,empty,empty,82.977841,55.003838,empty,empty,Речной вокзал,5,transport,Октябрьский,empty,1
nsk,"Новосибирск, улица Семьи Шамшиных, с91",15830000,135.57,empty,empty,3,3,16,empty,0,2024,monolith,empty,empty,empty,82.9261659583321,55.048442401907,empty,2,"Маршала Покрышкина,Гагаринская,Сибирская","12,13,15","walk,walk,walk",Центральный,0,0
nsk,"Новосибирск, Вертковская, 39/1",3700000,33.1,6.0,19.7,1,7,9,1975,empty,empty,brick,empty,empty,1,82.877823,54.974339,empty,empty,Площадь Маркса,5,transport,Кировский,empty,1
nsk,"Новосибирск, улица Державина, 50",15800000,67.28,empty,empty,3,23,25,empty,1,2022,monolithBrick,empty,empty,empty,82.937156,55.039729,empty,2,"Маршала Покрышкина,Красный Проспект,Сибирская","7,17,17","walk,walk,walk",Центральный,0,0
nsk,"Новосибирск, Аэропорт, 55/1",5500000,36.0,12.0,15.0,1,4,25,empty,empty,empty,empty,empty,empty,empty,82.910395,55.077772,empty,empty,Заельцовская,4,transport,"Аэропорт,Заельцовский",empty,1
nsk,"Новосибирск, Нарымская улица, 22",13100000,59.98,empty,empty,3,14,25,empty,0,2025,monolithBrick,underground,empty,empty,82.906308,55.046435,2,empty,"Гагаринская,Красный Проспект,Сибирская","10,13,16","walk,walk,walk",Железнодорожный,0,0
nsk,"Новосибирск, Вознесенская, 12",3100000,34.0,empty,empty,1,2,3,empty,empty,empty,brick,empty,empty,empty,83.001053,54.941746,empty,empty,Студенческая,14,transport,Кировский,empty,1
nsk,"Новосибирск, улица Аэропорт",12650000,107.95,empty,empty,3,2,6,empty,0,2024,monolith,empty,empty,empty,82.90498652645813,55.08070599050546,empty,1,"Заельцовская,Гагаринская,Сибирская","3,5,7","transport,transport,transport","Аэропорт,Заельцовский",0,0
nsk,"Новосибирск, Есенина, 12/1",4400000,37.4,9.0,17.0,1,3,21,empty,empty,empty,brick,empty,empty,empty,82.985665,55.046001,empty,empty,,,,Дзержинский,empty,1
nsk,"Новосибирск, Зыряновская улица, 53с",20340000,105.88,empty,empty,3,5,11,empty,0,2025,monolith,empty,empty,empty,82.934659,55.012579,empty,1,,,,Октябрьский,0,0
nsk,"Новосибирск, Россия, Новосибирск, улица 9-й Гвардейской Дивизии, 15",4850000,43.6,7.0,27.6,2,3,9,empty,empty,empty,empty,empty,empty,empty,82.84631,54.966949,empty,empty,,,,"Юго-Западный,Ленинский",empty,1
nsk,"Новосибирск, Большевистская улица",11990000,95.81,27.4,44.4,3,3,8,empty,0,2025,monolith,empty,empty,1,82.9676419735091,54.99441528831777,1,1,,,,"Европейский Берег,Октябрьский",0,0
nsk,"Новосибирск, улица Добролюбова, 4",7700000,36.77,13.5,15.0,1,1,8,empty,1,2021,brick,empty,without,empty,82.941612,55.004086,empty,empty,"Речной вокзал,Площадь Ленина,Октябрьская","8,5,7","walk,transport,transport",Октябрьский,0,1
nsk,"Новосибирск, улица Декабристов, 107/9",16180000,97.42,empty,empty,3,7,9,empty,0,2025,monolith,empty,empty,empty,82.954889,55.006735,1,1,,,,Октябрьский,0,0
nsk,"Новосибирск,Ленинский, Карла Маркса площадь, 28",5100000,43.5,5.0,empty,2,5,5,empty,empty,empty,empty,empty,empty,1,82.911941,54.990969,empty,empty,,,,Ленинский,empty,1
nsk,"Новосибирск, Железнодорожный район, Прибрежная улица, 4/2",13100000,93.85,empty,56.2,4,11,24,empty,0,2025,monolithBrick,empty,empty,empty,82.889599,55.030504,empty,empty,"Площадь Гарина-Михайловского,Площадь Ленина,Красный Проспект","12,3,3","walk,transport,transport","Прибрежный,Железнодорожный",0,0
nsk,"Новосибирская область, Новосибирск, Молодости улица, 3",2713000,43.0,empty,31.5,2,1,5,empty,empty,empty,brick,empty,empty,empty,82.984012,54.857968,empty,empty,,,,"ОбьГЭС,Советский",0,1
nsk,"Новосибирск, улица Михаила Перевозчикова, 4",22000000,104.3,6.8,66.4,4,5,8,empty,1,2023,monolithBrick,empty,empty,empty,82.909129,55.060642,empty,empty,"Заельцовская,Красный Проспект,Площадь Гарина-Михайловского","2,2,4","walk,transport,transport",Заельцовский,0,0
nsk,"Новосибирск,Кировский, Беловежская, 50",3100000,32.0,8.2,empty,1,25,25,empty,empty,empty,empty,empty,empty,0,82.888045,54.961879,empty,empty,Площадь Маркса,5,transport,Кировский,empty,1
nsk,"Новосибирск, Красный проспект, 220стр",16400000,87.1,empty,empty,4,4,23,empty,0,2025,monolithBrick,empty,empty,empty,82.9115509484097,55.0678667219476,empty,empty,"Заельцовская,Гагаринская,Красный Проспект","11,3,4","walk,transport,transport",Заельцовский,0,0
nsk,"Новосибирск,Кировский, Петухова, 99/2",3250000,35.0,5.0,empty,1,4,10,2015,empty,empty,empty,empty,empty,1,82.952796,54.943737,empty,empty,,,,Кировский,empty,1
nsk,"Новосибирск, Плановая улица",12550000,72.9,3.9,46.0,4,2,8,empty,0,2024,brick,empty,empty,empty,82.89328014351551,55.055345142198355,empty,2,"Заельцовская,Гагаринская,Красный Проспект","18,4,4","walk,transport,transport",Заельцовский,0,0
nsk,"Новосибирск,Кировский, Рубежная, 16",3300000,33.0,10.1,14.3,1,1,3,2016,empty,empty,empty,empty,empty,1,83.003703,54.940334,empty,empty,,,,Кировский,empty,1
nsk,"Новосибирск, улица Лобачевского, 53/2",12400000,90.2,5.2,54.6,4,1,17,empty,0,2024,brick,empty,empty,empty,82.902715,55.122328,empty,empty,"Заельцовская,Гагаринская,Сибирская","13,16,16","transport,transport,transport",Заельцовский,0,0
nsk,"Новосибирск,Кировский, Александра Чистякова, 6",3350000,49.1,14.0,25.0,2,9,10,2023,empty,empty,empty,empty,empty,1,82.962722,54.944988,empty,empty,,,,Кировский,empty,1
nsk,"Новосибирск, Ленинградская улица, 104",11650000,83.35,6.4,51.9,4,3,24,empty,0,2026,monolithBrick,empty,empty,1,82.957593,55.013152,1,3,"Октябрьская,Речной вокзал,Золотая Нива","16,20,7","walk,walk,transport",Октябрьский,0,0
nsk,"Новосибирск,Кировский, Зорге, 87",3500000,43.9,5.9,29.8,2,2,5,1967,empty,empty,empty,empty,empty,1,82.914761,54.936181,empty,empty,,,,"Затулинский,Кировский",empty,1
nsk,"Новосибирск, Октябрьский район, микрорайон Закаменский",12716340,92.82,empty,empty,4,23,29,empty,0,2026,monolithBrick,empty,empty,empty,82.9544128696937,55.0380166146021,1,empty,"Березовая Роща,Золотая Нива,Маршала Покрышкина","11,18,6","walk,walk,transport","Фрунзенский,Дзержинский",0,0
nsk,"Новосибирск,Ленинский, 9-ой Гвардейской дивизии, 12",3700000,42.9,6.6,25.0,2,3,5,1982,empty,empty,empty,empty,empty,1,82.848753,54.967528,empty,empty,,,,"Юго-Западный,Ленинский",empty,1
nsk,"Новосибирск, Арктическая улица",13900000,76.8,2.2,60.5,4,2,4,empty,0,2025,brick,empty,empty,empty,82.8965689068704,55.1189315190956,empty,2,"Заельцовская,Гагаринская,Сибирская","12,15,15","transport,transport,transport",Заельцовский,0,0
nsk,"Новосибирск,Калининский, Игарская, 5",3890000,33.5,10.0,empty,1,2,17,empty,empty,2023,empty,empty,empty,1,82.94110416931143,55.10212780601327,1,1,Заельцовская,9,transport,Калининский,empty,1
nsk,"Новосибирск, Пермская улица, 12к2",8750000,80.59,7.8,51.7,4,20,23,empty,0,2025,monolithBrick,empty,empty,empty,82.850433,54.978865,empty,3,"Площадь Маркса,Студенческая,Речной вокзал","7,7,11","transport,transport,transport",Ленинский,0,0
nsk,"Новосибирск,Ленинский, Широкая, 125",4200000,37.0,8.0,empty,1,12,16,2009,empty,empty,empty,empty,empty,0,82.843929,54.993055,empty,empty,,,,"Троллейный,Ленинский",empty,1
nsk,"Новосибирск, Красный проспект, 220стр",19250000,91.45,empty,empty,4,17,23,empty,0,2025,monolithBrick,empty,empty,empty,82.9115509484097,55.0678667219476,empty,empty,"Заельцовская,Гагаринская,Красный Проспект","11,3,4","walk,transport,transport",Заельцовский,0,0
nsk,"Новосибирск,Ленинский, Вертковская, 121",4200000,36.0,9.0,16.0,1,9,10,2017,empty,empty,empty,empty,empty,0,82.85691,54.973217,empty,empty,,,,Ленинский,empty,1
nsk,"Новосибирск, улица Семьи Шамшиных, с91",40310000,342.58,31.4,52.4,4,3,16,empty,0,2024,monolith,empty,empty,2,82.9263161620362,55.0477647992759,empty,2,"Маршала Покрышкина,Сибирская,Гагаринская","9,13,14","walk,walk,walk",Центральный,0,0
nsk,"Новосибирск, Россия, Новосибирск, улица В. Высоцкого, 140/2",4200000,63.85,5.0,31.9,1,7,10,empty,empty,2024,empty,empty,empty,empty,83.0102000422967,55.0224309248877,empty,empty,"Березовая Роща,Октябрьская,Золотая Нива","6,7,9","transport,transport,transport",Октябрьский,empty,1
nsk,"Новосибирск, улица Аэропорт",17650000,220.35,15.3,58.5,4,1,6,empty,0,2024,monolith,empty,empty,1,82.90498652645813,55.08070599050546,empty,1,"Заельцовская,Гагаринская,Сибирская","3,5,7","transport,transport,transport","Аэропорт,Заельцовский",0,0
nsk,"Новосибирск,Ленинский, Станиславского, 13а",4300000,33.4,7.8,14.8,1,3,4,1958,empty,empty,empty,empty,empty,0,82.873636,54.984439,empty,empty,,,,Ленинский,empty,1
nsk,"Новосибирск, улица Декабристов, 107/8",22670000,185.19,21.8,47.6,4,2,9,empty,0,2025,monolith,empty,empty,1,82.954314,55.006962,1,1,,,,Октябрьский,0,0
nsk,"Новосибирск,Ленинский, Большая, 680",4390000,46.0,10.0,empty,2,1,4,2016,empty,empty,empty,empty,empty,1,82.806631,55.03266,empty,empty,,,,Ленинский,empty,1
nsk,"Новосибирск, Плановая улица",22750000,130.8,4.9,79.2,5,6,8,empty,0,2024,brick,empty,empty,empty,82.89328014351551,55.055345142198355,empty,2,"Заельцовская,Гагаринская,Красный Проспект","18,4,4","walk,transport,transport",Заельцовский,0,0
nsk,"Новосибирск, Россия, Новосибирск, улица Декоративный Питомник, 16/4",4400000,31.8,5.0,16.6,1,5,15,empty,empty,2024,empty,empty,empty,empty,82.924544,55.110821,empty,empty,"Заельцовская,Гагаринская,Маршала Покрышкина","9,10,11","transport,transport,transport",Калининский,empty,1
nsk,"Новосибирск, улица Аэропорт, 23/1",8520000,51.59,empty,empty,2,5,18,empty,0,2024,monolith,empty,empty,empty,82.9017,55.080236,2,1,"Заельцовская,Гагаринская,Сибирская","5,8,8","transport,transport,transport","Аэропорт,Заельцовский",0,0
nsk,"Новосибирская область, Новосибирск, Романтиков улица, 4",4747000,55.0,empty,36.0,3,11,12,2017,empty,empty,brick,empty,empty,empty,82.810772,55.025059,empty,empty,"Площадь Гарина-Михайловского,Красный Проспект,Площадь Ленина","9,11,11","transport,transport,transport","Дивногорский,Ленинский",0,1
nsk,"Новосибирск, улица Аэропорт, 23/1",9330000,59.55,empty,empty,2,14,18,empty,0,2024,monolith,empty,empty,empty,82.9017,55.080236,2,1,"Заельцовская,Гагаринская,Сибирская","5,8,8","transport,transport,transport","Аэропорт,Заельцовский",0,0
nsk,"Новосибирск,Кировский, Александра Чистякова, 22/3",5350000,62.9,15.0,empty,2,15,17,2023,empty,empty,empty,empty,empty,1,82.967879,54.938576,empty,empty,,,,Кировский,empty,1
nsk,"Новосибирск, улица Аэропорт",6910000,41.7,empty,empty,2,2,15,empty,0,2025,monolith,empty,empty,empty,82.90453591534391,55.08040439520254,1,1,"Заельцовская,Гагаринская,Сибирская","3,5,7","transport,transport,transport","Аэропорт,Заельцовский",0,0
nsk,"Новосибирск, г Новосибирск, ул Светлановская, д 52/1",6514000,43.0,6.0,32.0,2,16,25,empty,empty,empty,empty,empty,empty,empty,82.924014,55.077525,empty,empty,,,,Заельцовский,empty,1
nsk,"Новосибирск, улица Аэропорт, 23/1",7140000,44.07,15.8,16.4,1,9,18,empty,0,2024,monolith,empty,empty,1,82.9017,55.080236,2,1,"Заельцовская,Гагаринская,Сибирская","5,8,8","transport,transport,transport","Аэропорт,Заельцовский",0,0
nsk,"Новосибирск, улица Аэропорт",6910000,41.7,20.9,11.0,1,2,15,empty,0,2025,monolith,empty,empty,empty,82.90453591534391,55.08040439520254,1,1,"Заельцовская,Гагаринская,Сибирская","3,5,7","transport,transport,transport","Аэропорт,Заельцовский",0,0
nsk,"Новосибирск,Заельцовский район, Гастелло, 40",5200000,77.5,6.6,empty,3,2,2,1952,empty,empty,empty,empty,empty,1,82.903191,55.075958,empty,empty,Заельцовская,4,transport,"Аэропорт,Заельцовский",empty,1
nsk,"Новосибирск, улица Аэропорт",10890000,80.59,empty,empty,3,9,15,empty,0,2025,monolith,empty,empty,empty,82.90453591534391,55.08040439520254,1,1,"Заельцовская,Гагаринская,Сибирская","3,5,7","transport,transport,transport","Аэропорт,Заельцовский",0,0
nsk,"Новосибирск, Россия, Новосибирск, улица В. Высоцкого, 50/3",6300000,50.0,8.0,28.0,2,7,10,empty,empty,empty,empty,empty,empty,empty,83.025092,55.023816,empty,empty,,,,"Плющихинский,Октябрьский",empty,1
nsk,"Новосибирск, улица Аэропорт",10080000,73.87,empty,empty,3,2,15,empty,0,2025,monolith,empty,empty,empty,82.90453591534391,55.08040439520254,2,1,"Заельцовская,Гагаринская,Сибирская","3,5,7","transport,transport,transport","Аэропорт,Заельцовский",0,0
nsk,"Новосибирск, улица Виноградова",7238000,51.7,empty,empty,2,3,15,empty,0,2025,panel,empty,empty,empty,83.0858374332,54.9774724061,1,1,"Речной вокзал,Студенческая,Октябрьская","18,19,20","transport,transport,transport",Первомайский,0,0
nsk,"Новосибирск,Кировский, Пригородная, 9",5300000,42.5,13.6,empty,1,15,18,empty,empty,empty,empty,empty,empty,1,82.927212,54.975026,empty,empty,,,,Кировский,empty,1
nsk,"Новосибирск, Плановая улица",9300000,47.0,empty,empty,2,3,15,empty,0,2024,brick,empty,empty,empty,82.89370393254036,55.05591483673802,empty,2,"Заельцовская,Гагаринская,Красный Проспект","17,3,3","walk,transport,transport",Заельцовский,0,0
nsk,"Новосибирск,Ленинский, Дивногорская, 150/6",4800000,51.4,9.0,empty,2,3,6,2014,empty,empty,empty,empty,empty,1,82.809577,55.023852,empty,empty,,,,"Дивногорский,Ленинский",empty,1
nsk,"Новосибирск, Большевистская улица",17710000,115.4,empty,empty,3,17,17,empty,0,2026,monolith,empty,empty,empty,82.97490539552238,54.992681954827,1,1,,,,"Европейский Берег,Октябрьский",0,0
nsk,"Новосибирск, улица Королёва, 19",7547660,47.77,empty,empty,1,7,25,empty,0,2025,monolithBrick,empty,empty,empty,82.970196,55.051773,empty,3,"Березовая Роща,Золотая Нива,Маршала Покрышкина","20,5,5","walk,transport,transport",Дзержинский,0,0
nsk,"Новосибирск, г Новосибирск, ул Вавилова, д 3",6400000,44.8,11.1,18.1,1,13,19,empty,empty,empty,empty,empty,empty,1,82.895816,55.055197,empty,empty,,,,Заельцовский,empty,1
nsk,"Новосибирск, Плановая улица",8500000,41.8,4.2,24.0,2,5,8,empty,0,2024,brick,empty,empty,empty,82.89328014351551,55.055345142198355,empty,2,"Заельцовская,Гагаринская,Красный Проспект","18,4,4","walk,transport,transport",Заельцовский,0,0
nsk,"Новосибирск,Ленинский, Шоссейная 1-я, 62",5820000,37.6,11.3,empty,1,3,15,2022,empty,empty,empty,empty,empty,1,82.871849,55.011753,empty,empty,,,,Ленинский,empty,1
nsk,"Новосибирск, улица Аэропорт",6400000,37.5,6.2,18.7,1,13,17,empty,0,2024,brick,empty,empty,empty,82.9132546283109,55.0783588838795,empty,2,"Заельцовская,Сибирская,Гагаринская","6,6,7","transport,transport,transport",Заельцовский,0,0
nsk,"Новосибирск,Кировский, Николая Сотникова, 21",5300000,73.2,7.0,empty,3,10,18,2023,empty,empty,empty,empty,empty,1,82.973718,54.946131,empty,empty,,,,Кировский,empty,1
nsk,"Новосибирск, улица Тюленина, 3",5300000,35.17,11.6,12.4,1,8,21,empty,0,2025,monolithBrick,empty,empty,empty,82.95223,55.106706,empty,3,"Заельцовская,Березовая Роща,Маршала Покрышкина","11,13,14","transport,transport,transport","Родники,Калининский",0,0
nsk,"Новосибирск,Ленинский, Плахотного, 78/1",5500000,44.8,5.0,empty,1,9,17,2020,empty,empty,empty,empty,empty,1,82.8441,54.984966,empty,empty,,,,Ленинский,empty,1
nsk,"Новосибирск,Заельцовский район, Тимирязева, 70",5600000,42.9,5.9,empty,2,1,5,1968,empty,empty,empty,empty,empty,0,82.901421,55.057187,empty,empty,,,,Заельцовский,empty,1
nsk,"Новосибирск, улица Тюленина, 3",7350000,58.4,5.0,40.5,2,18,21,empty,0,2025,monolithBrick,empty,empty,empty,82.95223,55.106706,empty,3,"Заельцовская,Березовая Роща,Маршала Покрышкина","11,13,14","transport,transport,transport","Родники,Калининский",0,0
nsk,"Новосибирск,Ленинский, Шоссейная 1-я, 56",5500000,35.0,10.0,empty,1,4,15,2022,empty,empty,empty,empty,empty,1,82.871804,55.012161,empty,empty,,,,Ленинский,empty,1
nsk,"Новосибирск, Сухарная улица",8867430,62.01,empty,empty,2,25,28,empty,0,2025,monolithBrick,empty,empty,empty,82.8587245238,55.047147131,empty,5,"Площадь Гарина-Михайловского,Гагаринская,Заельцовская","6,8,8","transport,transport,transport",Заельцовский,0,0
nsk,"Новосибирск,Ленинский, Юности, 1",4500000,43.0,12.5,empty,1,5,12,2019,empty,empty,empty,empty,empty,1,82.807763,55.026804,empty,empty,,,,"Дивногорский,Ленинский",empty,1
nsk,"Новосибирск, Сухарная улица",4230240,25.18,empty,empty,1,24,28,empty,0,2025,monolithBrick,empty,empty,empty,82.8587245238027,55.047147130981,empty,5,"Площадь Гарина-Михайловского,Гагаринская,Заельцовская","6,8,8","transport,transport,transport",Заельцовский,0,0
nsk,"Новосибирск, г Новосибирск, ул Народная, д 44",5600000,47.0,7.0,29.0,2,3,5,empty,empty,empty,empty,empty,empty,1,82.965902,55.079174,empty,empty,,,,"Богдана Хмельницкого,Калининский",empty,1
nsk,"Новосибирск, улица Аэропорт, 60",6500000,43.1,10.8,19.8,1,9,17,empty,1,2023,brick,empty,empty,empty,82.911662,55.078061,empty,2,"Заельцовская,Сибирская,Гагаринская","5,6,7","transport,transport,transport",Заельцовский,0,0
nsk,"Новосибирск, улица Аэропорт",10890000,79.95,25.7,27.2,2,5,15,empty,0,2025,monolith,empty,empty,1,82.90453591534391,55.08040439520254,2,1,"Заельцовская,Гагаринская,Сибирская","3,5,7","transport,transport,transport","Аэропорт,Заельцовский",0,0
nsk,"Новосибирск,Ленинский, 9-ой Гвардейской дивизии, 15",4700000,44.1,8.0,empty,2,7,9,1983,empty,empty,empty,empty,empty,1,82.84631,54.966949,empty,empty,,,,"Юго-Западный,Ленинский",empty,1
nsk,"Новосибирск, Большевистская улица",9900000,66.6,34.0,14.4,1,5,17,empty,0,2026,monolith,empty,empty,1,82.97490539552238,54.992681954827,1,1,,,,"Европейский Берег,Октябрьский",0,0
nsk,"Новосибирск,Ленинский, Широкая, 1/1",5800000,50.0,6.3,31.0,2,7,13,1994,empty,empty,empty,empty,empty,1,82.869208,54.993391,empty,empty,,,,"Сад Кирова,Ленинский",empty,1
nsk,"Новосибирск, Большевистская улица",14600000,114.4,empty,empty,3,2,17,empty,0,2026,monolith,empty,empty,empty,82.97490539552238,54.992681954827,1,1,,,,"Европейский Берег,Октябрьский",0,0
nsk,"Новосибирск, улица Королёва, 19",4948700,29.11,empty,empty,1,13,25,empty,0,2025,monolithBrick,empty,empty,empty,82.970196,55.051773,empty,3,"Березовая Роща,Золотая Нива,Маршала Покрышкина","20,5,5","walk,transport,transport",Дзержинский,0,0
nsk,"Новосибирск, Плановая улица",12450000,72.1,empty,44.7,3,9,29,empty,0,2025,brick,empty,empty,empty,82.89282416798332,55.05593639255882,empty,4,"Заельцовская,Гагаринская,Красный Проспект","17,3,3","walk,transport,transport",Заельцовский,0,0
nsk,"Новосибирск,Ленинский, Забалуева, 102",5200000,47.8,13.0,empty,3,2,17,2023,empty,empty,empty,empty,empty,1,82.774676,54.987884,empty,empty,,,,Ленинский,empty,1
nsk,"Новосибирск, улица Лобачевского, 51/1",8780000,66.0,14.5,29.3,2,1,17,empty,0,2024,brick,empty,empty,empty,82.904125,55.122004,empty,empty,"Заельцовская,Гагаринская,Сибирская","13,16,16","transport,transport,transport",Заельцовский,0,0
nsk,"Новосибирск, Сухарная улица",11396910,77.53,empty,empty,3,16,28,empty,0,2025,monolithBrick,empty,empty,empty,82.8587245238,55.047147131,empty,5,"Площадь Гарина-Михайловского,Гагаринская,Заельцовская","6,8,8","transport,transport,transport",Заельцовский,0,0
nsk,"Новосибирск,Ленинский, Планировочная, 47/1",4990000,50.2,5.9,33.9,3,3,5,1975,empty,empty,empty,empty,empty,1,82.892025,54.996717,empty,empty,,,,Ленинский,empty,1
nsk,"Новосибирск, Кировский район, Северо-Чемской жилмассив, улица Аникина, 6",4710000,40.95,empty,empty,1,2,26,empty,0,2026,monolithBrick,underground,empty,empty,82.946202,54.965016,3,2,"Студенческая,Площадь Маркса,Речной вокзал","8,9,12","transport,transport,transport",Кировский,0,0
nsk,"Новосибирск,Ленинский, Волховская, 31",6100000,65.88,10.0,empty,2,10,16,empty,empty,empty,empty,empty,empty,0,82.836078,54.970897,empty,empty,,,,Ленинский,empty,1
nsk,"Новосибирск, улица Аэропорт",12440000,91.49,32.3,34.2,2,5,15,empty,0,2025,monolith,empty,empty,empty,82.90453591534391,55.08040439520254,2,1,"Заельцовская,Гагаринская,Сибирская","3,5,7","transport,transport,transport","Аэропорт,Заельцовский",0,0
nsk,"Новосибирск, Зыряновская улица, 53с",22730000,139.85,44.0,55.6,3,3,11,empty,0,2025,monolith,empty,empty,1,82.934659,55.012579,empty,1,,,,Октябрьский,0,0
nsk,"Новосибирск,Октябрьский, Зыряновская, 53",16100000,89.1,21.2,38.5,3,8,10,empty,empty,2025,empty,empty,empty,1,82.935827,55.012212,1,1,"Речной вокзал,Октябрьская,Площадь Ленина","5,12,5","walk,walk,transport","Восход,Октябрьский",empty,1
nsk,"Новосибирск, Кировский район, Северо-Чемской жилмассив, улица Аникина, 6",5980000,47.86,empty,empty,1,20,26,empty,0,2026,monolithBrick,underground,empty,empty,82.946202,54.965016,3,2,"Студенческая,Площадь Маркса,Речной вокзал","8,9,12","transport,transport,transport",Кировский,0,0
nsk,"Новосибирск,Ленинский, Титова, 264",5300000,32.5,8.8,empty,1,9,10,2016,empty,empty,empty,empty,empty,1,82.79401,54.980151,empty,empty,,,,Ленинский,empty,1
nsk,"Новосибирск, улица Тюленина, 3",7000000,55.46,5.0,35.7,2,13,21,empty,0,2025,monolithBrick,empty,empty,empty,82.95223,55.106706,empty,3,"Заельцовская,Березовая Роща,Маршала Покрышкина","11,13,14","transport,transport,transport","Родники,Калининский",0,0
nsk,"Новосибирск,Ленинский, Забалуева, 8",4900000,61.1,5.2,44.6,4,5,5,2024,empty,empty,empty,empty,empty,1,82.831559,54.991201,empty,empty,,,,"Западный,Ленинский",empty,1
nsk,"Новосибирск, Садовая улица, 17",12792750,70.0,12.5,41.3,3,5,19,empty,0,2025,monolithBrick,empty,empty,empty,82.933931,55.019367,empty,2,"Октябрьская,Речной вокзал,Площадь Ленина","8,19,4","walk,walk,transport",Октябрьский,0,0
nsk,"Новосибирск,Ленинский, Портовая 2-ая, 4",4500000,43.5,7.0,27.4,2,7,9,1987,empty,empty,empty,empty,empty,1,82.863387,55.026081,empty,empty,,,,Ленинский,empty,1
nsk,"Новосибирск, Садовая улица, 17",9592200,54.06,17.4,23.7,2,5,19,empty,0,2025,monolithBrick,empty,empty,empty,82.933931,55.019367,empty,2,"Октябрьская,Речной вокзал,Площадь Ленина","8,19,4","walk,walk,transport",Октябрьский,0,0
nsk,"Новосибирск,Заельцовский, Аэропорт, 23/1",8390000,69.74,10.0,40.0,2,5,18,empty,empty,2024,empty,empty,empty,1,82.9017,55.080236,1,1,"Заельцовская,Гагаринская,Сибирская","5,8,8","transport,transport,transport","Аэропорт,Заельцовский",empty,1
nsk,"Новосибирск, Кировский район, Северо-Чемской жилмассив, улица Аникина, 6",5730000,47.72,empty,empty,2,10,26,empty,0,2026,monolithBrick,underground,empty,empty,82.946202,54.965016,3,2,"Студенческая,Площадь Маркса,Речной вокзал","8,9,12","transport,transport,transport",Кировский,0,0
nsk,"Новосибирск,Кировский, Немировича-Данченко, 91",5400000,62.1,7.6,empty,3,9,9,1985,empty,empty,empty,empty,empty,1,82.885063,54.97222,empty,empty,,,,Кировский,empty,1
nsk,"Новосибирск, Большевистская улица",10660000,84.9,21.6,34.3,3,2,17,empty,0,2026,monolith,empty,empty,1,82.97490539552238,54.992681954827,1,1,,,,"Европейский Берег,Октябрьский",0,0
nsk,"Новосибирск, Большевистская улица",10520000,88.7,37.8,24.3,3,4,17,empty,0,2026,monolith,empty,empty,2,82.97490539552238,54.992681954827,1,1,,,,"Европейский Берег,Октябрьский",0,0
nsk,"Новосибирск,Ленинский, Серафимовича, 1/1",5999000,40.8,6.0,empty,2,2,5,1959,empty,empty,empty,empty,empty,1,82.880239,54.984987,empty,empty,,,,Ленинский,empty,1
nsk,"Новосибирск, Плановая улица",11800000,70.4,empty,39.8,3,4,29,empty,0,2025,brick,empty,empty,empty,82.89282416798332,55.05593639255882,empty,4,"Заельцовская,Гагаринская,Красный Проспект","17,3,3","walk,transport,transport",Заельцовский,0,0
nsk,"Новосибирск, Россия, Новосибирск, Рябиновая улица, 10",5000000,48.9,14.5,18.8,1,18,20,empty,empty,2024,empty,empty,empty,empty,83.027733,55.002341,empty,empty,"Золотая Нива,Речной вокзал,Октябрьская","8,9,9","transport,transport,transport","Энергостроителей,Октябрьский",empty,1
nsk,"Новосибирск, улица Лобачевского, 51/1",5030000,35.4,8.2,18.9,1,6,17,empty,0,2024,brick,empty,empty,empty,82.904125,55.122004,empty,empty,"Заельцовская,Гагаринская,Сибирская","13,16,16","transport,transport,transport",Заельцовский,0,0
nsk,"Новосибирск,Ленинский, Тихвинская, 14",4950000,36.9,8.0,empty,1,1,9,2011,empty,empty,empty,empty,empty,1,82.867636,54.976731,empty,empty,Площадь Маркса,5,transport,Ленинский,empty,1
nsk,"Новосибирск, Большевистская улица, 43/2с",8470000,52.19,21.0,13.5,1,11,24,empty,0,2025,monolith,empty,empty,1,82.977122,54.992301,2,1,,,,"Европейский Берег,Октябрьский",0,0
nsk,"Новосибирская область,Новосибирск,Забалуева,9 стр",2630000,25.4,4.0,15.0,1,7,17,empty,0,2025,monolith,empty,empty,empty,82.783661,54.98836,empty,empty,,,,Ленинский,empty,1
nsk,"Новосибирск, Большевистская улица, 43/2с",22340000,157.21,43.0,21.9,2,24,24,empty,0,2025,monolith,empty,empty,2,82.977122,54.992301,2,1,,,,"Европейский Берег,Октябрьский",0,0
nsk,"Новосибирск, улица Королёва, 19",9766080,67.82,empty,empty,2,16,25,empty,0,2025,monolithBrick,empty,empty,empty,82.970196,55.051773,empty,3,"Березовая Роща,Золотая Нива,Маршала Покрышкина","20,5,5","walk,transport,transport",Дзержинский,0,0
nsk,"Новосибирск, улица Ленина, 85",4202100,18.27,empty,empty,1,7,8,empty,0,2025,monolithBrick,empty,empty,empty,82.8939122453668,55.0406186828574,empty,2,"Площадь Гарина-Михайловского,Красный Проспект,Сибирская","8,4,4","walk,transport,transport",Железнодорожный,1,0
nsk,"Новосибирск,Кировский, Немировича-Данченко, 145/1",6700000,38.5,14.8,11.2,2,6,24,empty,empty,2024,empty,empty,empty,0,82.911509,54.979382,1,1,"Студенческая,Площадь Маркса,Речной вокзал","16,17,7","walk,walk,transport",Кировский,empty,1
nsk,"Новосибирск, улица Владимира Заровного, 29",9900000,54.29,16.2,16.1,2,9,9,empty,0,2025,monolith,empty,empty,1,82.967636,54.99038,1,1,,,,"Европейский Берег,Октябрьский",0,0
nsk,"Новосибирск, Кировский район, Северо-Чемской жилмассив, улица Аникина, 6",11860000,107.78,empty,empty,3,11,26,empty,0,2026,monolithBrick,underground,empty,empty,82.946202,54.965016,3,2,"Студенческая,Площадь Маркса,Речной вокзал","8,9,12","transport,transport,transport",Кировский,0,0
nsk,"Новосибирск, Плановая улица",15145200,86.6,empty,empty,4,6,9,empty,0,2024,brick,empty,empty,empty,82.89442276455559,55.05607188605751,empty,2,"Заельцовская,Гагаринская,Красный Проспект","17,3,3","walk,transport,transport",Заельцовский,0,0
nsk,"Новосибирск,Дзержинский, Коминтерна, 1",5280000,39.5,5.2,27.2,2,1,15,empty,empty,2024,empty,empty,empty,0,83.0247063558196,55.0427704475411,1,1,"Золотая Нива,Березовая Роща,Маршала Покрышкина","7,9,10","transport,transport,transport",Дзержинский,empty,1
nsk,"Новосибирск, Большевистская улица",8520000,69.7,20.9,26.1,2,4,17,empty,0,2026,monolith,empty,empty,2,82.97490539552238,54.992681954827,1,1,,,,"Европейский Берег,Октябрьский",0,0
nsk,"Новосибирская область, Новосибирск, ул Фабричная, 8",4999000,59.0,11.0,31.0,2,5,6,empty,empty,empty,empty,empty,empty,1,82.917905,55.017767,empty,empty,,,,Железнодорожный,empty,0
nsk,"Новосибирск, улица Лобачевского, 51/1",6800000,55.9,4.7,36.9,2,2,17,empty,0,2024,brick,empty,empty,empty,82.904125,55.122004,empty,empty,"Заельцовская,Гагаринская,Сибирская","13,16,16","transport,transport,transport",Заельцовский,0,0
nsk,"Новосибирская область, Новосибирск, ул Тимирязева, 97",42000000,133.19,16.7,72.1,4,4,15,empty,empty,empty,empty,empty,empty,1,82.904511,55.058064,1,1,,,,"Ботанический,Заельцовский",empty,0
nsk,"Новосибирск, Арктическая улица",11900000,60.5,6.7,25.4,2,4,4,empty,0,2025,brick,empty,empty,empty,82.8965689068704,55.1189315190956,empty,2,"Заельцовская,Гагаринская,Сибирская","12,15,15","transport,transport,transport",Заельцовский,0,0
nsk,"Россия, Новосибирск, Ленинский район, микрорайон Горский, 8",8100000,57.6,12.4,31.0,2,4,18,2008,empty,empty,monolithBrick,ground,empty,1,82.909434,54.994997,1,1,"Студенческая,Площадь Маркса,Речной вокзал","10,4,5","walk,transport,transport","Горский,Ленинский",0,0
nsk,"Новосибирск, Междуреченская улица, 5/2",7100000,56.43,4.8,36.5,2,23,25,empty,1,2024,panel,empty,empty,empty,82.857889,55.023294,empty,empty,"Площадь Гарина-Михайловского,Красный Проспект,Площадь Ленина","11,12,13","transport,transport,transport",Ленинский,0,0
nsk,"Новосибирская область, Новосибирск г., Ленинский, Ивана Севастьянова ул., д.7",6100000,55.0,11.5,27.3,2,12,17,empty,empty,empty,monolith,empty,empty,0,82.8327,54.966282,2,empty,Площадь Маркса,10,transport,Ленинский,empty,0
nsk,"Новосибирск, Междуреченская улица, 5/2",8000000,65.43,5.2,45.2,3,17,25,empty,1,2024,panel,empty,empty,empty,82.857889,55.023294,empty,empty,"Площадь Гарина-Михайловского,Красный Проспект,Площадь Ленина","11,12,13","transport,transport,transport",Ленинский,0,0
nsk,"Новосибирск, Россия, Новосибирск, Линейная улица, 31/3",7850000,59.1,7.0,44.4,3,3,9,empty,empty,empty,empty,empty,empty,empty,82.903514,55.049282,empty,empty,,,,"Линейный,Заельцовский",empty,0
nsk,"Новосибирск, Красный проспект",8800000,64.2,11.7,28.3,2,5,15,empty,0,2025,monolithBrick,empty,empty,empty,82.9113660198492,55.07576611118534,empty,1,"Заельцовская,Сибирская,Гагаринская","4,7,8","transport,transport,transport","Аэропорт,Заельцовский",0,0
nsk,"Новосибирск, г Новосибирск, ул Авиастроителей, д 2",6200000,79.0,15.0,46.0,3,2,6,empty,empty,empty,empty,empty,empty,1,82.968921,55.070438,empty,empty,,,,"Авиастроителей,Дзержинский",empty,0
nsk,"Новосибирск, улица Костычева",6800000,34.1,empty,empty,2,24,25,empty,0,2025,monolithBrick,empty,empty,empty,82.877884408736,54.9766155272396,empty,2,"Площадь Маркса,Студенческая,Речной вокзал","18,4,8","walk,transport,transport",Ленинский,0,0
nsk,"Россия, Новосибирская область, г. Новосибирск, Октябрьский, ул. Кирова, 50",52000000,215.2,50.0,156.0,2,24,25,2022,empty,empty,monolith,ground,empty,2,82.941333,55.0174,2,2,Октябрьская,2,walk,Октябрьский,empty,0
nsk,"Новосибирск, Октябрьский район, микрорайон Закаменский",7509150,45.51,empty,empty,1,22,29,empty,0,2026,monolithBrick,empty,empty,empty,82.9544128696937,55.0380166146021,1,empty,"Березовая Роща,Золотая Нива,Маршала Покрышкина","11,18,6","walk,walk,transport","Фрунзенский,Дзержинский",0,0
nsk,"630001, Новосибирская обл, г Новосибирск, Заельцовский р-н, ул Сухарная, д 96/3",13100000,121.6,10.5,68.0,4,20,20,2021,empty,empty,monolithBrick,empty,empty,2,82.865794,55.046455,1,1,,,,Заельцовский,0,0
nsk,"Новосибирск, Заельцовский район, микрорайон Аэропорт, жилой комплекс Авиатор",8410000,50.58,20.6,17.3,1,3,7,empty,0,2024,monolith,empty,empty,1,82.901673,55.079617,empty,1,"Заельцовская,Сибирская,Гагаринская","4,7,8","transport,transport,transport","Аэропорт,Заельцовский",0,0
nsk,"Россия, Новосибирск, Трудовая улица, 15",6500000,37.1,6.4,24.3,2,8,9,1971,empty,empty,brick,ground,empty,empty,82.929116,55.032846,1,empty,"Площадь Ленина,Красный Проспект,Сибирская","8,17,17","walk,walk,walk",Центральный,0,0
nsk,"Новосибирск, улица Ленина, 85",5595900,24.33,empty,empty,1,3,8,empty,0,2025,monolithBrick,empty,empty,empty,82.8939122454,55.0406186829,empty,2,"Площадь Гарина-Михайловского,Красный Проспект,Сибирская","8,4,4","walk,transport,transport",Железнодорожный,1,0
nsk,"Новосибирская область, Новосибирск, ул Сухарная, 96",6180000,46.6,13.5,18.8,1,2,17,empty,empty,empty,empty,empty,empty,1,82.863512,55.047368,empty,empty,,,,Заельцовский,empty,0
nsk,"Новосибирск, Плановая улица",13100000,86.5,7.4,49.3,4,1,16,empty,0,2024,brick,empty,empty,empty,82.89398824669586,55.056395221430705,empty,empty,"Заельцовская,Гагаринская,Красный Проспект","19,3,3","walk,transport,transport",Заельцовский,0,0
nsk,"Новосибирская область, Новосибирск, ул Республиканская, 12",5800000,75.0,8.5,51.0,3,5,5,empty,empty,empty,empty,empty,empty,2,82.982791,55.073907,empty,empty,,,,"Авиастроителей,Дзержинский",empty,0
nsk,"Новосибирск, Садовая улица, 17",18693000,104.88,13.5,62.7,3,2,19,empty,0,2025,monolithBrick,empty,empty,empty,82.933931,55.019367,empty,2,"Октябрьская,Речной вокзал,Площадь Ленина","8,19,4","walk,walk,transport",Октябрьский,0,0
nsk,"Россия, Новосибирск, Степная улица, 47",4620000,45.0,empty,empty,2,5,5,1970,empty,empty,empty,ground,empty,1,82.869333,54.975904,0,0,"Площадь Маркса,Студенческая,Речной вокзал","5,6,10","transport,transport,transport",Ленинский,0,0
nsk,"Новосибирск, Садовая улица, 17",10552500,59.7,16.2,26.6,2,5,19,empty,0,2025,monolithBrick,empty,empty,empty,82.933931,55.019367,empty,2,"Октябрьская,Речной вокзал,Площадь Ленина","8,19,4","walk,walk,transport",Октябрьский,0,0
nsk,"Новосибирская область, Новосибирск городской округ, Новосибирск, Большевистская ул, 108",10999000,80.0,10.7,44.0,3,5,10,empty,empty,empty,monolithBrick,empty,empty,0,82.97149,54.992353,empty,empty,,,,"Европейский Берег,Октябрьский",empty,0
nsk,"Новосибирск, улица Аэропорт",7980000,50.4,9.6,25.4,2,3,17,empty,0,2024,brick,empty,empty,empty,82.9132546283109,55.0783588838795,empty,2,"Заельцовская,Сибирская,Гагаринская","6,6,7","transport,transport,transport",Заельцовский,0,0
nsk,"Новосибирская область, Новосибирск, Гоголя, 206/1",5290000,42.0,11.0,empty,1,13,13,1991,empty,empty,brick,empty,empty,empty,82.968939,55.048193,empty,empty,,,,Дзержинский,empty,0
nsk,"Новосибирск, улица Лобачевского, 53/2",6430000,49.0,6.5,33.6,1,6,17,empty,0,2024,brick,empty,empty,empty,82.902715,55.122328,empty,empty,"Заельцовская,Гагаринская,Сибирская","13,16,16","transport,transport,transport",Заельцовский,0,0
nsk,"Новосибирск, улица Гоголя, 26",7200000,40.0,10.0,17.0,1,22,28,2018,empty,empty,brick,multilevel,empty,0,82.926709,55.042473,2,2,"Маршала Покрышкина,Сибирская,Красный Проспект","6,7,9","walk,walk,walk","Центральный рынок,Центральный",0,0
nsk,"Новосибирск, Арктическая улица",11800000,65.0,23.1,23.6,2,1,4,empty,0,2025,brick,empty,empty,empty,82.8965689068704,55.1189315190956,empty,2,"Заельцовская,Гагаринская,Сибирская","12,15,15","transport,transport,transport",Заельцовский,0,0
nsk,"630082, Новосибирская обл, г Новосибирск, Заельцовский р-н, ул М.Перевозчикова, д 3",5500000,44.5,5.4,31.4,2,5,5,empty,empty,empty,panel,empty,empty,empty,82.908859,55.059791,empty,empty,,,,Заельцовский,0,0
nsk,"Новосибирск, Ленинградская улица, 104",7200000,37.35,12.0,15.7,1,17,24,empty,0,2026,monolithBrick,empty,empty,empty,82.957593,55.013152,1,3,"Октябрьская,Речной вокзал,Золотая Нива","16,20,7","walk,walk,transport",Октябрьский,0,0
nsk,"Россия, Новосибирск, улица Тюленина, 28",7300000,69.3,13.6,32.1,2,14,24,2015,empty,empty,brick,ground,empty,1,82.933716,55.112201,2,2,"Заельцовская,Красный Проспект,Гагаринская","10,13,14","transport,transport,transport","Родники,Калининский",0,0
nsk,"Новосибирск, улица Аэропорт, 23/1",8670000,52.63,22.7,12.6,1,3,18,empty,0,2024,monolith,empty,empty,1,82.9017,55.080236,2,1,"Заельцовская,Гагаринская,Сибирская","5,8,8","transport,transport,transport","Аэропорт,Заельцовский",0,0
nsk,"Россия, Новосибирск, Красный проспект, 11",10000000,71.2,6.0,53.1,4,6,7,1933,empty,empty,brick,ground,empty,2,82.921687,55.023284,1,empty,"Площадь Ленина,Октябрьская,Красный Проспект","9,15,4","walk,walk,transport",Центральный,0,0
nsk,"Новосибирск, Зыряновская улица, 51 стр.",11080000,57.84,empty,empty,2,10,24,empty,0,2024,monolith,empty,empty,empty,82.935827,55.012212,2,1,,,,Октябрьский,0,0
nsk,"Новосибирская обл, Новосибирск г, Спортивная ул, 23",3260000,36.0,9.0,16.5,1,6,10,empty,empty,empty,empty,empty,empty,empty,82.791692,54.98274,1,empty,,,,Ленинский,0,0
nsk,"Новосибирск, улица Аэропорт, 60",9050000,60.2,4.7,43.4,3,1,17,empty,1,2023,brick,empty,empty,empty,82.911662,55.078061,empty,2,"Заельцовская,Сибирская,Гагаринская","5,6,7","transport,transport,transport",Заельцовский,0,0
nsk,"Новосибирск, улица Кропоткина, 92/1",5700000,44.6,5.8,31.1,2,2,5,empty,empty,empty,panel,empty,empty,empty,82.908015,55.052969,empty,empty,,,,Заельцовский,0,0
nsk,"Новосибирск, улица Декабристов, 107/7",12980000,84.56,empty,empty,3,17,17,empty,0,2025,monolith,empty,empty,empty,82.954467,55.00753,1,1,,,,Октябрьский,0,0
nsk,"Новосибирск, Россия, Новосибирск, Кавалерийская улица, 3/1",7800000,73.6,13.3,40.4,2,6,25,empty,empty,empty,empty,empty,empty,empty,82.917483,55.057053,empty,empty,,,,Заельцовский,empty,0
nsk,"Новосибирск, Ленинградская улица, 104",6850000,42.64,7.1,23.9,2,9,24,empty,0,2026,monolithBrick,empty,empty,empty,82.957593,55.013152,1,3,"Октябрьская,Речной вокзал,Золотая Нива","16,20,7","walk,walk,transport",Октябрьский,0,0
nsk,"Новосибирская область, Новосибирск, мкр Горский, 73",6000000,39.4,13.8,20.6,2,8,16,empty,empty,empty,empty,empty,empty,0,82.888234,54.995008,empty,empty,,,,"Горский,Ленинский",empty,0
nsk,"Новосибирск, улица Аэропорт, 62",7600000,50.6,10.9,22.4,2,8,17,empty,1,2023,brick,empty,empty,empty,82.912686,55.078205,empty,2,"Заельцовская,Сибирская,Гагаринская","6,6,7","transport,transport,transport",Заельцовский,0,0
nsk,"Новосибирск, улица Забалуева, 60",5750000,61.2,8.0,37.8,3,10,10,1992,empty,empty,brick,empty,empty,empty,82.813503,54.989765,empty,1,,,,"Западный,Ленинский",0,0
nsk,"Новосибирск, 1-я Чулымская улица",5850000,33.96,empty,empty,1,5,19,empty,0,2025,monolith,empty,empty,empty,82.9012057367984,55.0135182781523,empty,2,"Сибирская,Площадь Маркса,Маршала Покрышкина","5,5,6","transport,transport,transport","Лесоперевалка,Ленинский",0,0
nsk,"Новосибирская область, Новосибирск, ясный берег, 25",5800000,43.2,13.0,empty,1,8,17,2021,empty,empty,panel,empty,empty,empty,82.896885,55.014768,empty,empty,,,,"Лесоперевалка,Ленинский",empty,0
nsk,"Новосибирск, Зыряновская улица, 53с",14970000,69.0,17.0,32.3,2,8,11,empty,0,2025,monolith,empty,empty,empty,82.934659,55.012579,1,1,,,,Октябрьский,0,0
nsk,"Россия, Новосибирск, улица В. Высоцкого, 40/2",3090000,32.5,empty,18.0,1,1,10,2012,empty,empty,panel,ground,empty,0,83.025452,55.034993,1,1,"Золотая Нива,Березовая Роща,Маршала Покрышкина","7,10,11","transport,transport,transport","МЖК Восточный,Октябрьский",0,0
nsk,"Новосибирск, Междуреченская улица",4446000,34.65,4.8,21.0,1,10,17,empty,1,2023,panel,empty,empty,empty,82.8549642844383,55.0238828821945,empty,empty,"Площадь Ленина,Красный Проспект,Площадь Гарина-Михайловского","13,13,14","transport,transport,transport",Ленинский,0,0
nsk,"Новосибирск, Россия, Новосибирск, улица Гаранина, 21",9700000,65.9,7.1,39.4,3,7,9,empty,empty,empty,empty,empty,empty,empty,82.968912,55.02798,empty,empty,,,,Октябрьский,empty,0
nsk,"Новосибирск, Ленинградская улица, 104",7650000,46.29,5.1,28.8,2,17,24,empty,0,2026,monolithBrick,empty,empty,empty,82.957593,55.013152,1,3,"Октябрьская,Речной вокзал,Золотая Нива","16,20,7","walk,walk,transport",Октябрьский,0,0
nsk,"Новосибирская область, Новосибирск, ул Ватутина, 11",7300000,58.1,7.0,30.0,3,5,9,empty,empty,empty,empty,empty,empty,0,82.88756,54.98868,empty,empty,,,,Ленинский,empty,0
nsk,"Новосибирск, улица Объединения, 28",9900000,85.9,14.1,55.3,2,15,15,empty,0,2024,panel,empty,empty,empty,82.953389,55.09286,1,1,,,,Калининский,0,0
nsk,"Новосибирск, г Новосибирск, ул Лазурная, д 2",3600000,35.0,9.0,empty,1,1,10,empty,empty,empty,empty,empty,empty,empty,83.00426,55.033047,empty,empty,,,,"МЖК Восточный,Октябрьский",empty,0
nsk,"Новосибирск, Кировский район, Северо-Чемской жилмассив, улица Аникина, 6",15530000,147.86,empty,empty,4,25,26,empty,0,2026,monolithBrick,underground,empty,empty,82.946202,54.965016,3,2,"Студенческая,Площадь Маркса,Речной вокзал","8,9,12","transport,transport,transport",Кировский,0,0
nsk,"630037, Новосибирская обл, г Новосибирск, Первомайский р-н, ул Марии Ульяновой, д 23",4900000,34.0,11.0,14.5,1,4,5,2012,empty,empty,brick,empty,empty,empty,83.091622,54.977609,empty,empty,Речной вокзал,19,transport,Первомайский,0,0
nsk,"Новосибирск, улица Виноградова",15500000,137.7,empty,empty,6,15,15,empty,0,2025,panel,empty,empty,empty,83.085837433203,54.9774724060908,1,1,"Речной вокзал,Студенческая,Октябрьская","18,19,20","transport,transport,transport",Первомайский,0,0
nsk,"Новосибирская область, Новосибирск, Игарская, 19/3",7200000,61.0,6.0,empty,3,11,23,2024,empty,empty,monolithBrick,empty,empty,empty,82.942304,55.100366,empty,empty,,,,Калининский,empty,0
nsk,"Новосибирск, Ленинградская улица, 104",5800000,29.03,6.3,15.0,1,3,24,empty,0,2026,monolithBrick,empty,empty,empty,82.957593,55.013152,1,3,"Октябрьская,Речной вокзал,Золотая Нива","16,20,7","walk,walk,transport",Октябрьский,0,0
nsk,"Новосибирск, улица Гоголя, 223",4590000,43.9,5.7,29.6,2,5,5,empty,empty,empty,brick,empty,empty,empty,82.972676,55.051608,empty,empty,,,,Дзержинский,0,0
nsk,"Новосибирск, Октябрьский район, микрорайон Закаменский",9555700,62.05,empty,empty,2,13,29,empty,0,2026,monolithBrick,empty,empty,empty,82.9544128697,55.0380166146,1,empty,"Березовая Роща,Золотая Нива,Маршала Покрышкина","11,18,6","walk,walk,transport","Фрунзенский,Дзержинский",0,0
nsk,"Новосибирская область, Новосибирск, ул Лесосечная, 4",4400000,45.9,7.0,28.5,2,2,9,empty,empty,empty,empty,empty,empty,0,83.080644,54.890143,empty,empty,,,,"Нижняя Ельцовка,Советский",empty,0
nsk,"Новосибирск, Плановая улица",8000000,37.7,6.8,17.2,1,4,8,empty,0,2024,brick,empty,empty,empty,82.8932801435,55.0553451422,empty,2,"Заельцовская,Гагаринская,Красный Проспект","18,4,4","walk,transport,transport",Заельцовский,0,0
nsk,"Новосибирская область, Новосибирск, ул Сибиряков-Гвардейцев, 82",3720000,38.0,10.2,16.0,1,9,10,empty,empty,empty,empty,empty,empty,0,82.893462,54.933031,1,empty,,,,"Затулинский,Кировский",empty,0
nsk,"Новосибирск, Зыряновская улица, 53с",21620000,108.8,empty,empty,3,4,11,empty,0,2025,monolith,empty,empty,empty,82.934659,55.012579,empty,1,,,,Октябрьский,0,0
nsk,"Новосибирск, Россия, Новосибирск, улица Аэропорт, 1/5",7800000,48.4,5.1,30.0,1,12,16,empty,empty,empty,empty,empty,empty,empty,82.904889,55.081576,empty,empty,,,,Заельцовский,empty,0
nsk,"Новосибирск, улица Аэропорт",11400000,79.7,8.7,53.6,3,8,17,empty,0,2024,brick,empty,empty,empty,82.9132546283109,55.0783588838795,empty,2,"Заельцовская,Сибирская,Гагаринская","6,6,7","transport,transport,transport",Заельцовский,0,0
nsk,"Новосибирск, Россия, Новосибирск, Красный проспект, 220/7",8800000,37.1,12.4,19.7,1,7,17,empty,empty,empty,empty,empty,empty,1,82.914537,55.069494,empty,empty,,,,Заельцовский,empty,0
nsk,"Новосибирск, улица Семьи Шамшиных, с91",12390000,72.75,27.7,12.8,1,15,17,empty,0,2026,monolith,empty,empty,1,82.9250394305444,55.0480851216228,empty,2,"Гагаринская,Сибирская,Маршала Покрышкина","9,10,10","walk,walk,walk",Центральный,0,0
nsk,"Новосибирск, Россия, Новосибирск, Октябрьский район, микрорайон Закаменский, 14",12700000,80.1,11.0,48.3,3,14,18,empty,empty,empty,empty,empty,empty,empty,82.956488,55.036901,empty,empty,,,,Октябрьский,empty,0
nsk,"Новосибирск, улица Декабристов, 107/7",13200000,86.0,empty,empty,3,17,17,empty,0,2025,monolith,empty,empty,empty,82.954467,55.00753,1,1,,,,Октябрьский,0,0
nsk,ул. Героев Революции 23/1,7000000,69.9,10.4,36.3,2,2,9,empty,empty,empty,brick,empty,empty,0,83.085827,54.974871,1,empty,,,,Первомайский,0,0
nsk,"Новосибирск, Октябрьский район, микрорайон Закаменский",8718240,53.16,empty,empty,2,11,29,empty,0,2026,monolithBrick,empty,empty,empty,82.9544128696937,55.0380166146021,1,empty,"Березовая Роща,Золотая Нива,Маршала Покрышкина","11,18,6","walk,walk,transport","Фрунзенский,Дзержинский",0,0
nsk,"Новосибирск, улица Кузьмы Минина, 13",5000000,52.9,6.4,35.9,3,3,3,empty,empty,empty,brick,empty,empty,empty,82.934695,55.075484,empty,empty,,,,Заельцовский,0,0
nsk,"Новосибирск, Сухарная улица, 105/1",10984400,78.46,empty,empty,2,12,29,empty,0,2025,monolithBrick,empty,empty,empty,82.8597456197,55.0463747175,empty,empty,"Гагаринская,Заельцовская,Красный Проспект","5,5,6","transport,transport,transport",Заельцовский,0,0
nsk,"Россия, Новосибирск, Заельцовский, ул. Красный проспект , д. 220",8600000,43.0,12.0,14.0,1,3,15,empty,0,2024,monolithBrick,empty,empty,empty,82.9117440675,55.068377747,empty,empty,"Заельцовская,Гагаринская,Сибирская","15,3,4","walk,transport,transport",Заельцовский,empty,0
nsk,"Новосибирск, Кировский район, Северо-Чемской жилмассив, улица Аникина, 6",9000000,75.65,empty,empty,3,25,26,empty,0,2026,monolithBrick,underground,empty,empty,82.946202,54.965016,3,2,"Студенческая,Площадь Маркса,Речной вокзал","8,9,12","transport,transport,transport",Кировский,0,0
nsk,"Новосибирск, Дачное шоссе, 22/2",44900000,154.2,empty,empty,4,7,9,2020,empty,empty,monolithBrick,underground,empty,1,82.805652,55.085925,1,empty,"Заельцовская,Площадь Гарина-Михайловского,Гагаринская","18,18,19","transport,transport,transport",Заельцовский,0,0
nsk,"Новосибирск, Большевистская улица",10520000,88.7,37.8,24.3,2,5,17,empty,0,2026,monolith,empty,empty,2,82.97490539552238,54.992681954827,1,1,,,,"Европейский Берег,Октябрьский",0,0
nsk,"Новосибирск, улица Виктора Шевелёва, 36",4700000,63.1,12.1,36.4,2,9,11,2022,empty,empty,empty,ground,empty,empty,82.970951,54.947781,empty,empty,"Студенческая,Площадь Маркса,Речной вокзал","13,14,17","transport,transport,transport",Кировский,0,0
nsk,"Новосибирск, улица Декабристов, 10к8",40800000,242.18,empty,empty,3,10,10,empty,1,2022,monolith,empty,empty,empty,82.955482,55.006482,1,1,,,,Октябрьский,0,0
nsk,"Россия, Новосибирск, улица Серафимовича, 30/2",9400000,64.0,13.0,empty,2,8,9,2010,empty,empty,brick,multilevel,empty,empty,82.87943,54.976003,1,empty,"Площадь Маркса,Студенческая,Речной вокзал","16,5,10","walk,transport,transport",Ленинский,0,0
nsk,"Новосибирск, улица Объединения, 28",9090000,78.7,5.1,51.1,2,15,15,empty,0,2024,panel,empty,empty,empty,82.953389,55.09286,1,1,,,,Калининский,0,0
nsk,"Новосибирск,Ленинский, Котовского, 10/1",6450000,65.6,10.3,empty,2,2,10,2003,empty,empty,empty,empty,empty,1,82.881164,54.994181,empty,empty,,,,Ленинский,empty,0
nsk,"Новосибирск, Арктическая улица",18500000,102.0,13.8,40.3,3,4,4,empty,0,2025,brick,empty,empty,empty,82.8965689068704,55.1189315190956,empty,2,"Заельцовская,Гагаринская,Сибирская","12,15,15","transport,transport,transport",Заельцовский,0,0
nsk,"Новосибирская область, Новосибирск, улица Кропоткина, д.118/6",8000000,84.3,12.8,40.0,3,2,9,1982,empty,empty,empty,empty,empty,empty,82.928829,55.053021,empty,empty,"Гагаринская,Маршала Покрышкина","14,16","walk,walk","Кропоткинский,Заельцовский",0,0
nsk,"Новосибирск, Октябрьский район, микрорайон Закаменский, 23/1",7085014,37.63,empty,empty,1,8,25,empty,1,2024,monolithBrick,empty,empty,empty,82.956344,55.037789,empty,4,"Березовая Роща,Золотая Нива,Маршала Покрышкина","11,17,6","walk,walk,transport",Дзержинский,0,0
nsk,"Новосибирск,Ленинский, Немировича-Данченко, 2б",6400000,53.0,14.0,26.0,2,9,17,2017,empty,empty,empty,empty,empty,1,82.850783,54.973238,empty,empty,,,,"Юго-Западный,Ленинский",empty,0
nsk,"Новосибирск, улица Виноградова",8670000,72.1,empty,empty,4,11,15,empty,0,2025,panel,empty,empty,empty,83.085837433203,54.9774724060908,1,1,"Речной вокзал,Студенческая,Октябрьская","18,19,20","transport,transport,transport",Первомайский,0,0
nsk,"Новосибирск,Октябрьский, Бориса Богаткова, 163/8",5300000,44.1,5.8,30.0,2,5,9,1972,empty,empty,empty,empty,empty,1,82.969127,55.031907,empty,empty,,,,Октябрьский,empty,0
nsk,"Новосибирск, улица Костычева",9300000,52.4,empty,empty,3,15,25,empty,0,2025,monolithBrick,empty,empty,empty,82.877884408736,54.9766155272396,empty,2,"Площадь Маркса,Студенческая,Речной вокзал","18,4,8","walk,transport,transport",Ленинский,0,0
nsk,"Новосибирск,Октябрьский, Чехова, 388",4990000,71.6,49.8,empty,3,2,3,1958,empty,empty,empty,empty,empty,0,82.986707,55.00342,empty,empty,,,,Октябрьский,empty,0
nsk,"Новосибирск, Сухарная улица, 105/1",13897000,106.9,empty,empty,3,13,29,empty,0,2025,monolithBrick,empty,empty,empty,82.8597456197,55.0463747175,empty,empty,"Гагаринская,Заельцовская,Красный Проспект","5,5,6","transport,transport,transport",Заельцовский,0,0
nsk,"Новосибирская область, Новосибирск, улица Виталия Потылицына, д.11/1",5550000,58.7,12.3,33.8,2,10,10,2016,empty,empty,empty,empty,empty,1,83.008069,55.018169,empty,empty,,,,"Плющихинский,Октябрьский",0,0
nsk,"Новосибирск, Октябрьский район, микрорайон Закаменский, 23/1",15728504,101.2,empty,empty,5,20,25,empty,1,2024,monolithBrick,empty,empty,empty,82.956344,55.037789,empty,4,"Березовая Роща,Золотая Нива,Маршала Покрышкина","11,17,6","walk,walk,transport",Дзержинский,0,0
nsk,"Россия, Новосибирск, Ипподромская улица, 44",8070000,58.1,10.3,33.1,2,10,16,2007,empty,empty,brick,ground,empty,1,82.938836,55.057987,1,1,"Маршала Покрышкина,Гагаринская,Березовая Роща","19,20,4","walk,walk,transport",Калининский,0,0
nsk,"Новосибирск, улица Костычева",15000000,81.6,empty,empty,4,25,25,empty,0,2025,monolithBrick,empty,empty,empty,82.877884408736,54.9766155272396,empty,2,"Площадь Маркса,Студенческая,Речной вокзал","18,4,8","walk,transport,transport",Ленинский,0,0
nsk,"Новосибирск,Калининский, 1-ый Краснодонский пер., 3",5450000,40.0,8.0,empty,1,4,5,1947,empty,empty,empty,empty,empty,0,82.95479,55.074726,empty,empty,,,,"Богдана Хмельницкого,Калининский",empty,0
nsk,"Новосибирск, Зыряновская улица, 51 стр.",11080000,57.46,19.1,13.9,1,12,24,empty,0,2024,monolith,empty,empty,empty,82.935827,55.012212,2,1,,,,Октябрьский,0,0
nsk,"Новосибирск,Октябрьский, Бориса Богаткова, 171/5",6700000,47.7,7.6,empty,2,6,12,1976,empty,empty,empty,empty,empty,1,82.96972,55.034606,empty,empty,,,,Октябрьский,empty,0
nsk,"Новосибирск, улица Костычева",13500000,88.4,empty,empty,4,2,25,empty,0,2025,monolithBrick,empty,empty,empty,82.8778844087,54.9766155272,empty,2,"Площадь Маркса,Студенческая,Речной вокзал","18,4,8","walk,transport,transport",Ленинский,0,0
nsk,"Новосибирск,Октябрьский, Бориса Богаткова, 219",6999000,43.0,6.9,empty,2,3,9,1973,empty,empty,empty,empty,empty,1,82.975047,55.037582,empty,empty,Золотая Нива,4,walk,Октябрьский,empty,0
nsk,"Новосибирск, Кировский район, Северо-Чемской жилмассив, улица Аникина, 6",12340000,107.31,empty,empty,3,19,26,empty,0,2026,monolithBrick,underground,empty,empty,82.946202,54.965016,3,2,"Студенческая,Площадь Маркса,Речной вокзал","8,9,12","transport,transport,transport",Кировский,0,0
nsk,"Новосибирская область, Новосибирск, улица Приморская, 24",7050000,63.9,12.5,38.4,2,13,25,empty,empty,empty,monolithBrick,empty,empty,1,82.994756,54.861653,1,1,,,,Советский,0,0
nsk,"Новосибирск, Бронная улица",4569000,40.7,13.9,12.3,1,13,17,empty,0,2024,panel,empty,without,empty,82.9673106772437,54.9485303162234,1,1,"Студенческая,Площадь Маркса,Речной вокзал","9,9,10","transport,transport,transport",Кировский,0,0
nsk,"Россия, Новосибирск, Народная улица, 54",4550000,36.1,8.2,18.1,1,2,10,2008,empty,empty,brick,empty,empty,0,82.970762,55.081519,1,1,"Заельцовская,Березовая Роща,Маршала Покрышкина","9,9,10","transport,transport,transport","Богдана Хмельницкого,Калининский",empty,0
nsk,"Новосибирск, Калининский район, микрорайон Пашино, Новоуральская улица",4642000,38.0,empty,empty,2,2,9,empty,0,2025,panel,empty,empty,empty,82.95043118113583,55.17430893833999,empty,2,"Заельцовская,Березовая Роща,Сибирская","25,28,28","transport,transport,transport",Калининский,0,0
nsk,"Новосибирск, улица Королёва",4600000,30.16,empty,empty,1,13,22,empty,0,2026,monolithBrick,empty,empty,empty,82.97006613889985,55.0461219275622,empty,2,"Золотая Нива,Березовая Роща,Маршала Покрышкина","15,4,6","walk,transport,transport",Дзержинский,0,0
nsk,"Новосибирск, улица Забалуева, с9",4632537,46.87,empty,empty,2,6,17,empty,0,2024,monolith,empty,empty,empty,82.7812485251,54.9860965262,2,2,"Площадь Маркса,Студенческая,Площадь Гарина-Михайловского","11,12,14","transport,transport,transport",Ленинский,0,0
nsk,"Новосибирск, улица Декоративный Питомник, 16/9",4600000,31.9,5.3,16.7,1,2,13,empty,0,2024,brick,empty,empty,empty,82.925694,55.111444,1,3,"Заельцовская,Гагаринская,Маршала Покрышкина","11,14,16","transport,transport,transport",Калининский,0,0
nsk,"Новосибирск, улица Кошурникова",4650000,28.99,empty,empty,1,5,12,empty,0,2026,monolithBrick,empty,empty,empty,82.966648591262,55.0400574540236,empty,2,"Золотая Нива,Березовая Роща,Маршала Покрышкина","8,11,4","walk,walk,transport",Октябрьский,1,0
nsk,"Новосибирск, Ленинградская улица",4650000,26.37,empty,empty,1,5,20,empty,0,2025,monolithBrick,empty,empty,empty,82.98312555041264,55.00207485324239,empty,3,"Речной вокзал,Октябрьская,Золотая Нива","6,7,9","transport,transport,transport",Октябрьский,0,0
nsk,"Новосибирск, Рельефная улица",4660000,44.2,empty,empty,1,16,17,empty,0,2024,monolith,empty,empty,empty,82.8092085096465,54.97496067677312,empty,2,"Площадь Маркса,Студенческая,Речной вокзал","11,12,16","transport,transport,transport",Ленинский,0,0
nsk,"Новосибирск, улица Бородина",4667000,58.0,11.2,34.4,2,11,24,empty,0,2025,monolith,empty,empty,1,82.87796272496949,54.93337358909955,empty,empty,"Площадь Маркса,Студенческая,Речной вокзал","8,10,14","transport,transport,transport",Кировский,0,0
nsk,"Новосибирск, улица Связистов, 162к2с",4700000,37.0,empty,empty,2,15,17,empty,0,2024,panel,empty,empty,empty,82.837407,54.961103,2,empty,"Площадь Маркса,Студенческая,Речной вокзал","7,8,12","transport,transport,transport",Ленинский,0,0
nsk,"Новосибирск, улица Связистов, 162к3с",4700000,37.0,empty,empty,2,8,17,empty,0,2024,panel,empty,empty,empty,82.839123,54.961119,2,empty,"Площадь Маркса,Студенческая,Речной вокзал","6,8,12","transport,transport,transport",Ленинский,0,0
nsk,"Новосибирск, улица Связистов, 162к1с",4700000,37.0,empty,empty,2,15,17,empty,0,2024,panel,empty,empty,empty,82.836913,54.961413,2,empty,"Площадь Маркса,Студенческая,Речной вокзал","7,8,13","transport,transport,transport",Ленинский,0,0
nsk,"Новосибирск, улица Сибиряков-Гвардейцев",4700000,38.8,empty,empty,2,7,17,empty,0,2025,monolithBrick,empty,empty,empty,82.9026537989,54.9433468721,empty,empty,"Площадь Маркса,Студенческая,Речной вокзал","9,10,13","transport,transport,transport",Кировский,0,0
nsk,"Новосибирск, Рябиновая улица, 14/1",4731100,38.95,13.6,10.1,1,9,18,empty,0,2026,monolithBrick,empty,without,empty,83.02561429297447,54.99990109263912,2,3,"Речной вокзал,Октябрьская,Золотая Нива","12,12,14","transport,transport,transport","Энергостроителей,Октябрьский",0,0
nsk,"Новосибирск, Ленинский район, микрорайон Дивногорский, улица Романтиков, 20",4773391,39.72,empty,empty,1,5,9,empty,1,2023,brick,empty,empty,empty,82.804421,55.024812,empty,empty,"Площадь Гарина-Михайловского,Площадь Маркса,Красный Проспект","13,15,17","transport,transport,transport","Дивногорский,Ленинский",0,0
nsk,"Новосибирск, улица Коминтерна, 1с",4756750,35.9,10.6,15.3,1,1,15,empty,0,2024,monolithBrick,empty,empty,empty,83.0247063558196,55.0427704475411,2,empty,"Золотая Нива,Березовая Роща,Маршала Покрышкина","7,9,10","transport,transport,transport",Дзержинский,0,0
nsk,"Новосибирская область, Новосибирск, улица Троллейная, 12",4750000,41.3,3.0,empty,2,8,10,empty,empty,empty,panel,empty,empty,0,82.85664,54.991217,1,empty,,,,"Троллейный,Ленинский",0,0
nsk,"Новосибирск, Игарская улица",4800000,45.4,empty,empty,1,5,17,empty,0,2025,panel,empty,empty,empty,82.9428593413,55.1018456655,1,1,"Заельцовская,Гагаринская,Маршала Покрышкина","10,13,14","transport,transport,transport",Калининский,0,0
nsk,"Новосибирск, Рельефная улица",4820000,48.8,empty,empty,1,1,17,empty,0,2024,monolith,empty,empty,empty,82.8092085096465,54.97496067677312,empty,2,"Площадь Маркса,Студенческая,Речной вокзал","11,12,16","transport,transport,transport",Ленинский,0,0
nsk,"Новосибирск, улица Юности, 7",4832202,42.89,empty,empty,1,3,12,empty,1,2022,brick,empty,empty,empty,82.803747,55.026613,empty,empty,"Площадь Гарина-Михайловского,Красный Проспект,Площадь Ленина","9,11,11","transport,transport,transport","Дивногорский,Ленинский",0,0
nsk,"Новосибирск, улица Королёва, 4",4800000,27.6,empty,empty,1,19,20,empty,0,2025,monolithBrick,empty,empty,empty,82.974652,55.04841,empty,2,"Березовая Роща,Золотая Нива,Маршала Покрышкина","5,5,6","transport,transport,transport",Дзержинский,0,0
nsk,"Новосибирск, улица Забалуева, 84",4831527,44.85,empty,empty,1,14,17,empty,1,2023,monolith,empty,empty,empty,82.774687,54.987684,1,1,"Студенческая,Площадь Маркса,Площадь Гарина-Михайловского","15,16,20","transport,transport,transport",Ленинский,0,0
nsk,"Новосибирск,Октябрьский, Кирова, 354",4850000,36.9,10.8,18.3,1,3,3,2012,empty,empty,empty,empty,empty,1,83.006129,54.988371,empty,empty,,,,Октябрьский,empty,0
nsk,"Новосибирская область, Новосибирск, ул Лазурная, 10",4850000,49.7,9.0,30.4,2,7,9,empty,empty,empty,empty,empty,empty,0,83.00992,55.032717,1,empty,,,,"МЖК Восточный,Октябрьский",empty,0
nsk,"Новосибирская область, Новосибирск, ул Заречная, 53",4850000,39.0,10.0,17.0,1,24,25,empty,empty,empty,empty,empty,empty,0,83.065256,54.982487,2,2,,,,Первомайский,empty,0
nsk,"Новосибирск, улица Объединения, 102/4с",4914900,39.4,empty,empty,1,2,9,empty,1,2024,monolithBrick,empty,rough,empty,82.975011,55.096858,empty,empty,"Заельцовская,Березовая Роща,Гагаринская","9,9,10","transport,transport,transport",Калининский,0,0
nsk,"Новосибирск, улица Пархоменко",4920000,40.41,9.6,17.4,1,2,24,empty,0,2025,monolithBrick,empty,without,1,82.8439772758222,54.985831161562984,empty,2,"Площадь Маркса,Студенческая,Речной вокзал","5,6,10","transport,transport,transport",Ленинский,0,0
nsk,"Новосибирск, улица Кошурникова",4990000,31.57,empty,empty,2,4,12,empty,0,2026,monolithBrick,empty,empty,empty,82.9666485913,55.040057454,empty,2,"Золотая Нива,Березовая Роща,Маршала Покрышкина","8,11,4","walk,walk,transport",Октябрьский,1,0
nsk,"Новосибирск, Родниковая улица",4950000,39.0,empty,empty,1,2,8,empty,0,2025,brick,empty,empty,empty,83.00577295896747,54.98790457765444,empty,1,"Речной вокзал,Октябрьская,Золотая Нива","10,11,12","transport,transport,transport","Камышенская,Октябрьский",0,0
nsk,"Новосибирск,Калининский, Солидарности, 71",5000000,56.4,7.0,empty,3,5,5,1964,empty,empty,empty,empty,empty,1,82.958806,55.158868,empty,empty,,,,Гвардейский,empty,0
nsk,"Новосибирск,Октябрьский, Плющихинская, 10",5000000,60.0,25.4,25.0,1,5,10,empty,empty,empty,empty,empty,empty,0,83.000092,55.012878,empty,empty,,,,Октябрьский,empty,0
nsk,"Новосибирск, Ленинский район, микрорайон Дивногорский, улица Романтиков, 20",5049366,39.88,empty,empty,2,5,9,empty,1,2023,brick,empty,empty,empty,82.804421,55.024812,empty,empty,"Площадь Гарина-Михайловского,Площадь Маркса,Красный Проспект","13,15,17","transport,transport,transport","Дивногорский,Ленинский",0,0
nsk,"Новосибирск, улица Коминтерна",5020000,40.99,empty,empty,1,18,22,empty,0,2024,monolithBrick,empty,empty,empty,83.0240098771678,55.0408864408392,2,empty,"Золотая Нива,Березовая Роща,Маршала Покрышкина","4,7,8","transport,transport,transport",Дзержинский,0,0
nsk,"Новосибирск, улица Коминтерна",5020000,40.99,10.0,16.9,1,16,22,empty,0,2024,monolithBrick,empty,without,1,83.0240098771678,55.0408864408392,2,empty,"Золотая Нива,Березовая Роща,Маршала Покрышкина","4,7,8","transport,transport,transport",Дзержинский,0,0
nsk,"Новосибирск, улица Пархоменко",5090000,37.21,3.2,23.7,2,15,24,empty,0,2025,monolithBrick,empty,without,1,82.8439772758222,54.985831161562984,empty,2,"Площадь Маркса,Студенческая,Речной вокзал","5,6,10","transport,transport,transport",Ленинский,0,0
nsk,"Новосибирск, улица Бородина",5094000,67.1,25.6,27.5,3,5,24,empty,0,2024,monolith,empty,empty,1,82.87796272496949,54.93337358909955,empty,empty,"Площадь Маркса,Студенческая,Речной вокзал","8,10,14","transport,transport,transport",Кировский,0,0
nsk,"Новосибирск, улица Коминтерна, 120с6",5050000,40.29,empty,empty,1,4,22,empty,0,2024,monolithBrick,empty,empty,empty,83.023951,55.041287,2,empty,"Золотая Нива,Березовая Роща,Маршала Покрышкина","5,7,8","transport,transport,transport",Дзержинский,0,0
nsk,"Новосибирск, Кировский район, Затулинский жилмассив, улица Зорге, 229/3",5100000,52.65,empty,empty,1,9,27,empty,0,2024,monolith,empty,empty,empty,82.924535,54.927501,3,empty,"Площадь Маркса,Студенческая,Речной вокзал","10,10,14","transport,transport,transport",,0,0
nsk,"Новосибирск,Октябрьский, Адриена Лежена, 38",5100000,36.4,5.0,empty,1,11,17,2022,empty,empty,empty,empty,empty,1,82.988702,55.035885,empty,empty,,,,Октябрьский,empty,0
nsk,"Новосибирск,Октябрьский, Татьяны Снежиной, 29",5100000,58.0,8.0,40.0,2,10,10,2013,empty,empty,empty,empty,empty,0,83.011061,55.020791,empty,empty,,,,"Плющихинский,Октябрьский",empty,0
nsk,"Новосибирск, улица Связистов, 13/2",5100000,61.3,empty,empty,2,1,17,empty,1,2022,brick,empty,empty,empty,82.832763,54.985643,1,1,,,,"Западный,Ленинский",0,0
nsk,"Новосибирск, улица Связистов, 13/2",5100000,59.7,empty,empty,2,13,17,empty,1,2022,brick,empty,empty,empty,82.832763,54.985643,1,1,,,,"Западный,Ленинский",0,0
nsk,"Новосибирск, улица Пархоменко",5110000,37.21,3.2,23.7,2,21,24,empty,0,2025,monolithBrick,empty,without,1,82.8439772758222,54.985831161562984,empty,2,"Площадь Маркса,Студенческая,Речной вокзал","5,6,10","transport,transport,transport",Ленинский,0,0
nsk,"Новосибирск, Калининский район, микрорайон Пашино, Новоуральская улица",5186500,45.5,empty,empty,2,4,9,empty,0,2025,panel,empty,empty,empty,82.95043118113583,55.17430893833999,empty,2,"Заельцовская,Березовая Роща,Сибирская","25,28,28","transport,transport,transport",Калининский,0,0
nsk,"Новосибирск, Воинская улица, 69",5150000,32.6,empty,empty,1,13,14,empty,0,2024,monolithBrick,empty,empty,empty,82.9767764749,55.0201232319,6,3,"Золотая Нива,Октябрьская,Речной вокзал","3,4,5","transport,transport,transport",Октябрьский,0,0
nsk,"Новосибирск, улица Коминтерна, 1с",5187000,39.9,11.8,15.1,1,11,15,empty,0,2024,monolithBrick,empty,empty,empty,83.0247063558196,55.0427704475411,2,empty,"Золотая Нива,Березовая Роща,Маршала Покрышкина","7,9,10","transport,transport,transport",Дзержинский,0,0
nsk,"Новосибирск, Ленинский район, жилой массив Радуга Сибири",5189454,56.53,empty,empty,3,1,17,empty,0,2025,monolithBrick,empty,empty,empty,82.7861892619,54.9864060194,1,1,"Площадь Маркса,Площадь Ленина,Студенческая","16,19,20","transport,transport,transport",Ленинский,0,0
nsk,"Новосибирск, улица Коминтерна, 120с6",5160000,37.49,4.2,24.0,2,8,22,empty,0,2024,monolithBrick,empty,without,1,83.023951,55.041287,2,empty,"Золотая Нива,Березовая Роща,Маршала Покрышкина","5,7,8","transport,transport,transport",Дзержинский,0,0
nsk,"Новосибирск, Рябиновая улица, 14/1",5201000,41.36,14.3,11.6,1,7,20,empty,0,2026,monolithBrick,empty,without,empty,83.02561429297447,54.99990109263912,2,3,"Речной вокзал,Октябрьская,Золотая Нива","12,12,14","transport,transport,transport","Энергостроителей,Октябрьский",0,0
