region,address,price,total_area,kitchen_area,living_area,rooms_count,floor,floors_number,build_date,isСomplete,complitation_year,house_material,parking,decoration,balcony,longitude,latitude,passenger_elevator,cargo_elevator,metro,metro_distance,metro_transport,district,is_apartments,is_auction
msk,"Москва, Большой Толмачёвский переулок",1996610000,459.4,81.4,173.3,5,7,8,,0,2024,monolith,underground,,4,37.6209487934,55.7397567995,1,1,"Полянка,Новокузнецкая,Третьяковская","6,10,4","walk,walk,transport","Якиманка,ЦАО",0,0
msk,"Москва, Самотечная ул., 5",66970000,160.0,25.0,119.0,3,3,9,1892,,,brick,underground,,0,37.618318,55.775165,1,1,"Цветной бульвар,Достоевская,Сухаревская","6,9,13","walk,walk,walk","Тверской,ЦАО",,1
msk,"Москва, Ильинка",378820000,157.4,41.1,50.7,3,3,5,,0,2024,monolith,,,,37.6236486957695,55.7551404921083,,,"Площадь Революции,Театральная","3,6","walk,walk","Тверской,ЦАО",0,0
msk,"Москва, М. Бронная ул., 32",110500000,110.5,15.0,61.0,3,2,6,1912,,,brick,ground,,0,37.593524,55.764197,1,0,"Маяковская,Пушкинская,Тверская","10,10,10","walk,walk,walk","Пресненский,ЦАО",,1
msk,"Москва, Ильинка",1031300000,271.8,57.1,123.8,5,5,5,,0,2024,monolith,,,,37.6235092209009,55.7552009954911,,,"Площадь Революции,Театральная","3,6","walk,walk","Тверской,ЦАО",0,0
msk,"Россия, Москва, Московский международный деловой центр Москва-Сити тер., многофункциональный комплекс Око",480765635,294.6,,,4,80,85,,,,monolith,underground,,,37.534325,55.749765,4,1,"Деловой центр,Международная,Деловой центр","3,3,4","walk,walk,walk","Пресненский,ЦАО",1,1
msk,"Москва, Ленинский проспект, 2",307420600,194.57,86.2,103.4,3,7,9,,0,2024,monolithBrick,,fine,,37.6112535068,55.7296107565,,,"Октябрьская,Добрынинская,Полянка","2,11,13","walk,walk,walk","Якиманка,ЦАО",1,0
msk,"Россия, Москва, Краснопролетарская улица, 7",125000000,234.8,22.5,128.5,6,3,9,1999,,,monolith,underground,,1,37.60726,55.774988,2,2,"Новослободская,Достоевская,Маяковская","10,12,13","walk,walk,walk","Тверской,ЦАО",0,1
msk,"Москва, 3-й Обыденский переулок",2147483647,428.5,168.7,136.7,5,6,6,,0,2026,monolith,underground,,0,37.6042283644176,55.742005340258,1,1,"Кропоткинская,Парк Культуры,Библиотека им. Ленина","5,13,16","walk,walk,walk","Хамовники,ЦАО",0,0
msk,"Москва, Ефремова улица, 10с1к4/4",725300799,303.0,71.0,,5,12,12,,,,monolithBrick,multilevel,,,37.574049,55.724951,,,"Фрунзенская,Спортивная,Парк Культуры","6,11,3","walk,walk,transport","Хамовники,ЦАО",,1
msk,"Москва, Софийская набережная, 36",109213650,127.0,,,3,3,7,,1,2022,,,,,37.623959,55.747611,4,4,"Новокузнецкая,Третьяковская,Китай-город","11,11,15","walk,walk,walk","Якиманка,ЦАО",1,0
msk,"Россия, Москва, 2-й Неопалимовский переулок, 3",158220000,87.9,,,2,4,9,2023,,,,,,0,37.582493,55.73925,0,0,"Парк Культуры,Смоленская,Киевская","10,14,16","walk,walk,walk","Хамовники,ЦАО",,1
msk,"Москва, Софийская набережная, 10Д",750000000,251.8,,,4,4,4,,1,2021,monolith,,,,37.6163794106954,55.7464027193368,,,"Боровицкая,Александровский сад,Библиотека им. Ленина","13,14,15","walk,walk,walk","Якиманка,ЦАО",0,0
msk,"Москва, Колымажный переулок, 10",290000000,200.9,17.0,110.0,4,4,7,2006,,,monolithBrick,underground,,0,37.604403,55.748199,1,0,"Кропоткинская,Александровский сад,Арбатская","5,7,7","walk,walk,walk","Хамовники,ЦАО",,1
msk,"Москва, 1-я Тверская-Ямская улица, 2",85974000,62.3,23.7,,2,8,9,,1,2022,monolith,underground,fine,,37.5948676266339,55.7710883704405,,,"Маяковская,Тверская,Пушкинская","1,10,11","walk,walk,walk","Тверской,ЦАО",1,0
msk,"Россия, Москва, 2-й Неопалимовский переулок, 3",195840000,108.8,,,3,4,9,2023,,,,,,0,37.582493,55.73925,0,0,"Парк Культуры,Смоленская,Киевская","10,14,16","walk,walk,walk","Хамовники,ЦАО",,1
msk,"Москва, Большой Толмачёвский переулок",156750000,85.6,15.5,34.6,2,2,14,,0,2024,monolith,underground,,1,37.6199132843774,55.7394739631991,1,1,"Новокузнецкая,Полянка,Третьяковская","10,2,4","walk,transport,transport","Якиманка,ЦАО",0,0
msk,"Москва, Ленинградский проспект, 37/6",125000000,135.3,,,,37,37,2021,,,monolith,,,,37.542213,55.794173,,,"Аэропорт,ЦСКА,Динамо","12,13,15","walk,walk,walk","Хорошевский,САО",0,1
msk,"Москва, Лужнецкая набережная",52569000,49.8,,27.9,2,9,17,,0,2026,monolith,multilevel,without,,37.5711844656955,55.715275061735,1,1,"Воробьёвы горы,Лужники,Спортивная","12,18,20","walk,walk,walk","Хамовники,ЦАО",0,0
msk,"Москва, Усачева улица, 15А, квартал 2(2.5)",99000000,90.4,14.0,39.0,2,5,12,,,,monolithBrick,multilevel,,,37.570276,55.7256,,,"Спортивная,Фрунзенская,Парк Культуры","6,11,4","walk,walk,transport","Хамовники,ЦАО",,1
msk,"Москва, Поклонная улица, 9",48858726,51.2,,30.9,2,28,34,,0,2023,monolith,underground,fine,,37.525324,55.734334,1,1,"Кутузовская,Парк Победы","14,17","walk,walk","Дорогомилово,ЗАО",1,0
msk,"Москва, улица 3-я Ямского Поля, 9",265000000,370.0,,,5,5,6,,,,,,,,37.580894,55.781626,,,Белорусская,5,walk,"Беговой,САО",1,1
msk,"Москва, Ленинский проспект, 2",66462500,53.17,32.4,15.8,1,2,9,,0,2024,monolithBrick,,fine,,37.61125350678,55.7296107564818,,,"Октябрьская,Добрынинская,Полянка","2,11,13","walk,walk,walk","Якиманка,ЦАО",1,0
msk,"Москва, Трубецкая ул., д. 10",750000000,298.93,20.0,,6,4,12,2013,,,,underground,,1,37.575783,55.727323,1,,"Фрунзенская,Спортивная","6,11","walk,walk","Хамовники,ЦАО",0,1
msk,"Москва, улица Костикова, 4к1",103787040,110.6,34.6,,2,5,21,,1,2023,monolith,,,,37.5573009849619,55.7612846731082,,,"Улица 1905 года,Краснопресненская,Беговая","9,19,2","walk,walk,transport","Пресненский,ЦАО",0,0
msk,"Москва, Славянская площадь, 2/5с1",65920000,82.4,29.2,26.3,2,3,8,2022,,,monolithBrick,underground,,,37.635727,55.752541,,,"Китай-город,Лубянка,Площадь Революции","2,12,14","walk,walk,walk","Таганский,ЦАО",1,1
msk,"Москва, 3-й Обыденский переулок",456050000,204.0,38.4,82.6,3,3,6,,0,2026,monolith,underground,,3,37.6042283644176,55.742005340258,1,1,"Кропоткинская,Парк Культуры,Библиотека им. Ленина","5,13,16","walk,walk,walk","Хамовники,ЦАО",0,0
msk,"Москва, улица 3-я Ямского Поля, 9",250000000,324.5,,,4,6,6,,,,,,,,37.580894,55.781626,,,"Белорусская,Маяковская,Савёловская","7,5,5","walk,transport,transport","Беговой,САО",1,1
msk,"Москва, Ленинский проспект, 2",94362500,75.49,26.0,44.5,2,2,9,,0,2024,monolithBrick,,fine,,37.6112535068,55.7296107565,,,"Октябрьская,Добрынинская,Полянка","2,11,13","walk,walk,walk","Якиманка,ЦАО",1,0
msk,"Россия, Москва, Москва, улица Ефремова, 19к1",400000000,201.6,,,4,1,7,2016,,,monolithBrick,underground,,,37.570357,55.722568,1,1,"Спортивная,Лужники,Фрунзенская","7,12,15","walk,walk,walk","Хамовники,ЦАО",0,1
msk,"Москва, Ильинка",90450000,40.2,5.0,,,1,5,,0,2024,monolith,,,,37.6235092209009,55.7552009954911,,,"Площадь Революции,Театральная","3,6","walk,walk","Тверской,ЦАО",0,0
msk,"Москва, 2-я Звенигородская улица, 16, к7",243250000,138.57,40.5,,4,19,21,,,,monolith,multilevel,,,37.555391,55.763295,,,"Улица 1905 года,Беговая","7,5","walk,transport","Пресненский,ЦАО",,1
msk,"Москва, улица Ильинка, 3/8с3",531760000,200.7,67.2,57.7,3,3,3,,0,2024,monolith,,,,37.624184,55.755571,,,"Площадь Революции,Театральная","1,6","walk,walk","Тверской,ЦАО",0,0
msk,"Москва, Костикова ул., д. 4, к. 6",189060000,162.8,,,5,9,21,2022,,,monolith,,,,37.55637,55.761497,18,0,"Улица 1905 года,Краснопресненская","9,19","walk,walk","Пресненский,ЦАО",0,1
msk,"Москва, Богоявленский переулок, 6с1",1510840000,648.5,12.0,294.5,6,1,3,,0,2024,monolith,,,,37.62404,55.755652,,,"Площадь Революции,Театральная","1,6","walk,walk","Тверской,ЦАО",0,0
msk,"Россия, Москва, Рыбников переулок, 13/3",45000000,87.0,,,3,1,4,1880,,,brick,,,0,37.634892,55.767149,0,0,"Тургеневская,Сретенский бульвар,Чистые пруды","5,5,6","walk,walk,walk","Красносельский,ЦАО",,1
msk,"Москва, 1-й переулок Тружеников, 12",303725598,147.05,,,2,2,14,,0,2025,monolithBrick,,without,,37.5726140846557,55.7378653446,,,"Киевская,Фрунзенская,Смоленская","13,15,20","walk,walk,walk","Хамовники,ЦАО",0,0
msk,"Москва, улица Ефремова, 19к1",400000000,201.6,48.3,,5,1,9,2015,,,monolith,underground,,,37.570357,55.722568,,,,,,"Хамовники,ЦАО",0,1
msk,"Москва, Пресненская набережная, д. 8 стр. 1",226656499,223.3,20.0,,3,39,65,2008,,,,,,,37.539078,55.747115,1,,"Международная,Деловой центр,Выставочная","3,4,6","walk,walk,walk","Пресненский,ЦАО",1,1
msk,"Москва, 1-я Тверская-Ямская улица, 2",2455020000,1067.4,,,,9,9,,1,2022,monolith,underground,without,,37.5948676266339,55.7710883704405,,,"Маяковская,Тверская,Пушкинская","1,10,11","walk,walk,walk","Тверской,ЦАО",1,0
msk,"Россия, Москва, Комсомольский проспект, 23/7",30047200,58.8,29.0,,1,2,9,1961,,,brick,ground,,,37.583598,55.727212,,,"Фрунзенская,Парк Культуры,Спортивная","4,16,20","walk,walk,walk","Хамовники,ЦАО",1,1
msk,"Москва, улица Арбат, 39",180468421,201.7,,,2,3,5,,1,2019,monolith,underground,rough,,37.5895374169819,55.7487617544371,3,,"Смоленская,Арбатская","6,12","walk,walk","Арбат,ЦАО",0,0
msk,"Москва, Усачева улица, 13, к2.4, квартал 2(2.4)",209000000,135.08,20.3,73.0,3,5,12,,,,monolithBrick,multilevel,,,37.57201,55.726157,,,"Спортивная,Фрунзенская,Парк Культуры","7,10,4","walk,walk,transport","Хамовники,ЦАО",,1
msk,"Москва, Софийская набережная, 36",101639382,105.2,,,2,1,7,,1,2022,,,,,37.623959,55.747611,4,4,"Новокузнецкая,Третьяковская,Китай-город","11,11,15","walk,walk,walk","Якиманка,ЦАО",1,0
msk,"Москва, ВЕСТ ГАРДЕН ЖК, к10",24700000,44.1,,,1,1,14,,,,monolith,multilevel,,,37.497953,55.716326,,,,,,"Раменки,ЗАО",,1
msk,"Москва, Софийская набережная, 36",106945102,112.8,,,2,2,7,,1,2022,,,,,37.623959,55.747611,4,4,"Новокузнецкая,Третьяковская,Китай-город","11,11,15","walk,walk,walk","Якиманка,ЦАО",1,0
msk,"Москва, Усачёва, д. 11Е",148000000,125.3,10.0,,3,6,14,2019,,,monolith,,,,37.571633,55.726867,11,12,"Спортивная,Фрунзенская,Лужники","10,14,15","walk,walk,walk","Хамовники,ЦАО",0,1
msk,"Москва, 3-й Обыденский переулок",239340000,76.6,32.9,23.1,1,4,6,,0,2026,monolith,underground,,2,37.6042283644176,55.742005340258,1,1,"Кропоткинская,Парк Культуры,Библиотека им. Ленина","5,13,16","walk,walk,walk","Хамовники,ЦАО",0,0
msk,"Москва, ВЕСТ ГАРДЕН ЖК, к10",78000000,127.1,8.3,83.2,5,8,14,,,,monolith,multilevel,,,37.497953,55.716326,,,,,,"Раменки,ЗАО",,1
msk,"Москва, Потаповский переулок, 5с4",217970000,120.3,37.0,35.8,2,3,6,,0,2025,monolith,underground,,1,37.64144303802863,55.761765709459695,1,,"Чистые пруды,Тургеневская,Сретенский бульвар","5,6,8","walk,walk,walk","Басманный,ЦАО",0,0
msk,"Москва, Усачева улица, 15А, квартал 2(2.10)",250000000,201.14,,,5,12,14,,,,monolithBrick,multilevel,,,37.570276,55.7256,,,"Спортивная,Фрунзенская,Парк Культуры","6,11,4","walk,walk,transport","Хамовники,ЦАО",,1
msk,"Москва, улица Арбат, 39",150400000,178.6,,,2,3,5,,1,2019,monolith,underground,rough,,37.5895374169819,55.7487617544371,3,,"Смоленская,Арбатская","6,12","walk,walk","Арбат,ЦАО",0,0
msk,"Москва, Хилков пер., 1",375000000,162.9,17.0,98.0,3,4,8,,,,monolithBrick,underground,,1,37.599319,55.736681,2,1,"Парк Культуры,Кропоткинская,Октябрьская","6,14,18","walk,walk,walk","Хамовники,ЦАО",,1
msk,"Москва, Ильинка",196080000,88.5,30.5,34.2,2,2,5,,0,2024,monolith,,,,37.6235092209009,55.7552009954911,,,"Площадь Революции,Театральная","3,6","walk,walk","Тверской,ЦАО",0,0
msk,"Москва, Усачева улица, 11Ж, квартал 3(3.7)",180000000,170.0,13.0,108.5,3,4,6,,,,monolithBrick,multilevel,,,37.570851,55.726979,,,"Спортивная,Фрунзенская,Парк Культуры","10,14,4","walk,walk,transport","Хамовники,ЦАО",,1
msk,"Москва, проспект Андропова, вл9/1",28800483,69.7,,,2,2,23,,1,2023,monolith,,without,,37.6672398220896,55.6906546805921,,3,"Технопарк,Коломенская,Автозаводская","5,15,4","walk,walk,transport","Нагатинский затон,ЮАО",0,0
msk,"Москва, Погодинская улица, 4, секция 2",290000000,201.6,20.0,133.0,4,4,8,,,,monolith,,,,37.571013,55.734973,,,"Фрунзенская,Киевская,Парк Культуры","16,5,5","walk,transport,transport","Хамовники,ЦАО",,1
msk,"Москва, Северный административный округ, район Беговой, Ленинградский проспект, вл8",29053268,39.6,,,1,20,37,,0,2027,monolith,underground,without,,37.58093571031,55.7806788746646,2,1,"Белорусская,Маяковская,Динамо","8,4,5","walk,transport,transport","Беговой,САО",0,0
msk,"Москва, Усачева улица, 11, квартал 2",220000000,199.32,,,5,10,16,,,,monolithBrick,multilevel,,,37.571767,55.727399,,,"Спортивная,Фрунзенская,Парк Культуры","10,14,4","walk,walk,transport","Хамовники,ЦАО",,1
msk,"Москва, Дружинниковская улица, 15",60173080,73.02,,,2,4,20,,0,2024,monolithBrick,,,,37.57442504033561,55.75979377629122,2,1,"Краснопресненская,Баррикадная,Улица 1905 года","4,8,13","walk,walk,walk","Пресненский,ЦАО",1,0
msk,"Москва, Мантулинская улица, 9, к2",210000000,225.0,39.2,131.8,6,14,20,,,,monolith,multilevel,,,37.545626,55.755312,,,"Деловой центр,Международная,Выставочная","15,19,3","walk,walk,transport","Пресненский,ЦАО",,1
msk,"Москва, Дербеневская улица",18707580,38.7,18.2,12.0,2,10,27,,0,2026,monolith,,without,,37.6449734179683,55.7209805531047,1,2,"Серпуховская,Пролетарская,Павелецкая","20,2,4","walk,transport,transport","Даниловский,ЮАО",0,0
msk,"Москва, Ильинка",124590000,54.7,20.8,15.5,1,2,5,,0,2024,monolith,,,,37.6235092209009,55.7552009954911,,,"Площадь Революции,Театральная","3,6","walk,walk","Тверской,ЦАО",0,0
msk,"Москва, Коробейников переулок, 1",290120319,154.2,15.0,94.7,3,3,7,,,,monolith,multilevel,,,37.600891,55.737314,,,"Парк Культуры,Кропоткинская","7,14","walk,walk","Хамовники,ЦАО",,1
msk,"Москва, Дубининская улица, 59к6",29472752,57.2,,23.3,2,14,27,,,2024,,,,,37.6356517202372,55.71786170144511,,,"Серпуховская,Павелецкая,Добрынинская","18,20,4","walk,walk,transport","Даниловский,ЮАО",0,0
msk,"Москва, Усачева улица, 13, к2.2, квартал 2(2.2)",364800000,228.0,,,5,6,12,,,,monolithBrick,multilevel,,,37.57201,55.726157,,,"Спортивная,Фрунзенская,Парк Культуры","7,10,4","walk,walk,transport","Хамовники,ЦАО",,1
msk,"Москва, улица Сергея Макеева",47810000,53.1,19.7,28.4,2,2,23,,0,2026,monolith,underground,without,,37.5495984651153,55.7635848915684,1,,"Улица 1905 года,Краснопресненская,Баррикадная","12,4,4","walk,transport,transport","Пресненский,ЦАО",0,0
msk,"Москва, Хилков переулок, 1",250000000,335.7,42.2,164.2,4,1,8,,,,,multilevel,,,37.599319,55.736681,,,Кропоткинская,14,walk,"Хамовники,ЦАО",,1
msk,"Москва, Западный административный округ, район Раменки, жилой комплекс Вест Гарден, к14",36230000,69.0,22.5,24.6,2,7,14,,1,2023,monolith,,,,37.4964885610361,55.7150361920507,1,1,"Ломоносовский проспект,Раменки,Минская","2,3,5","transport,transport,transport","Раменки,ЗАО",0,0
msk,"Москва, Комсомольский проспект, 32, к2",300546518,221.0,,,6,6,18,,,,monolithBrick,multilevel,,,37.578046,55.725975,,,"Фрунзенская,Спортивная,Парк Культуры","5,12,3","walk,walk,transport","Хамовники,ЦАО",,1
msk,"Москва, 1-й Красногвардейский проезд, 22с1",66500400,60.4,,,2,65,66,,1,2020,monolith,,without,,37.533742,55.751138,,,"Выставочная,Деловой центр,Тестовская","3,3,3","walk,walk,walk","Пресненский,ЦАО",1,0
msk,"Москва, Саввинская наб., 13",380000000,256.5,,,6,8,9,,,,brick,multilevel,,,37.567267,55.73554,,,"Киевская,Смоленская,Парк Культуры","12,5,6","walk,transport,transport","Хамовники,ЦАО",,1
msk,"Москва, улица Обручева",20286000,41.4,19.4,13.1,2,25,34,,0,2025,monolith,,without,,37.532481299207,55.6589834706462,2,2,"Калужская,Воронцовская,Беляево","8,11,5","walk,walk,transport","Обручевский,ЮЗАО",0,0
msk,"Москва, 3-я Фрунзенская улица, 5, к1",260000000,250.5,19.6,163.0,5,2,10,,,,monolith,underground,,,37.578343,55.719683,,,"Фрунзенская,Спортивная","14,15","walk,walk","Хамовники,ЦАО",,1
msk,"Москва, улица Арбат, 24",146715789,121.2,,,2,8,8,,1,2019,monolith,underground,rough,1,37.592285,55.750069,2,,"Смоленская,Арбатская","9,10","walk,walk","Арбат,ЦАО",0,0
msk,"Москва, Усачева улица, 11Ж, квартал 3(3.7)",190000000,170.0,13.0,108.5,3,4,6,,,,monolithBrick,multilevel,,,37.570851,55.726979,,,"Спортивная,Фрунзенская,Парк Культуры","10,14,4","walk,walk,transport","Хамовники,ЦАО",,1
msk,"Москва, Софийская набережная, 34с3",180000000,75.0,10.0,43.3,2,5,7,,0,2026,monolith,underground,without,,37.622796830688,55.7463922322426,4,3,"Новокузнецкая,Третьяковская","10,10","walk,walk","Якиманка,ЦАО",0,0
msk,"Москва, Коробейников переулок, 1",407981699,215.0,70.0,,4,3,7,,,,monolith,multilevel,,,37.600891,55.737314,,,"Парк Культуры,Кропоткинская","7,14","walk,walk","Хамовники,ЦАО",,1
msk,"Москва, 2-я Хуторская улица",25607892,55.16,15.4,23.2,2,42,54,,0,2025,monolith,,,,37.5711056858421,55.8063057033718,1,1,"Дмитровская,Гражданская,Тимирязевская","6,16,3","walk,walk,transport","Савеловский,САО",0,0
msk,"Москва, Остоженка ул., 11",234045501,172.1,69.4,40.2,3,4,6,,,,monolithBrick,multilevel,,,37.599741,55.741744,,,Кропоткинская,6,walk,"Хамовники,ЦАО",,1
msk,"Москва, Большая Черёмушкинская улица",25230400,41.6,,,2,23,42,,1,2024,monolith,,without,,37.59277037884578,55.67819031833341,4,4,"Нагорная,Академическая,Крымская","20,5,8","walk,transport,transport","Котловка,ЮЗАО",0,0
msk,"Россия, Москва, улица Остоженка, 5",160000000,155.0,20.0,120.0,4,6,7,1914,,,brick,,,2,37.601439,55.74333,1,1,Кропоткинская,3,walk,"Хамовники,ЦАО",0,1
msk,"Москва, 1-я улица Бухвостова",30955670,71.81,,,2,2,17,,0,2025,monolith,,without,,37.7129462779126,55.7986301903708,1,1,"Преображенская площадь,Семёновская,Черкизовская","5,3,4","walk,transport,transport","Преображенское,ВАО",0,0
msk,"Москва, переулок Большой Гнездниковский, д.3",167000000,145.0,20.0,110.0,3,4,6,2008,,,,underground,,,37.604592,55.76172,2,0,"Пушкинская,Тверская,Чеховская","4,4,6","walk,walk,walk","Пресненский,ЦАО",0,1
msk,"Москва, Электролитный проезд, 12Б",16150400,39.2,,,2,8,34,,0,2026,monolith,,without,,37.6152154246058,55.6705825395779,3,1,"Нагорная,Нахимовский проспект,Нагатинская","8,4,10","walk,transport,transport","Нагорный,ЮАО",0,0
msk,"Москва, Большой Гнездниковский переулок, 3",167000000,143.7,20.0,92.0,3,4,6,,,,monolithBrick,underground,,,37.604592,55.76172,1,1,"Тверская,Пушкинская,Чеховская","4,4,6","walk,walk,walk","Пресненский,ЦАО",0,1
msk,"Москва, жилой комплекс Репаблик, к2.3",42945207,47.49,3.0,25.0,2,31,33,,0,2025,monolith,underground,without,,37.57254197099068,55.77374939839737,3,2,"Белорусская,Белорусская,Улица 1905 года","11,14,19","walk,walk,walk","Пресненский,ЦАО",1,0
msk,"Москва, 1-й Зачатьевский переулок, 5",182000000,184.6,16.0,,3,2,8,,,,monolith,multilevel,,,37.60381,55.739017,,,"Парк Культуры,Кропоткинская","10,11","walk,walk","Хамовники,ЦАО",,1
msk,"Москва, Щукинская улица, 3",34068000,66.8,15.3,30.0,2,10,21,,1,2023,monolith,underground,without,,37.48122200600276,55.80840586470163,1,1,"Стрешнево,Стрешнево,Щукинская","9,11,12","walk,walk,walk","Щукино,СЗАО",0,0
msk,"Москва, Большой Гнездниковский переулок, 3",167000000,143.7,15.0,70.2,3,4,6,2008,,,monolithBrick,underground,,,37.604592,55.76172,1,,Пушкинская,4,walk,"Пресненский,ЦАО",,1
msk,"Москва, улица Мнёвники",30956162,61.18,20.9,,2,24,54,,0,2027,monolith,underground,,,37.5077421542052,55.7741898598792,1,,"Полежаевская,Хорошёвская","14,15","walk,walk","Хорошево-Мневники,СЗАО",0,0
msk,"Москва, Усачева улица, 15А, квартал 2(2.8)",135000000,118.71,18.0,70.2,3,3,11,,,,monolithBrick,multilevel,,,37.570276,55.7256,,,"Спортивная,Фрунзенская,Парк Культуры","6,11,4","walk,walk,transport","Хамовники,ЦАО",,1
msk,"Москва, Полковая улица",22671988,47.4,,,2,5,22,,0,2025,monolith,underground,without,,37.5975001540744,55.7986280976491,2,1,"Савёловская,Марьина Роща","10,6","walk,transport","Марьина роща,СВАО",0,0
msk,"Москва, Пресненский район,  улица 2-ая звенигородская улица 4.1",179300000,163.0,,,4,15,21,2021,,,monolith,,,,37.556227,55.761293,,,Улица 1905 года,9,walk,"Пресненский,ЦАО",,1
msk,"Москва, Береговой проезд, 2",28276398,78.7,26.2,26.4,2,3,18,,0,2024,monolithBrick,,without,,37.5078063512008,55.7597681819349,22,1,"Народное Ополчение,Фили,Багратионовская","3,4,4","transport,transport,transport","Филевский парк,ЗАО",0,0
msk,"Россия, Москва, Малый Лёвшинский переулок, 5к2",230000000,199.0,,,4,4,9,2003,,,monolith,underground,,,37.589464,55.741632,2,1,"Парк Культуры,Смоленская,Кропоткинская","9,11,12","walk,walk,walk","Хамовники,ЦАО",0,1
msk,"Москва, Кутузовский проспект",52968289,49.2,,,2,11,18,,0,2025,monolith,underground,,,37.5595977937,55.7517228631563,1,,"Выставочная,Киевская","19,5","walk,transport","Дорогомилово,ЗАО",0,0
msk,"Москва, Усачева улица, 15А, квартал 2(2.10)",113000000,100.0,8.4,56.5,2,8,14,,,,monolithBrick,multilevel,,,37.570276,55.7256,,,"Спортивная,Фрунзенская,Парк Культуры","6,11,4","walk,walk,transport","Хамовники,ЦАО",,1
msk,"Москва, Подольское шоссе, 3",33597290,63.3,7.2,37.9,2,3,13,,0,2024,monolith,underground,,,37.62448,55.713248,,,"Тульская,Серпуховская,Шаболовская","8,19,4","walk,walk,transport","Даниловский,ЮАО",1,0
msk,"Москва, Остоженка ул., 5",160000000,153.0,14.0,102.0,4,6,7,1914,,,brick,ground,,1,37.601439,55.74333,1,0,"Кропоткинская,Боровицкая,Арбатская","3,13,15","walk,walk,walk","Хамовники,ЦАО",,1
msk,"Москва, Ильинка",255050000,112.4,27.1,48.7,3,3,5,,0,2024,monolith,,,,37.6235092209009,55.7552009954911,,,"Площадь Революции,Театральная","3,6","walk,walk","Тверской,ЦАО",0,0
msk,"Россия, Москва, Мичуринский проспект, 56",45800000,78.0,,,3,36,52,2020,,,monolith,underground,,,37.485664,55.695804,2,2,"Раменки,Мичуринский проспект,Ломоносовский проспект","12,15,6","walk,walk,transport","Раменки,ЗАО",0,1
msk,"Москва, Мичуринский проспект, вл30Б",24847620,40.2,5.4,25.9,2,14,17,,0,2024,monolith,,,,37.498811777770335,55.70119424556461,,,"Раменки,Ломоносовский проспект,Мичуринский проспект","3,14,20","walk,walk,walk","Раменки,ЗАО",0,0
msk,"Москва, улица Палиха, 4",215900000,239.9,,191.0,,10,10,2019,,,monolith,underground,,,37.598582,55.783752,1,,"Менделеевская,Новослободская,Белорусская","3,6,13","walk,walk,walk","Тверской,ЦАО",1,1
msk,"Москва, Большой Толмачёвский переулок",133260000,72.6,31.0,14.2,1,2,14,,0,2024,monolith,underground,,,37.6219303055568,55.7396737042422,1,1,"Новокузнецкая,Полянка,Третьяковская","10,2,4","walk,transport,transport","Якиманка,ЦАО",0,0
msk,"Москва, Зубовская улица, 7",182681200,184.9,12.4,128.3,4,2,6,2023,,,monolithBrick,underground,,,37.583365,55.736934,2,,"Парк Культуры,Фрунзенская,Киевская","10,16,18","walk,walk,walk","Хамовники,ЦАО",1,1
msk,"Москва, Северо-Западный административный округ, район Покровское-Стрешнево, жилой комплекс Клубный Город на Реке Примавера, квартал Вивальди",29485060,60.1,13.1,29.0,2,4,10,,0,2025,monolith,underground,rough,1,37.424323796043,55.8133603842985,,,"Спартак,Тушинская","13,5","walk,transport","Покровское-Стрешнево,СЗАО",0,0
msk,"Москва, жилой комплекс Виктори Парк Резиденсез, 3к6",249000000,201.0,,,5,7,10,,0,2024,monolith,underground,fine,1,37.5177078212645,55.7320767661991,,,"Парк Победы,Поклонная,Багратионовская","9,10,6","walk,walk,transport","Дорогомилово,ЗАО",0,1
msk,"Москва, Дербеневская улица",43061697,55.8,,,2,5,11,,0,2025,monolithBrick,underground,without,,37.6542770089447,55.7253323113978,2,1,"Павелецкая,Пролетарская","16,18","walk,walk","Даниловский,ЮАО",0,0
msk,"Москва, Хилков переулок, 5",189000000,128.0,16.2,,3,3,6,2008,,,monolithBrick,underground,,,37.597001,55.738368,1,,Кропоткинская,11,walk,"Хамовники,ЦАО",,1
msk,"Москва, Поклонная улица, 9",102207781,86.8,,65.7,3,10,34,,0,2023,monolith,underground,fine,,37.525324,55.734334,1,1,"Кутузовская,Парк Победы","14,17","walk,walk","Дорогомилово,ЗАО",1,0
msk,"Москва, переулок Еропкинский, д.16/23",460000000,550.9,25.0,300.0,6,6,7,2010,,,,underground,,,37.592716,55.740451,4,1,"Парк Культуры,Кропоткинская","7,10","walk,walk","Хамовники,ЦАО",0,1
msk,"Москва, жилой комплекс Виктори Парк Резиденсез, 3к3",70678874,66.5,8.5,,2,2,13,,0,2024,monolith,,fine,,37.5164552103271,55.732453937557096,,,"Парк Победы,Кутузовская,Киевская","9,20,5","walk,walk,transport","Дорогомилово,ЗАО",0,0
msk,"Москва, Усачева улица, 15А, квартал 2(2.10)",103000000,99.71,12.3,44.2,2,9,14,,,,monolithBrick,multilevel,,,37.570276,55.7256,,,"Спортивная,Фрунзенская,Парк Культуры","6,11,4","walk,walk,transport","Хамовники,ЦАО",,1
msk,"Москва, микрорайон Рублёво-Архангельское, квартал B10",24280200,47.0,6.0,25.5,2,2,11,,0,2026,monolithBrick,,fine,,37.34325424600749,55.79062755554365,,,"Опалиха,Сетунь,Карамышевская","11,12,14","transport,transport,transport",ЗАО,0,0
msk,"Москва, 1-й Можайский тупик, 8Ас1",36635670,41.49,,,2,2,14,,0,2026,monolith,,,,37.55858,55.743603,,,"Киевская,Студенческая,Выставочная","8,12,20","walk,walk,walk","Дорогомилово,ЗАО",1,0
msk,"Москва, улица Костикова, 4к4",175000000,136.5,,,4,14,15,2023,,,monolith,underground,,3,37.555238,55.761178,,,"Улица 1905 года,Краснопресненская,Тестовская","9,20,3","walk,walk,transport","Пресненский,ЦАО",0,1
msk,"Москва, проспект Мира, 188Бк1",35964753,109.7,,82.3,2,37,58,,1,2015,monolith,underground,,,37.658059,55.834472,,,"Ростокино,Улица Сергея Эйзенштейна","13,16","walk,walk","Ростокино,СВАО",0,0
msk,"Москва, Хилков переулок, 5",189000000,128.0,45.0,,3,3,6,2008,,,monolith,underground,,,37.597001,55.738368,1,1,"Парк Культуры,Кропоткинская,Смоленская","5,11,18","walk,walk,walk","Хамовники,ЦАО",0,1
msk,"Москва, улица Новый Арбат, 32",98763758,122.7,,,2,3,13,,1,2013,monolithBrick,underground,without,,37.58067,55.753316,1,,"Смоленская,Баррикадная,Краснопресненская","8,14,14","walk,walk,walk","Арбат,ЦАО",1,0
msk,"Москва, Еропкинский пер., 16",460000000,550.9,110.5,85.8,5,6,7,,,,monolithBrick,multilevel,,,37.592716,55.740451,,,Парк Культуры,7,walk,"Хамовники,ЦАО",,1
msk,"Москва, проспект Андропова, вл9/1",25412561,58.2,,,1,5,23,,1,2023,monolith,,without,,37.6672398220896,55.6906546805921,,3,"Технопарк,Коломенская,Автозаводская","5,15,4","walk,walk,transport","Нагатинский затон,ЮАО",0,0
msk,"Москва, Пречистенская набережная, 5",555943063,219.2,,,3,2,4,,,,monolith,multilevel,,,37.600846,55.736579,,,"Парк Культуры,Октябрьская","7,5","walk,transport","Хамовники,ЦАО",,1
msk,"Москва, 1-й Сетуньский проезд, вл10",33352428,60.99,,39.6,2,3,41,,0,2024,monolith,underground,,,37.541503,55.731936,2,2,"Лужники,Спортивная,Воробьёвы горы","3,4,4","transport,transport,transport","Раменки,ЗАО",0,0
msk,"Москва, 1-й Тружеников переулок, 16-18, с22",700000000,282.91,,,5,11,14,,,,monolith,ground,,,37.571103,55.737466,,,"Киевская,Парк Культуры,Смоленская","11,5,5","walk,transport,transport","Хамовники,ЦАО",,1
msk,"Москва, микрорайон Рублёво-Архангельское, квартал В19",37126080,85.94,21.9,32.1,2,2,12,,0,2025,monolith,,without,,37.3438052008762,55.789558187273,,,"Опалиха,Сетунь,Карамышевская","11,12,13","transport,transport,transport",ЗАО,0,0
msk,"г.Москва,ул.Крузенштерна, д.10, к.1",16500000,39.8,18.0,12.7,1,11,27,,,,monolith,underground,,,37.703775,55.751447,2,,Авиамоторная,11,walk,"Лефортово,ЮВАО",0,1
msk,"Москва, улица Василисы Кожиной, вл25/1",43991860,71.8,,,2,8,17,,0,2024,monolith,,,,37.4922799384835,55.7339776945285,1,1,"Филёвский парк,Парк Победы,Фили","12,4,4","walk,transport,transport","Филевский парк,ЗАО",1,0
msk,"Москва, проспект Лихачева",17000000,38.8,16.0,17.8,1,3,14,,1,,monolith,multilevel,without,1,37.6608856548609,55.6910987751376,4,,Технопарк,15,walk,"Даниловский,ЮАО",0,1
msk,"Москва, микрорайон Рублёво-Архангельское, квартал В20",43741396,82.36,22.0,32.9,2,3,13,,0,2025,monolithBrick,,fine,,37.3438008900958,55.7887728612671,,,"Опалиха,Сетунь,Карамышевская","11,12,13","transport,transport,transport",ЗАО,0,0
msk,"Москва, Ходынский бульвар, 20А",17500000,30.2,3.0,20.0,1,4,15,,,,monolith,underground,,,37.523204,55.790787,2,,"ЦСКА,Аэропорт","10,7","walk,transport","Хорошевский,САО",1,1
msk,"Москва, Багратионовский проезд, 5Ак1",38352000,75.2,,51.8,2,33,41,,1,2021,monolith,underground,,,37.5095986063909,55.7433431076337,1,2,"Фили,Багратионовская,Парк Победы","6,11,17","walk,walk,walk","Филевский парк,ЗАО",0,0
msk,"Москва, Лобачевского, 124к1",17990000,41.1,15.0,20.0,2,27,41,,,,monolith,underground,,,37.474534,55.69865,3,,Аминьевская,8,walk,"Раменки,ЗАО",0,1
msk,"Москва, Космодамианская набережная, 4/22с8",109104020,74.78,,,2,3,6,,0,2024,monolithBrick,underground,without,,37.6389599253,55.7454796264,1,,"Новокузнецкая,Китай-город","10,16","walk,walk","Замоскворечье,ЦАО",1,0
msk,"Москва, ул.Часовая",19750000,42.8,18.2,13.1,1,9,20,,0,2025,monolith,underground,fine,,37.5215591846928,55.8123145487875,3,,Сокол,13,walk,"Аэропорт,САО",0,1
msk,"Москва, Западный административный округ, район Филёвский Парк, Багратионовский проезд, 5",29221938,58.48,,,2,2,57,,1,2023,monolith,underground,,,37.5095364775231,55.7423225102259,1,2,"Фили,Багратионовская,Парк Победы","5,14,17","walk,walk,walk","Филевский парк,ЗАО",0,0
msk,"Москва, ул. Казакова, 7",25000000,39.8,14.9,12.0,1,7,11,2022,,,,underground,,,37.659772,55.76336,1,,"Курская,Чкаловская,Комсомольская","8,13,20","walk,walk,walk","Басманный,ЦАО",1,1
msk,"Москва, проспект Академика Сахарова, 11",37180000,44.0,10.0,26.5,2,3,19,,0,2024,monolith,underground,,,37.643722,55.771125,4,1,"Красные ворота,Сухаревская,Сретенский бульвар","7,11,3","walk,walk,transport","Красносельский,ЦАО",1,0
msk,"Россия, Москва, Набережная Марка Шагала, 1к2",115000000,124.0,21.0,71.0,3,12,14,2023,,,monolith,underground,,,37.631101,55.699558,1,,"ЗИЛ,Технопарк,Автозаводская","17,4,6","walk,transport,transport","Даниловский,ЮАО",0,1
msk,"Москва, Лужнецкая набережная",45318000,49.8,,11.3,1,3,18,,0,2026,monolith,multilevel,without,,37.5715492461217,55.7156081703927,1,1,"Воробьёвы горы,Спортивная,Лужники","15,19,19","walk,walk,walk","Хамовники,ЦАО",0,0
msk,"Москва, Береговой 3",26900000,57.0,17.0,26.0,2,19,29,,,,monolithBrick,underground,,,37.508867,55.757379,3,,"Фили,Шелепиха","18,3","walk,transport","Филевский парк,ЗАО",0,1
msk,"Москва, Большой Кисельный переулок, 11",155865600,131.2,57.9,,2,2,7,,0,2026,monolith,underground,without,,37.6274237202377,55.7648534393045,1,,"Тургеневская,Сретенский бульвар,Чистые пруды","9,9,10","walk,walk,walk","Мещанский,ЦАО",0,0
msk,"Москва, Комсомольский проспект, д.45",55000000,74.4,15.0,50.0,3,5,12,1957,,,brick,ground,,1,37.573896,55.719967,2,,"Спортивная,Фрунзенская","11,14","walk,walk","Хамовники,ЦАО",0,1
msk,"Москва, жилой комплекс Река",59323200,81.6,20.8,27.8,2,3,16,,0,2026,monolith,underground,without,,37.48063193174056,55.69231274128903,1,1,"Мичуринский проспект,Раменки,Университет","11,3,5","walk,transport,transport","Раменки,ЗАО",0,0
msk,"Москва, 1-й Колобовский переулок, 14",125000000,138.0,15.0,118.0,3,4,6,2005,,,monolithBrick,underground,,,37.61786,55.768593,2,,"Трубная,Цветной бульвар,Пушкинская","5,7,9","walk,walk,walk","Тверской,ЦАО",0,1
msk,"Москва, Часовая улица",26755920,64.8,21.2,25.6,2,2,29,,0,2026,monolith,underground,without,,37.521682566306986,55.81202757989051,,,"Сокол,Аэропорт","13,4","walk,transport","Аэропорт,САО",0,0
msk,"Москва, Всеволожский переулок, 5",385000000,144.0,28.0,67.0,3,4,6,2019,,,monolithBrick,underground,,1,37.598043,55.742772,,,"Кропоткинская,Парк Культуры","4,11","walk,walk","Хамовники,ЦАО",0,1
msk,"Москва, Большой Толмачёвский переулок",277800000,142.1,44.5,46.6,3,2,14,,0,2024,monolith,underground,,2,37.6219303055568,55.7396737042422,1,1,"Новокузнецкая,Полянка,Третьяковская","10,2,4","walk,transport,transport","Якиманка,ЦАО",0,0
msk,"Москва, Покровка,38 с1",50000000,65.0,16.0,22.0,3,6,6,1902,,,brick,ground,,1,37.651268,55.761284,1,,"Курская,Чистые пруды","9,13","walk,walk","Басманный,ЦАО",0,1
msk,"Москва, Западный административный округ, район Филёвский Парк, проезд Багратионовский, вл 5",42715100,76.41,,,2,2,11,,1,2023,monolith,underground,fine,,37.508975,55.742448,1,1,"Фили,Багратионовская,Парк Победы","8,10,15","walk,walk,walk","Филевский парк,ЗАО",0,0
msk,"Москва, улица Академика Королёва, 21",28160000,59.52,,,2,2,21,,0,2024,monolith,underground,,,37.6022541586287,55.8205830303055,1,1,"Бутырская,Улица Милашенкова,Фонвизинская","12,14,18","walk,walk,walk","Марфино,СВАО",0,0
msk,"Москва, Ломоносовский проспект, 25к5",99730000,114.8,20.0,89.8,3,15,19,,,,monolithBrick,underground,,1,37.530939,55.692013,2,,Университет,5,walk,"Раменки,ЗАО",0,1
msk,"Москва, улица Фридриха Энгельса, 56",26942800,69.8,,,2,11,27,,0,2026,monolithBrick,underground,without,,37.6924907546307,55.7767727415349,2,1,"Бауманская,Электрозаводская","13,4","walk,transport","Басманный,ЦАО",0,0
msk,"Москва, проспект Мира, 95",31535521,75.8,,,2,14,15,,1,2020,,,,,37.6349410489341,55.8077844836563,,,"Алексеевская,ВДНХ,Рижская","4,18,3","walk,walk,transport","Останкинский,СВАО",1,0
msk,"Москва, наб.Шелепихинская д.34, корп.2",107000000,137.1,10.5,85.3,4,4,19,,,,monolith,underground,,1,37.508894,55.763057,2,,Шелепиха,19,walk,"Хорошево-Мневники,СЗАО",0,1
msk,"Москва, Поварская улица, 8/1с1",98201600,102.4,,,2,2,6,,1,2017,monolithBrick,underground,without,,37.5987267817531,55.7541697885384,1,1,"Арбатская,Александровский сад","6,9","walk,walk","Арбат,ЦАО",1,0
msk,"Москва, Земляной Вал, 37к1",31300000,47.0,9.0,32.0,2,13,21,2024,,,monolithBrick,underground,,,37.658329,55.755743,2,,"Чкаловская,Курская","2,4","walk,walk","Басманный,ЦАО",1,1
msk,"Москва, Дербеневская улица",21968170,41.9,13.1,15.7,1,4,27,,0,2026,monolith,,without,,37.6449734179683,55.7209805531047,1,2,"Серпуховская,Пролетарская,Павелецкая","20,2,4","walk,transport,transport","Даниловский,ЮАО",0,0
msk,"Москва, Пер. Гороховский, д. 12, строен. 5",120000000,91.2,14.0,51.0,2,3,7,,,,monolithBrick,underground,,,37.667393,55.764602,2,,Курская,9,walk,"Басманный,ЦАО",1,1
msk,"Москва, улица Костикова, 4к1",78259545,65.9,24.9,18.8,1,5,21,,1,2023,monolith,,,,37.5573009849619,55.7612846731082,,,"Улица 1905 года,Краснопресненская,Беговая","9,19,2","walk,walk,transport","Пресненский,ЦАО",0,0
msk,"Москва, Средний Тишинский переулок, 5",79000000,95.0,24.0,37.0,2,4,18,2021,,,monolithBrick,underground,,1,37.577256,55.769965,1,,"Белорусская,Баррикадная","12,16","walk,walk","Пресненский,ЦАО",0,1
msk,"Москва, Аминьевское шоссе, 6",15471700,47.9,,34.5,2,4,21,,1,2020,monolith,,rough,,37.4571176785729,55.7076352050853,,,"Давыдково,Аминьевская,Кунцевская","12,15,3","walk,walk,transport","Очаково-Матвеевское,ЗАО",1,0
msk,"Москва, ул.Новый Арбат, дом 32",119700000,126.0,,80.0,2,6,13,2013,,,monolithBrick,underground,,,37.580661,55.753311,1,,"Смоленская,Краснопресненская","8,14","walk,walk","Арбат,ЦАО",1,1
msk,"Москва, Нагатинская улица, к1вл1",28059588,58.6,,,2,3,28,,0,2025,monolith,underground,,,37.626187,55.682295,,,"Нагатинская,Верхние котлы,Нагорная","4,16,5","walk,walk,transport","Нагатино-Садовники,ЮАО",0,0
msk,"Москва, 2-я Черногрязская ул., 6к4",75000000,72.8,10.0,52.0,3,17,21,,,,monolithBrick,underground,,,37.548151,55.761629,2,,Улица 1905 года,15,walk,"Пресненский,ЦАО",0,1
msk,"Москва, Дубининская улица, 59к7",24335267,37.7,,13.0,1,18,41,,,2024,,,,,37.6364943993748,55.7173634696842,,,"Павелецкая,Серпуховская,Добрынинская","17,4,4","walk,transport,transport","Даниловский,ЮАО",0,0
msk,"Москва, ул. 1-я Ямская, д. 6",95000000,123.0,18.0,78.0,3,1,3,,,,monolith,underground,,,37.611491,55.79431,,,Марьина Роща,5,walk,"Марьина роща,СВАО",0,1
msk,"Москва, улица Зорге, 9",26650820,56.29,18.9,23.3,2,17,21,,1,2023,monolithBrick,underground,without,,37.508661,55.783038,2,1,"Зорге,Полежаевская","19,2","walk,transport","Хорошевский,САО",1,0
msk,"Москва, пр. Береговой 3",34000000,71.0,20.0,29.0,2,27,29,,,,monolithBrick,,,,37.508867,55.757379,3,,"Фили,Шелепиха","18,3","walk,transport","Филевский парк,ЗАО",0,1
msk,"Москва, Винницкая улица, 8к3",24018796,40.3,14.6,14.9,2,9,15,,1,2022,monolith,,,,37.492662,55.701212,,,"Раменки,Ломоносовский проспект,Мичуринский проспект","9,20,2","walk,walk,transport","Раменки,ЗАО",0,0
msk,"Москва, Орджоникидзе, 1",253000000,230.0,18.0,120.6,6,17,17,,,,monolith,underground,,1,37.605068,55.710839,2,,"Шаболовская,Тульская","12,17","walk,walk","Донской,ЮАО",0,1
msk,"Москва, Северный административный округ, район Беговой, Ленинградский проспект, вл8",40998479,64.3,,,2,2,37,,0,2027,monolith,underground,without,,37.58093571031,55.7806788746646,2,1,"Белорусская,Маяковская,Динамо","8,4,5","walk,transport,transport","Беговой,САО",0,0
msk,"Москва, Фадеева 4А",88000000,70.0,19.0,40.0,2,6,10,,,,,underground,,,37.601609,55.774867,1,,"Новослободская,Маяковская","8,10","walk,walk","Тверской,ЦАО",0,1
msk,"Москва, проспект Андропова, вл9/1",41675869,97.2,,,3,2,23,,1,2023,monolith,,without,,37.6671969067454,55.6913849487772,,3,"Технопарк,Коломенская,Автозаводская","5,15,4","walk,walk,transport","Нагатинский затон,ЮАО",0,0
msk,"Москва, Островитянова, д.11к1",110000000,207.0,45.0,120.0,4,6,16,2004,,,monolith,underground,,1,37.5008,55.641808,,,"Коньково,Тропарёво","3,4","transport,transport","Коньково,ЮЗАО",0,1
msk,"Москва, Западный административный округ, район Раменки, жилой комплекс Вест Гарден, к14",26270000,44.6,21.4,13.8,1,8,14,,1,2023,monolith,,,,37.4964885610361,55.7150361920507,1,1,"Ломоносовский проспект,Раменки,Минская","2,3,5","transport,transport,transport","Раменки,ЗАО",0,0
msk,"Москва, Чапаевский переулок, 3",218000000,552.0,35.0,150.0,5,44,44,,,,monolith,underground,,,37.520671,55.79848,2,,Аэропорт,10,walk,"Хорошевский,САО",0,0
msk,"Москва, 1-й Красногвардейский проезд, 22с1",50869000,45.5,,,1,65,66,,1,2020,monolith,,without,,37.533742,55.751138,,,"Выставочная,Деловой центр,Тестовская","3,3,3","walk,walk,walk","Пресненский,ЦАО",1,0
msk,"Москва, Новинский бульвар 28/35с1",50000000,66.5,15.0,40.0,2,2,7,,,,brick,ground,,1,37.585556,55.757197,1,,"Баррикадная,Краснопресненская","8,12","walk,walk","Арбат,ЦАО",0,1
msk,"Москва, Варшавское шоссе, 170Ек1",16099200,55.9,,,2,5,26,,0,2023,panel,multilevel,fine,,37.5824374490726,55.5826764625274,,,"Лесопарковая,Аннино,Улица Старокачаловская","6,13,8","walk,walk,transport","Чертаново Южное,ЮАО",0,0
msk,"Москва, Арбат, 24",290000000,330.0,13.9,51.3,4,5,8,,,,monolithBrick,underground,,,37.592177,55.750089,,,"Смоленская,Арбатская,Кропоткинская","9,10,13","walk,walk,walk","Арбат,ЦАО",0,1
msk,"Москва, Мичуринский проспект",17031589,41.6,15.3,,2,2,23,,0,2025,monolith,underground,without,,37.4656579324785,55.6822842815802,1,1,"Озёрная,Мичуринский проспект,Раменки","19,4,5","walk,transport,transport","Очаково-Матвеевское,ЗАО",0,0
msk,"Москва, Софийская набережная, 34",150000000,106.7,20.0,76.7,3,6,8,2019,,,monolithBrick,underground,,,37.622783,55.747287,2,,"Новокузнецкая,Третьяковская","11,11","walk,walk","Якиманка,ЦАО",1,1
msk,"Москва, Потаповский переулок, 5с4",158480000,78.7,33.2,15.7,1,3,6,,0,2025,monolith,underground,,1,37.64144303802863,55.761765709459695,1,,"Чистые пруды,Тургеневская,Сретенский бульвар","5,6,8","walk,walk,walk","Басманный,ЦАО",0,0
msk,"Москва, Нежинская, 3",36700000,53.0,10.0,34.3,2,20,22,2021,,,monolith,underground,,1,37.476968,55.717026,2,,Минская,8,transport,"Очаково-Матвеевское,ЗАО",0,1
msk,"Москва, улица Обручева",15453000,30.0,,,1,31,34,,0,2025,monolith,,without,,37.532481299207,55.6589834706462,2,2,"Калужская,Воронцовская,Беляево","8,11,5","walk,walk,transport","Обручевский,ЮЗАО",0,0
msk,"Москва, Серебряническая набережная, 7-11",50000000,66.7,4.0,45.0,2,4,8,2021,,,monolith,underground,,,37.647953,55.749795,1,,"Китай-город,Чкаловская","13,14","walk,walk","Таганский,ЦАО",1,1
msk,"Москва, улица Арбат, 24",88184211,111.7,,,1,8,8,,1,2019,monolith,underground,rough,,37.592285,55.750069,2,,"Смоленская,Арбатская","9,10","walk,walk","Арбат,ЦАО",0,0
msk,"Москва, Софийская набережная, 34с3",97704000,47.2,18.2,13.7,1,3,7,,0,2026,monolith,underground,without,,37.622796830688,55.7463922322426,4,3,"Новокузнецкая,Третьяковская","10,10","walk,walk","Якиманка,ЦАО",0,0
msk,"Москва, ЦАО, р-н Пресненский, 2-я Черногрязская ул., 6к2",160000000,120.0,,100.0,3,2,21,,,,monolithBrick,underground,,,37.547531,55.762181,2,,Улица 1905 года,15,walk,"Пресненский,ЦАО",0,1
msk,"Москва, 1-й Кирпичный переулок, 17А",12387200,39.2,4.8,25.9,2,3,26,,0,2025,monolith,underground,without,,37.734862908072365,55.77588038938588,7,4,"Соколиная гора,Семёновская,Партизанская","14,4,4","walk,transport,transport","Соколиная гора,ВАО",0,0
msk,"Москва, Сосинская улица, 43",31193000,55.89,15.4,24.1,2,9,13,,0,2024,monolith,underground,,,37.67860466137609,55.72591637028463,1,1,"Дубровка,Пролетарская,Волгоградский проспект","15,15,2","walk,walk,transport","Южнопортовый,ЮВАО",0,0
msk,"г.Москва, ул.Пресненский вал, 27с1",29000000,40.0,,24.0,1,21,26,2025,,,monolithBrick,underground,,1,37.569081,55.772608,2,,"Белорусская,Улица 1905 года","14,15","walk,walk","Пресненский,ЦАО",0,1
msk,"Москва, 2-я Хуторская улица",19018464,37.72,18.4,12.8,1,8,54,,0,2025,monolith,,,,37.5711056858421,55.8063057033718,1,1,"Дмитровская,Гражданская,Тимирязевская","6,16,3","walk,walk,transport","Савеловский,САО",0,0
msk,"Москва, Фадеева, 4А",543975599,239.7,9.3,196.9,5,10,10,,,,monolithBrick,underground,,,37.601609,55.774867,1,,"Новослободская,Маяковская","8,10","walk,walk","Тверской,ЦАО",0,1
msk,"Москва, 1-я улица Бухвостова",19475461,38.2,,,1,9,17,,0,2024,monolith,,without,,37.7100387633415,55.7982615322231,1,1,"Преображенская площадь,Семёновская,Черкизовская","5,4,4","walk,transport,transport","Преображенское,ВАО",0,0
msk,"Москва, 2-ая Звенигородская, 12",169000000,154.0,44.0,76.0,4,16,21,2023,,,monolithBrick,underground,,,37.556568,55.762039,2,,Улица 1905 года,7,walk,"Пресненский,ЦАО",0,1
msk,"Москва, Лужнецкая набережная",97922000,82.4,,26.5,3,13,18,,0,2026,monolith,multilevel,,,37.5729976389884,55.7152023823584,1,1,"Воробьёвы горы,Лужники,Спортивная","12,18,20","walk,walk,walk","Хамовники,ЦАО",0,0
msk,"Москва, Проспект Вернадского 94 к 4",88000000,218.0,,170.0,4,37,37,,,,monolith,underground,,,37.47174,55.652999,2,,"Тропарёво,Юго-Западная","14,19","walk,walk","Тропарево-Никулино,ЗАО",0,1
msk,"Москва, 1-я улица Ямского Поля, 28с3",37239999,76.65,,30.1,2,2,21,,0,2024,monolith,,,,37.5854233447391,55.7831190790998,,,"Белорусская,Менделеевская,Савёловская","7,18,18","walk,walk,walk","Беговой,САО",1,0
msk,"Москва, Садовническая наб., 7",110000000,92.0,8.0,59.0,2,5,6,2018,,,monolith,underground,,,37.628038,55.746547,2,,Новокузнецкая,9,walk,"Замоскворечье,ЦАО",1,1
msk,"Москва, жилой комплекс Репаблик, к2.1",34762596,46.68,17.3,12.0,1,9,26,,0,2025,monolith,underground,without,,37.57359394556668,55.773419493882095,2,2,"Белорусская,Белорусская,Улица 1905 года","11,14,19","walk,walk,walk","Пресненский,ЦАО",1,0
msk,"Москва, 1-й Красногвардейский проезд, 22 стр 1",190000000,210.0,45.0,140.0,4,45,68,2020,,,monolith,underground,,,37.533742,55.751138,2,,"Международная,Деловой центр","5,6","walk,walk","Пресненский,ЦАО",1,1
msk,"Москва, Щукинская улица, 3",25685400,48.1,15.5,15.8,1,10,21,,1,2023,monolith,underground,without,,37.4804656230608,55.808285024147,1,1,"Стрешнево,Щукинская,Стрешнево","9,11,11","walk,walk,walk","Щукино,СЗАО",0,0
msk,"Москва, Мосфильмовская, 88",50000000,84.3,14.0,65.0,,14,21,,,,monolith,underground,,1,37.490299,55.704844,3,,"Раменки,Ломоносовский проспект","12,4","walk,transport","Раменки,ЗАО",0,1
msk,"Москва, улица Мнёвники",20713585,36.06,13.5,,1,2,54,,0,2027,monolith,underground,,,37.5077421542052,55.7741898598792,1,,"Полежаевская,Хорошёвская","14,15","walk,walk","Хорошево-Мневники,СЗАО",0,0
msk,"Москва, 2-й Неопалимовский переулок, 3",376950000,236.0,40.0,180.0,5,3,7,2023,,,monolith,underground,,,37.582493,55.73925,1,,"Парк Культуры,Смоленская","10,14","walk,walk","Хамовники,ЦАО",0,1
msk,"Москва, Полковая улица",15969096,30.7,,,1,6,22,,0,2025,monolith,underground,without,,37.5975001540744,55.7986280976491,2,1,"Савёловская,Марьина Роща","10,6","walk,transport","Марьина роща,СВАО",0,0
msk,"Москва, Мантулинская ул., 9к6",38450000,41.6,3.0,33.6,2,3,15,,,,monolithBrick,underground,,,37.541889,55.75475,2,,"Деловой центр,Выставочная","12,19","walk,walk","Пресненский,ЦАО",0,1
msk,"Москва, 1-й Сетуньский проезд, вл10",23715078,38.59,,24.4,1,4,41,,0,2024,monolith,underground,,,37.541503,55.731936,2,2,"Лужники,Спортивная,Воробьёвы горы","3,4,4","transport,transport,transport","Раменки,ЗАО",0,0
msk,"Москва, Коробейников переулок, 1",350000000,249.0,37.0,198.0,4,2,6,,,,monolithBrick,underground,,,37.600891,55.737314,2,,"Парк Культуры,Кропоткинская","7,14","walk,walk","Хамовники,ЦАО",0,1
msk,"Москва, Дружинниковская улица, 15",102502064,112.0,,,3,12,20,,0,2024,monolithBrick,,,,37.575251160712746,55.7597302555572,2,1,"Краснопресненская,Баррикадная,Улица 1905 года","2,6,13","walk,walk,walk","Пресненский,ЦАО",1,0
msk,"Москва, ул. Генерала Дорохова д.39к1В",55000000,69.0,18.0,30.0,2,11,14,2021,,,monolith,underground,,,37.496632,55.716899,2,,Минская,5,transport,"Раменки,ЗАО",0,1
msk,"Москва, 4-я улица Марьиной Рощи, 12к3",24565233,60.61,,,2,2,44,,0,2024,monolith,underground,,,37.624658717089154,55.79697474854365,,,"Марьина Роща,Марьина Роща,Марьина Роща","6,7,8","walk,walk,walk","Марьина роща,СВАО",0,0
msk,"Москва, Береговая, 8с1",135000000,183.2,20.4,46.9,3,5,5,,,,monolith,underground,,,37.468793,55.832682,1,,,,,"Покровское-Стрешнево,СЗАО",0,1
msk,"Москва, 1-й Кирпичный переулок, 17А",13009600,37.6,4.8,24.2,2,13,26,,0,2025,monolith,underground,without,,37.734862908072365,55.77588038938588,7,4,"Соколиная гора,Семёновская,Партизанская","14,4,4","walk,transport,transport","Соколиная гора,ВАО",0,0
msk,"Москва, Кутузовский проезд, 16",43550000,71.0,13.0,53.0,3,22,46,,0,2026,monolith,underground,fine,,37.52198117329283,55.74516360838248,2,,Фили,4,walk,"Дорогомилово,ЗАО",0,1
msk,"Москва, Береговой проезд, 2",20661010,44.7,14.6,16.4,1,2,16,,0,2024,monolithBrick,,without,,37.5078063512008,55.7597681819349,22,1,"Народное Ополчение,Фили,Багратионовская","3,4,4","transport,transport,transport","Филевский парк,ЗАО",0,0
msk,"Москва, 2-ая Звенигородская, 12",109000000,120.0,32.0,83.0,3,17,21,2023,,,monolithBrick,underground,,,37.556568,55.762039,2,,Улица 1905 года,7,walk,"Пресненский,ЦАО",0,1
msk,"Москва, Дербеневская улица",29218520,64.7,23.0,23.9,3,2,33,,0,2026,monolith,,,,37.6454776732632,55.7208897182944,2,2,"Серпуховская,Пролетарская,Павелецкая","20,2,4","walk,transport,transport","Даниловский,ЮАО",0,0
msk,"Москва, ул. Летниковская, д. 11/10с26",36950000,71.7,8.8,42.0,3,12,32,,0,2025,monolithBrick,underground,without,,37.6461621577939,55.7254529269888,3,,Павелецкая,16,walk,"Даниловский,ЮАО",0,1
msk,"Москва, улица Костикова, 4к1",216819225,181.8,51.1,,3,14,21,,1,2023,monolith,,,,37.5573009849619,55.7612846731082,,,"Улица 1905 года,Краснопресненская,Беговая","9,19,2","walk,walk,transport","Пресненский,ЦАО",0,0
msk,"Москва, Большой Толмачевский переулок, 5",250000000,124.7,32.0,70.0,3,3,14,2024,,,monolith,underground,,1,37.619782,55.739929,2,,"Полянка,Третьяковская","6,6","walk,walk","Якиманка,ЦАО",0,1
msk,"Москва, 1-й Красногвардейский проезд, 21с2",63577280,80.6,,49.6,2,59,85,,1,2015,monolith,,,,37.5340000330648,55.7496709812864,15,15,"Выставочная,Деловой центр,Международная","1,1,2","walk,walk,walk","Пресненский,ЦАО",1,0
msk,"Москва, Мичуринский проспект, 56",45800000,78.0,22.0,32.0,2,36,53,,,,monolith,underground,,,37.485664,55.695804,2,,Раменки,10,walk,"Раменки,ЗАО",0,1
msk,"Москва, Кутузовский проспект",55200190,52.4,,,1,11,18,,0,2025,monolith,underground,,,37.5595977937,55.7517228631563,1,,"Выставочная,Киевская","19,5","walk,transport","Дорогомилово,ЗАО",0,0
msk,"Москва, Серебряническая набережная, 7-11",46100000,61.5,20.0,36.5,2,2,8,2021,,,monolith,underground,,,37.647953,55.749795,1,,"Китай-город,Чкаловская","13,14","walk,walk","Таганский,ЦАО",1,1
msk,"Москва, 1-я Тверская-Ямская улица, 2",180790000,101.0,28.6,,3,9,9,,1,2022,monolith,underground,fine,,37.5948676266339,55.7710883704405,,,"Маяковская,Тверская,Пушкинская","1,10,11","walk,walk,walk","Тверской,ЦАО",1,0
msk,"Москва, Большой Толмачевский переулок, 5",146000000,74.3,20.0,49.3,2,3,8,2024,,,monolith,underground,,,37.619782,55.739929,2,,"Полянка,Третьяковская","6,6","walk,walk","Якиманка,ЦАО",0,1
msk,"Москва, Подольское шоссе, 3",25801520,43.2,3.2,25.2,1,7,13,,0,2024,monolith,underground,,,37.62448,55.713248,,,"Тульская,Серпуховская,Шаболовская","8,19,4","walk,walk,transport","Даниловский,ЮАО",1,0
msk,"Москва, Большой Николоворобинский переулок, д. 9/11",114990000,118.7,15.0,,3,3,8,,1,2023,monolithBrick,underground,without,,37.6492923558182,55.7508185529278,1,,"Чкаловская,Китай-город,Таганская","14,14,16","walk,walk,walk","Таганский,ЦАО",0,1
msk,"Москва, Дубининская улица, 59к6",39050875,79.4,,34.2,3,9,27,,,2024,,,,,37.6356517202372,55.71786170144511,,,"Серпуховская,Павелецкая,Добрынинская","18,20,4","walk,walk,transport","Даниловский,ЮАО",0,0
msk,"Москва, Авиационная улица д. 77 к. 2",55000000,82.0,32.0,45.0,2,28,48,2016,,,brick,underground,,,37.450872,55.809348,3,,Щукинская,11,walk,"Щукино,СЗАО",0,1
msk,"Москва, улица Сергея Макеева",69430000,99.7,9.5,44.8,3,2,21,,0,2026,monolith,,without,,37.5509033598003,55.762686601198,1,1,"Улица 1905 года,Краснопресненская,Баррикадная","12,4,4","walk,transport,transport","Пресненский,ЦАО",0,0
msk,"Москва, Фадеева, 4А",320000000,300.0,36.0,172.0,6,6,9,,,,monolith,underground,,,37.601609,55.774867,,,"Новослободская,Маяковская","8,10","walk,walk","Тверской,ЦАО",0,1
msk,"Москва, Рязанский проспект",12655020,40.6,7.3,24.4,2,2,30,,0,2027,monolithBrick,,without,,37.7730046188418,55.7195076406786,,,"Окская,Кузьминки,Рязанский проспект","10,18,18","walk,walk,walk","Рязанский,ЮВАО",0,0
msk,"Москва, Минская, 2Вк5",490000000,225.7,,209.0,4,4,4,,,,monolith,underground,,1,37.504726,55.717503,1,,"Минская,Ломоносовский проспект","14,18","walk,walk","Раменки,ЗАО",0,1
msk,"Москва, Большая Спасская улица, 35",24674179,36.8,8.3,21.9,2,12,22,,1,2022,monolith,,,,37.6468524901,55.7769447444,,,"Площадь трёх вокзалов,Комсомольская,Красные ворота","4,8,12","walk,walk,walk","Красносельский,ЦАО",0,0
msk,"Москва, Ломоносовский проспект, 25к5",300000000,454.0,40.0,376.0,,14,14,,,,monolithBrick,underground,,1,37.530939,55.692013,3,,Университет,5,walk,"Раменки,ЗАО",0,1
msk,"Москва, Северо-Западный административный округ, район Покровское-Стрешнево, жилой комплекс Клубный Город на Реке Примавера, квартал Вивальди",22191190,42.7,9.5,11.9,1,2,19,,0,2025,monolith,underground,rough,,37.424323796043,55.8133603842985,,,"Спартак,Тушинская","13,5","walk,transport","Покровское-Стрешнево,СЗАО",0,0
msk,"Москва, улица Маргелова, 3к1",23815750,43.9,,,1,14,25,,1,2022,panel,underground,fine,,37.5404869273501,55.7770114111517,,,"Беговая,Полежаевская,Хорошёвская","6,15,16","walk,walk,walk","Хорошевский,САО",0,0
msk,"Москва, Усачева, 15А",135000000,106.3,,79.0,3,8,8,,,,monolith,underground,,1,37.570276,55.7256,2,,"Спортивная,Фрунзенская","6,11","walk,walk","Хамовники,ЦАО",0,1
msk,"Москва, Западный административный округ, район Раменки, жилой комплекс Вест Гарден, к14",49760000,91.8,26.2,40.9,3,7,14,,1,2023,monolith,,,,37.4964885610361,55.7150361920507,1,1,"Ломоносовский проспект,Раменки,Минская","2,3,5","transport,transport,transport","Раменки,ЗАО",0,0
msk,"Москва, 2-я Фрунзенская, 12",181325199,180.0,11.4,70.0,3,2,15,,,,monolith,underground,,,37.580436,55.724069,2,,Фрунзенская,6,walk,"Хамовники,ЦАО",0,1
msk,"Москва, 1-й Красногвардейский проезд, 22с2",89280000,99.2,,,3,72,78,,1,2019,monolith,,without,,37.535332,55.751568,,,"Выставочная,Деловой центр,Международная","4,4,5","walk,walk,walk","Пресненский,ЦАО",1,0
msk,"Москва, Большой Лёвшинский пер., 11",396000000,252.0,20.0,146.0,,3,7,,,,monolithBrick,underground,,,37.588341,55.742164,1,,"Смоленская,Кропоткинская","9,13","walk,walk","Хамовники,ЦАО",0,1
msk,"Москва, улица Ротмистрова, 2",29621200,59.6,11.8,37.0,2,3,19,,0,2024,monolith,,without,,37.47701146159,55.79153078518826,,,"Октябрьское поле,Карамышевская,Панфиловская","20,3,5","walk,transport,transport","Щукино,СЗАО",0,0
msk,"Москва, Ефремова, 12",380320000,237.7,44.0,180.0,5,14,15,,,,monolithBrick,underground,,1,37.572486,55.724124,1,,"Спортивная,Фрунзенская","8,14","walk,walk","Хамовники,ЦАО",0,1
msk,"Москва, Потаповский переулок, 5с4",312120000,176.5,70.7,53.4,3,2,6,,0,2025,monolith,underground,,1,37.64144303802863,55.761765709459695,1,,"Чистые пруды,Тургеневская,Сретенский бульвар","5,6,8","walk,walk,walk","Басманный,ЦАО",0,0
msk,"Москва, Волоколамское шоссе, 71с12",76000000,104.5,9.6,71.0,4,18,22,,0,2024,monolith,,without,1,37.4206595312749,55.8145160374969,,,Спартак,14,walk,"Покровское-Стрешнево,СЗАО",0,1
msk,"Москва, улица Обручева",24360440,59.3,,,3,12,34,,0,2025,monolith,,without,,37.5323954685188,55.6592321473886,2,2,"Калужская,Воронцовская,Беляево","9,11,5","walk,walk,transport","Обручевский,ЮЗАО",0,0
msk,"Москва, 4-я Марьиной рощи, 12",28000000,42.62,17.7,14.5,2,50,55,,0,2024,monolith,underground,without,,37.62525365518282,55.7973750917672,4,,Марьина Роща,6,walk,"Марьина роща,СВАО",0,1
msk,"Москва, микрорайон Рублёво-Архангельское, квартал B10",22900150,45.5,19.5,14.0,1,3,10,,0,2026,monolithBrick,,,,37.3416416480392,55.7908119823523,,,"Опалиха,Сетунь,Аникеевка","11,12,13","transport,transport,transport",ЗАО,0,0
msk,"Москва, Коробейников переулок, д.1",290120319,154.2,9.0,97.0,3,3,7,,,,monolithBrick,underground,,1,37.600891,55.737314,1,,"Парк Культуры,Кропоткинская","7,14","walk,walk","Хамовники,ЦАО",0,1
msk,"Москва, Ленинградский проспект, 37/2",39874600,48.3,7.8,,2,25,41,,0,2024,monolith,,,,37.542689,55.792513,,,"Петровский Парк,ЦСКА,Динамо","13,13,14","walk,walk,walk","Хорошевский,САО",0,0
msk,"Москва, ЦАО, р-н Таганский, Большой Николоворобинский пер., 9/11",75000000,57.0,24.0,18.0,1,4,8,,1,2023,monolithBrick,underground,without,,37.6492923558182,55.7508185529278,,,"Чкаловская,Китай-город,Таганская","14,14,16","walk,walk,walk","Таганский,ЦАО",0,1
msk,"Москва, 1-й Можайский тупик, 8Ас1",29201550,30.45,,,1,2,14,,0,2026,monolith,,,,37.55858,55.743603,,,"Киевская,Студенческая,Выставочная","8,12,20","walk,walk,walk","Дорогомилово,ЗАО",1,0
msk,"Москва, улица Берзарина",19385450,57.1,12.3,28.4,2,2,27,,0,2024,monolith,underground,without,,37.4686433695087,55.7903578339251,3,1,"Щукинская,Панфиловская,Октябрьское поле","4,4,6","transport,transport,transport","Щукино,СЗАО",0,0
msk,"Москва, 4-я Марьиной рощи, 12",28000000,42.47,19.8,13.8,2,50,55,,0,2024,monolith,underground,without,,37.62525365518282,55.7973750917672,4,,Марьина Роща,6,walk,"Марьина роща,СВАО",0,1
msk,"Москва, Херсонская улица, 43к5",33326832,78.1,10.7,42.0,2,28,32,,1,2021,monolith,,,,37.5591316355813,55.6570116558116,2,2,"Калужская,Новые Черёмушки","18,4","walk,transport","Черемушки,ЮЗАО",0,0
msk,"Москва, 4-я Марьиной рощи, 12",51800000,80.11,28.6,31.2,3,50,55,,0,2024,monolith,underground,without,,37.62525365518282,55.7973750917672,4,,Марьина Роща,6,walk,"Марьина роща,СВАО",0,1
msk,"Москва, улица Генерала Глаголева",19676800,47.3,15.3,17.4,2,16,28,,0,2025,monolith,,without,,37.46364569807671,55.78293547114143,1,,,,,"Хорошево-Мневники,СЗАО",0,0
msk,"Москва, ул. Усачева, д. 15А",130000000,97.9,21.0,49.0,2,10,12,,,,monolithBrick,underground,,1,37.570276,55.7256,2,,"Спортивная,Фрунзенская","6,11","walk,walk","Хамовники,ЦАО",0,1
msk,"Москва, Софийская набережная, 10",209038500,135.3,,,3,2,4,,1,2021,monolith,,,,37.6159878081809,55.7456613805375,,,,,,"Якиманка,ЦАО",0,0
msk,"Москва, 4-я Марьиной рощи, 12",41500000,63.6,21.0,26.0,3,50,55,,0,2024,monolith,underground,without,,37.62525365518282,55.7973750917672,4,,Марьина Роща,6,walk,"Марьина роща,СВАО",0,1
msk,"Москва, улица Арбат, 24",122684211,129.5,,,3,5,8,,1,2019,monolith,underground,rough,,37.592285,55.750069,2,,"Смоленская,Арбатская","9,10","walk,walk","Арбат,ЦАО",0,0
msk,"Москва, 4-я Марьиной рощи, 12",42000000,65.21,29.2,18.1,2,50,55,,0,2024,monolith,underground,without,,37.62525365518282,55.7973750917672,4,,Марьина Роща,6,walk,"Марьина роща,СВАО",0,1
msk,"Москва, Софийская набережная, 34с3",241110000,126.9,14.2,70.6,3,3,7,,0,2026,monolith,underground,without,,37.622796830688,55.7463922322426,4,3,"Новокузнецкая,Третьяковская","10,10","walk,walk","Якиманка,ЦАО",0,0
msk,"Москва, Пречистенская набережная, д. 7",296485000,137.9,15.0,,3,2,4,2015,,,,underground,,,37.601519,55.736914,1,,"Парк Культуры,Кропоткинская","7,14","walk,walk","Хамовники,ЦАО",1,1
msk,"Москва, улица Новый Арбат, 32",32610600,48.6,,,1,12,13,,1,2013,monolithBrick,underground,without,,37.58067,55.753316,1,,"Смоленская,Баррикадная,Краснопресненская","8,14,14","walk,walk,walk","Арбат,ЦАО",1,0
msk,"Москва, Раменки, улица Минская, 2",147000000,165.0,34.3,,5,36,39,,,,monolith,,,0,37.503998,55.716037,1,1,"Минская,Ломоносовский проспект","13,16","walk,walk","Раменки,ЗАО",,1
msk,"Москва, улица Арбат, 39",146300000,133.6,,,3,4,5,,1,2019,monolith,underground,rough,,37.5895374169819,55.7487617544371,3,,"Смоленская,Арбатская","6,12","walk,walk","Арбат,ЦАО",0,0
msk,"Москва, Мосфильмовская улица, 8",135000000,150.0,,,3,8,53,2011,,,monolith,,,,37.527256,55.723587,3,,"Ломоносовский проспект,Минская,Парк Победы","4,4,9","transport,transport,transport","Раменки,ЗАО",0,1
msk,"Москва, микрорайон Рублёво-Архангельское, квартал В19",22384560,45.87,15.1,13.4,1,4,12,,0,2025,monolith,,without,,37.3438052008762,55.789558187273,,,"Опалиха,Сетунь,Карамышевская","11,12,13","transport,transport,transport",ЗАО,0,0
msk,"Москва, Мосфильмовская улица, 8",78000000,96.0,,,3,11,53,2012,,,monolith,underground,,,37.527256,55.723587,3,1,"Ломоносовский проспект,Тестовская,Тестовская","4,5,6","transport,transport,transport","Раменки,ЗАО",0,1
msk,"Москва, улица Василисы Кожиной, вл25/1",40651000,68.9,,,1,12,17,,0,2024,monolith,,,,37.4922799384835,55.7339776945285,1,1,"Филёвский парк,Парк Победы,Фили","12,4,4","walk,transport,transport","Филевский парк,ЗАО",1,0
msk,"Москва, Минская улица, 2к1",147000000,165.0,,,5,36,44,2017,,,monolith,,,,37.503998,55.716037,4,,"Минская,Ломоносовский проспект,Раменки","12,16,7","walk,walk,transport","Раменки,ЗАО",0,1
msk,"Москва, Рязанский проспект",11865684,38.2,6.9,22.9,2,3,30,,0,2027,monolithBrick,,without,,37.7730046188418,55.7195076406786,,,"Окская,Кузьминки,Рязанский проспект","10,18,18","walk,walk,walk","Рязанский,ЮВАО",0,0
msk,"Москва, Пресненская набережная, 12",325000000,355.0,,210.0,6,82,95,2017,,,monolith,,,,37.537425,55.749628,1,,"Деловой центр,Международная,Выставочная","2,4,8","walk,walk,walk","Пресненский,ЦАО",1,1
msk,"Москва, 2-я Хуторская улица",35098867,85.13,27.7,33.9,3,5,43,,0,2025,monolith,underground,,,37.5718057748288,55.8061573028355,1,1,"Дмитровская,Гражданская,Тимирязевская","4,16,3","walk,walk,transport","Савеловский,САО",0,0
msk,"Москва, Мосфильмовская, 8",145000000,181.4,20.0,98.0,4,22,33,2011,,,monolith,underground,,,37.527256,55.723587,4,,Минская,7,transport,"Раменки,ЗАО",0,1
msk,"Москва, Автомобильный проезд, 4",11238360,43.0,,,2,5,21,,0,2024,,,,,37.6985498098562,55.7300215612071,,,"Калитники,Волгоградский проспект,Угрешская","9,18,4","walk,walk,transport","Нижегородский,ЮВАО",1,0
msk,"Москва, Усачёва улица, 11Г",430000000,200.0,,,4,3,14,,,,,underground,,,37.57254,55.727273,2,2,"Фрунзенская,Спортивная,Лужники","9,9,13","walk,walk,walk","Хамовники,ЦАО",0,1
msk,"Москва, Ильинка",111280000,47.5,5.0,29.6,,2,5,,0,2024,monolith,,,,37.6235092209009,55.7552009954911,,,"Площадь Революции,Театральная","3,6","walk,walk","Тверской,ЦАО",0,0
msk,"Россия, Москва, 3-я Тверская-Ямская улица, 44",71900000,142.0,13.0,,4,3,9,2000,,,brick,underground,,0,37.592195,55.774527,1,2,"Маяковская,Белорусская,Новослободская","6,8,10","walk,walk,walk","Тверской,ЦАО",0,1
msk,"Москва, Большая Черёмушкинская улица",33793520,65.9,,,3,14,42,,1,2024,monolith,,,,37.59277037884578,55.67819031833341,4,4,"Нагорная,Академическая,Крымская","20,5,8","walk,transport,transport","Котловка,ЮЗАО",0,0
msk,"Москва, улица Сергея Макеева, 9к2",86000000,69.0,,,2,14,17,2017,,,brick,underground,,,37.550567,55.761644,1,,"Улица 1905 года,Тестовская,Баррикадная","12,4,4","walk,transport,transport","Пресненский,ЦАО",0,1
msk,"Москва, 1-я улица Бухвостова",39821598,88.97,,,3,5,17,,0,2024,monolith,,without,,37.7100387633415,55.7982615322231,1,1,"Преображенская площадь,Черкизовская,Семёновская","5,4,4","walk,transport,transport","Преображенское,ВАО",0,0
msk,"Москва, улица 2-я Звенигородская, вл.12к3",70000000,65.1,,52.0,2,5,20,,,,monolith,,,,37.55637,55.761497,,,"Улица 1905 года,Краснопресненская,Баррикадная","9,4,4","walk,transport,transport","Пресненский,ЦАО",0,1
msk,"Москва, Веткина улица",21278360,58.78,,24.1,2,3,49,,,2027,,,,,37.6217205309321,55.8024424559937,,,"Марьина Роща,Рижская,Савёловская","17,5,7","walk,transport,transport","Марьина роща,СВАО",0,0
msk,"Москва, Тетеринский переулок, 18с2",210000000,172.0,,,4,8,14,2011,,,monolith,underground,,2,37.653703,55.744743,2,,"Таганская,Марксистская,Чкаловская","4,8,18","walk,walk,walk","Таганский,ЦАО",0,1
msk,"Москва, Большая Почтовая улица",16834963,38.8,19.0,12.2,2,5,21,,0,2025,monolith,,without,,37.6965704322234,55.7765975998348,1,,"Электрозаводская,Электрозаводская,Бауманская","15,16,18","walk,walk,walk","Басманный,ЦАО",0,0
msk,"Москва, 2-я Звенигородская улица, 12к8",99700000,108.0,,,3,9,21,2023,,,,underground,,3,37.555481,55.762804,,,"Улица 1905 года,Краснопресненская,Баррикадная","6,18,3","walk,walk,transport","Пресненский,ЦАО",0,1
msk,"Москва, Электролитный проезд, 12Б",20209600,54.4,,,3,3,34,,0,2026,monolith,,without,,37.6152154246058,55.6705825395779,3,1,"Нагорная,Нахимовский проспект,Нагатинская","8,4,10","walk,transport,transport","Нагорный,ЮАО",0,0
msk,"Москва, Якиманка, улица Большая Якиманка, 17/2с2",130000000,193.0,,,4,7,8,,,,monolith,,,1,37.615955,55.737649,1,1,Полянка,3,walk,"Якиманка,ЦАО",,1
msk,"Москва, микрорайон Рублёво-Архангельское, квартал В20",29846050,54.02,19.0,15.1,1,3,13,,0,2025,monolithBrick,,fine,,37.3438008900958,55.7887728612671,,,"Опалиха,Сетунь,Карамышевская","11,12,13","transport,transport,transport",ЗАО,0,0
msk,"Москва, Шмитовский проезд, 16с1",112000000,212.0,,,4,11,24,2004,,,monolith,,,2,37.549282,55.758402,4,,"Улица 1905 года,Тестовская,Деловой центр","17,19,20","walk,walk,walk","Пресненский,ЦАО",0,1
msk,"Москва, 1-й переулок Тружеников, 12",183834633,101.91,,,1,2,14,,0,2025,monolithBrick,,without,,37.5726140846557,55.7378653446,,,"Киевская,Фрунзенская,Смоленская","13,15,20","walk,walk,walk","Хамовники,ЦАО",0,0
msk,"Москва, 2-я Звенигородская улица, 14, к8",115000000,104.55,15.0,,3,11,21,,,,monolith,multilevel,,,37.555481,55.762804,,,"Улица 1905 года,Беговая","7,5","walk,transport","Пресненский,ЦАО",,1
msk,"Москва, жилой комплекс Репаблик, к2.3",43427264,74.72,6.2,44.6,3,4,33,,0,2025,monolith,underground,without,,37.57254197099068,55.77374939839737,3,2,"Белорусская,Белорусская,Улица 1905 года","11,14,19","walk,walk,walk","Пресненский,ЦАО",1,0
msk,"Москва, улица Большая Якиманка, 17/2с2",130000000,193.0,28.5,154.0,4,7,8,,,,monolith,,,2,37.615955,55.737649,,,"Полянка,Третьяковская,Новокузнецкая","3,11,4","walk,walk,transport","Якиманка,ЦАО",0,1
msk,"Москва, Вишнёвая улица",17854009,56.2,,,2,2,48,,,2027,monolithBrick,underground,,,37.43660253945443,55.83054328733407,1,,"Спартак,Тушинская,Стрешнево","17,5,7","walk,transport,transport","Покровское-Стрешнево,СЗАО",0,0
msk,"Москва, Большая Пироговская улица, 8",170000000,173.6,18.0,,4,8,13,2009,,,monolithBrick,underground,,,37.561221,55.728297,1,,Фрунзенская,3,transport,"Хамовники,ЦАО",,1
msk,"Москва, Щукинская улица, 3",44702800,98.9,21.4,53.4,3,8,21,,1,2023,monolith,underground,without,,37.4804656230608,55.808285024147,1,1,"Стрешнево,Щукинская,Стрешнево","9,11,11","walk,walk,walk","Щукино,СЗАО",0,0
msk,"Москва, 2-ая Звенигородская, 12",107000000,115.0,20.0,64.0,3,2,21,2023,,,monolithBrick,underground,,,37.556568,55.762039,2,,Улица 1905 года,7,walk,"Пресненский,ЦАО",0,1
msk,"Москва, улица Мнёвники",42564927,84.01,21.9,,3,34,54,,0,2027,monolith,underground,,,37.5077421542,55.7741898599,1,,"Полежаевская,Хорошёвская","14,15","walk,walk","Хорошево-Мневники,СЗАО",0,0
msk,"Москва, Косыгина ул., 8",210000000,151.7,17.0,94.0,4,2,6,1969,,,brick,open,,2,37.564742,55.70739,2,0,"Воробьёвы горы,Ленинский проспект","8,17","walk,walk","Гагаринский,ЮЗАО",,1
msk,"Москва, Космодамианская набережная, 4/22с9",55500800,51.2,,,1,4,6,,0,2024,monolithBrick,underground,without,,37.63821427116283,55.74569749148403,1,,"Новокузнецкая,Китай-город","10,16","walk,walk","Замоскворечье,ЦАО",1,0
msk,"Москва, Луков пер., 8",56650000,105.0,15.0,52.0,3,3,8,1997,,,brick,open,,1,37.634056,55.767909,1,0,Чистые пруды,8,walk,"Красносельский,ЦАО",,1
msk,"Москва, Полковая улица",33091702,75.8,,,3,3,22,,0,2025,monolith,underground,without,,37.5975001540744,55.7986280976491,2,1,"Савёловская,Марьина Роща","10,6","walk,transport","Марьина роща,СВАО",0,0
msk,"Москва, Пречистенский пер., 16",115000000,115.0,11.0,82.0,4,4,5,1947,,,brick,ground,,0,37.592267,55.744196,1,0,"Кропоткинская,Смоленская,Парк Культуры","8,11,14","walk,walk,walk","Хамовники,ЦАО",,1
msk,"Москва, Западный административный округ, район Филёвский Парк, Багратионовский проезд, 5",21961498,38.27,,,1,2,57,,1,2023,monolith,underground,,,37.5095364775231,55.7423225102259,1,2,"Фили,Багратионовская,Парк Победы","5,14,17","walk,walk,walk","Филевский парк,ЗАО",0,0
msk,"Москва, Б.Казенный пер., 2",110000000,210.0,25.0,164.0,6,6,6,1997,,,monolithBrick,underground,,1,37.6532,55.759598,1,0,"Чистые пруды,Красные ворота","17,17","walk,walk","Басманный,ЦАО",,1
msk,"Москва, Большой Кисельный переулок, 11",89465815,62.7,27.4,,1,3,8,,0,2026,monolith,,without,,37.6274612711637,55.7650984155354,1,,"Тургеневская,Сретенский бульвар,Чистые пруды","9,9,10","walk,walk,walk","Мещанский,ЦАО",0,0
msk,"Москва, Никольская улица, 10/2, стр. 2Б",160000000,105.0,23.0,50.0,2,2,5,2015,,,monolithBrick,underground,,0,37.625055,55.758453,1,0,"Лубянка,Театральная,Охотный ряд","1,8,9","walk,walk,walk","Тверской,ЦАО",1,1
msk,"Москва, жилой комплекс Река",41079700,54.7,17.2,16.6,1,2,16,,0,2026,monolith,underground,without,,37.4806319317,55.6923127413,1,1,"Мичуринский проспект,Раменки,Университет","11,3,5","walk,transport,transport","Раменки,ЗАО",0,0
msk,"Москва, Потаповский переулок, 6",99999000,67.4,10.0,40.0,1,2,6,2023,,,monolithBrick,underground,,,37.640354,55.761208,,1,"Чистые пруды,Тургеневская,Сретенский бульвар","6,7,9","walk,walk,walk","Басманный,ЦАО",0,1
msk,"Москва, Южнопортовая улица",26438055,61.7,15.8,26.6,2,7,25,,0,2025,monolith,underground,,,37.71133106502076,55.69330768716866,2,1,"Печатники,Люблино,Печатники","16,3,4","walk,transport,transport","Печатники,ЮВАО",0,0
msk,"Москва, Скатертный переулок, д. 22",208523979,145.8,10.0,,5,3,6,1914,,,brick,open,,1,37.592725,55.756771,1,,"Арбатская,Баррикадная","12,13","walk,walk","Пресненский,ЦАО",0,1
msk,"Москва, Береговой проезд, 2",36466603,103.9,26.0,35.7,3,3,20,,0,2024,monolithBrick,,without,,37.5078063512008,55.7597681819349,22,1,"Народное Ополчение,Фили,Багратионовская","3,4,4","transport,transport,transport","Филевский парк,ЗАО",0,0
msk,"Москва, улица Пречистенка, д.27",250000000,250.0,18.0,168.0,5,3,5,1910,,,,ground,,,37.591386,55.740421,1,,"Парк Культуры,Кропоткинская","7,10","walk,walk","Хамовники,ЦАО",0,1
msk,"Москва, Профсоюзная улица, 2/22",21455324,35.6,14.6,10.2,2,4,19,,0,2025,monolith,multilevel,without,,37.5722686230033,55.6873794088463,1,1,"Академическая,Профсоюзная,Новые Черёмушки","2,14,13","walk,walk,transport","Академический,ЮЗАО",0,0
msk,"Москва, 2-я Звенигородская ул., д. 16",128480000,116.8,10.0,,3,9,21,2023,,,monolith,underground,,4,37.555391,55.763295,18,0,"Улица 1905 года,Краснопресненская","7,4","walk,transport","Пресненский,ЦАО",0,1
msk,"Москва, Ильменский проезд",20065366,55.24,,,2,12,39,,0,2026,monolith,underground,,,37.54636069274963,55.8627017038544,1,1,"Селигерская,Верхние Лихоборы,Яхромская","4,14,20","walk,walk,walk","Западное Дегунино,САО",0,0
msk,"Москва, 2-я Звенигородская улица, 12кC19",99500000,90.53,,,3,11,21,,,,monolith,multilevel,,,37.556568,55.762039,,,"Улица 1905 года,Беговая","7,5","walk,transport","Пресненский,ЦАО",,1
msk,"Москва, Волоколамское шоссе",14881790,45.6,20.2,12.3,2,13,24,,0,2024,monolith,underground,without,1,37.4152910815278,55.8266814229694,,,"Трикотажная,Спартак,Тушинская","19,4,5","walk,transport,transport","Покровское-Стрешнево,СЗАО",1,0
msk,"Москва, Даниловский район, улица Автозаводская",23826724,60.52,,,2,9,16,,0,2025,monolithBrick,underground,fine,,37.6351179672961,55.7064860931808,,,"Тульская,Технопарк","15,6","walk,transport","Даниловский,ЮАО",1,0
msk,"Москва, Мосфильмовская, 74Б",39900000,80.0,10.0,40.0,3,8,29,,,,monolith,underground,,,37.504708,55.711108,5,,"Ломоносовский проспект,Минская","10,18","walk,walk","Раменки,ЗАО",1,1
msk,"Москва, Кутузовский проспект",131221490,115.6,,,3,11,18,,0,2025,monolith,underground,,,37.5595977937,55.7517228631563,1,,"Выставочная,Киевская","19,5","walk,transport","Дорогомилово,ЗАО",0,0
msk,"Москва, Арбат район, Новый Арбат ул., д.29",79000000,118.4,23.5,64.7,3,14,17,1998,,,monolith,,,0,37.577355,55.751457,3,,Смоленская,6,walk,"Арбат,ЦАО",,1
msk,"Москва, Подольское шоссе, 3",55209558,102.8,,97.8,3,9,13,,0,2024,monolith,underground,,,37.62448,55.713248,,,"Тульская,Серпуховская,Шаболовская","8,19,4","walk,walk,transport","Даниловский,ЮАО",1,0
msk,"Москва, Вернадского 10к1",20880000,41.2,20.0,16.2,2,10,17,,,,monolithBrick,,,1,37.519845,55.687705,,,Университет,16,walk,"Раменки,ЗАО",0,1
msk,"Москва, Часовая улица",19414650,37.3,13.9,12.9,1,8,29,,0,2026,monolith,underground,without,,37.521682566306986,55.81202757989051,,,"Сокол,Аэропорт","13,4","walk,transport","Аэропорт,САО",0,0
msk,"Москва, Мансуровский переулок, 5",170000000,166.3,20.0,65.0,4,4,6,,,,brick,underground,,,37.594755,55.73963,1,,"Парк Культуры,Кропоткинская","5,11","walk,walk","Хамовники,ЦАО",0,1
msk,"Москва, Мичуринский проспект, вл30Б",39305471,80.1,5.6,58.6,3,2,17,,0,2024,monolith,,,,37.498811777770335,55.70119424556461,,,"Раменки,Ломоносовский проспект,Мичуринский проспект","3,14,20","walk,walk,walk","Раменки,ЗАО",0,0
msk,"Москва, Живописная 21 А",72800000,94.0,10.0,59.0,3,13,22,,,,monolith,underground,,,37.448554,55.793333,2,,,,,"Хорошево-Мневники,СЗАО",0,1
msk,"Москва, улица Лобачевского",27188680,69.2,,,2,3,50,,0,2027,monolith,,without,,37.4768693801301,55.692173859999,,,"Мичуринский проспект,Мичуринский проспект,Аминьевская","11,12,19","walk,walk,walk","Раменки,ЗАО",0,0
msk,"Москва, Хамовники район, Плющиха ул., д.37",390000000,200.0,70.0,72.5,4,5,7,2019,,,monolith,,,2,37.577427,55.741049,1,,Смоленская,12,walk,"Хамовники,ЦАО",,1
msk,"Москва, Северо-Западный административный округ, район Покровское-Стрешнево, жилой комплекс Клубный Город на Реке Примавера, квартал Вивальди",38833210,79.3,6.9,33.8,3,2,13,,0,2025,monolith,underground,rough,1,37.424323796043,55.8133603842985,,,"Спартак,Тушинская","13,5","walk,transport","Покровское-Стрешнево,СЗАО",0,0
msk,"Россия, Москва, улица Врубеля, 4к1",92300000,142.0,,,4,5,15,2023,,,monolith,underground,,,37.502112,55.806272,1,1,"Панфиловская,Сокол,Стрешнево","13,13,17","walk,walk,walk","Сокол,САО",0,1
msk,"Москва, улица Академика Королёва, 21",20500000,36.72,,,1,24,28,,0,2024,monolith,underground,,,37.6022541586287,55.8205830303055,1,1,"Бутырская,Улица Милашенкова,Фонвизинская","12,14,18","walk,walk,walk","Марфино,СВАО",0,0
msk,"Москва, проспект Генерала Дорохова, 39к1В",54900000,95.5,10.0,60.0,4,11,14,2022,,,monolith,underground,,,37.496632,55.716899,2,2,"Минская,Ломоносовский проспект,Раменки","2,4,6","transport,transport,transport","Раменки,ЗАО",0,1
msk,"Москва, улица Фридриха Энгельса, 56",19889100,45.1,,,1,15,27,,0,2026,monolithBrick,underground,without,,37.6924907546307,55.7767727415349,2,1,"Бауманская,Электрозаводская","13,4","walk,transport","Басманный,ЦАО",0,0
msk,"Москва, Долгоруковская, 25",66800000,78.0,8.0,61.0,3,3,6,2021,,,monolith,underground,,,37.602588,55.776122,1,,"Новослободская,Менделеевская","5,8","walk,walk","Тверской,ЦАО",1,1
msk,"Москва, улица Маргелова, 3к5",34040000,85.1,,,3,4,25,,0,2022,panel,underground,fine,,37.5423027828514,55.7779652992839,,,"Беговая,Полежаевская,Хорошёвская","13,19,19","walk,walk,walk","Хорошевский,САО",0,0
msk,"г. Москва, проспект Лихачёва, д. 22",25990000,61.7,12.5,26.2,2,4,5,,,,monolith,underground,,1,37.656182,55.687558,2,,Технопарк,14,walk,"Даниловский,ЮАО",0,1
msk,"Москва, Открытое шоссе, 14Д",15177043,36.33,5.1,18.4,2,6,29,,1,2023,monolithBrick,,,,37.7408388875258,55.8135193514071,,,"Бульвар Рокоссовского,Черкизовская,Локомотив","4,6,6","walk,transport,transport","Богородское,ВАО",0,0
msk,"Москва, Софийская набережная, 34",63000000,50.0,20.0,20.0,,5,8,2019,,,monolithBrick,underground,,,37.622783,55.747287,1,,"Новокузнецкая,Третьяковская","11,11","walk,walk","Якиманка,ЦАО",1,1
msk,"Москва, Северо-Западный административный округ, район Покровское-Стрешнево, Волоколамское шоссе",17233154,56.51,,31.1,2,2,48,,0,2026,monolith,underground,,,37.4074094841585,55.8297628755774,1,1,"Трикотажная,Тушинская","9,3","walk,transport","Покровское-Стрешнево,СЗАО",0,0
msk,"Москва, Минская улица, 2к1",147000000,165.0,,,5,36,39,2017,,,monolith,underground,,,37.503998,55.716037,4,1,"Минская,Минская,Ломоносовский проспект","13,13,16","walk,walk,walk","Раменки,ЗАО",0,1
msk,"Москва, Дербеневская улица",63218218,85.3,,,3,4,11,,0,2025,monolithBrick,underground,without,,37.6542770089447,55.7253323113978,2,1,"Павелецкая,Пролетарская","16,18","walk,walk","Даниловский,ЮАО",0,0
msk,"Москва, Поварская, 8/1с1",120000000,78.0,12.0,57.0,3,4,6,,,,monolith,underground,,,37.598519,55.754172,2,,Арбатская,6,walk,"Арбат,ЦАО",1,1
msk,"Москва, жилой комплекс Виктори Парк Резиденсез, 3к8",98071613,105.8,7.0,,3,3,10,,0,2024,monolith,,fine,,37.5158990706786,55.7314038591472,,,"Парк Победы,Кутузовская,Киевская","9,20,5","walk,walk,transport","Дорогомилово,ЗАО",0,0
msk,"Москва, Пречистенка, 27",250000000,245.9,18.0,168.0,5,3,5,,,,brick,ground,,,37.591386,55.740421,1,,"Парк Культуры,Кропоткинская,Смоленская","7,10,13","walk,walk,walk","Хамовники,ЦАО",0,1
msk,"Москва, улица Нижние Мнёвники",28835030,58.1,12.4,26.8,2,2,22,,0,2025,monolith,underground,without,,37.4530314296612,55.7490842942989,1,1,"Терехово ,Мнёвники,Молодёжная","16,3,5","walk,transport,transport","Хорошево-Мневники,СЗАО",0,0
msk,"Москва, 4-я Марьиной рощи, 12",31000000,65.82,5.3,43.4,3,8,55,,0,2024,monolith,underground,fine,,37.62525365518282,55.7973750917672,4,,Марьина Роща,6,walk,"Марьина роща,СВАО",0,1
msk,"Москва, Нагатинская улица, к3вл1",22151658,40.26,,,1,6,25,,0,2025,monolith,underground,,,37.627768,55.682326,,,"Нагатинская,Верхние котлы,Варшавская","6,18,5","walk,walk,transport","Нагатино-Садовники,ЮАО",0,0
msk,"Москва, Земляной Вал, 37к1",34500000,50.3,10.0,30.8,2,9,21,,0,2024,monolith,multilevel,fine,,37.6594260234866,55.7559361443543,2,,"Чкаловская,Курская","2,4","walk,walk","Басманный,ЦАО",1,1
msk,"Москва, микрорайон Рублёво-Архангельское, квартал B10",29720000,80.0,5.3,52.7,3,2,9,,0,2026,monolithBrick,,without,,37.34260724328436,55.790733400123614,,,"Опалиха,Сетунь,Аникеевка","11,12,13","transport,transport,transport",ЗАО,0,0
msk,"Москва, проспект Академика Сахарова, 11",32800000,40.0,4.0,25.0,,14,19,,0,2024,monolithBrick,underground,fine,,37.643722,55.771125,1,,Красные ворота,7,walk,"Красносельский,ЦАО",1,1
msk,"Москва, Волгоградский проспект",20025392,55.8,,,2,11,29,,0,2024,monolithBrick,underground,,1,37.6886643862296,55.7199768368676,1,1,"Угрешская,Волгоградский проспект","11,3","walk,transport","Южнопортовый,ЮВАО",0,0
msk,"Москва, Средний Тишинский переулок, 5, к1",165000000,164.0,19.0,84.0,4,5,8,2021,,,monolithBrick,underground,,,37.577256,55.769965,1,,"Белорусская,Баррикадная","12,16","walk,walk","Пресненский,ЦАО",0,1
msk,"Москва, улица Золоторожский Вал",22978560,56.1,14.7,24.5,2,2,27,,0,2025,monolith,underground,without,,37.6929382011,55.752034072,1,1,"Римская,Площадь Ильича,Москва-Товарная","17,17,19","walk,walk,walk","Лефортово,ЮВАО",0,0
msk,"Москва, Ходынский бульвар, 20А",18000000,32.1,3.0,20.0,1,4,15,,,,monolith,underground,,,37.523204,55.790787,2,,"ЦСКА,Аэропорт","10,7","walk,transport","Хорошевский,САО",1,1
msk,"Москва, улица Зорге, 9",17528000,35.58,16.7,11.7,1,14,21,,0,2024,monolithBrick,underground,without,,37.5073428601187,55.7829432067847,2,1,"Полежаевская,Зорге","2,6","transport,transport","Хорошевский,САО",1,0
msk,"Москва, Западный административный округ, район Филёвский Парк, Багратионовский проезд, 5",23900000,40.74,10.0,25.7,2,18,58,,0,2024,monolith,underground,fine,,37.5095364775231,55.7423225102259,4,,"Фили,Багратионовская","7,12","walk,walk","Филевский парк,ЗАО",0,1
msk,"Москва, 1-й Можайский тупик, 8Ас1",61427720,79.88,,,3,2,14,,0,2026,monolith,,,,37.55858,55.743603,,,"Киевская,Студенческая,Выставочная","8,12,20","walk,walk,walk","Дорогомилово,ЗАО",1,0
msk,"Москва, Воробьевское шоссе, 4",370730000,273.2,50.0,170.0,4,13,13,,,,monolith,underground,,,37.535359,55.727693,2,,Кутузовская,10,transport,"Раменки,ЗАО",1,1
msk,"Москва, Даниловский район, улица Автозаводская",21793896,55.54,,,2,2,16,,0,2025,monolithBrick,underground,fine,,37.6351179672961,55.7064860931808,,,"Тульская,Технопарк","15,6","walk,transport","Даниловский,ЮАО",1,0
msk,"Москва, ул. Обручева, д.23, корп. 3",45000000,107.8,7.0,68.0,3,31,34,,1,2023,monolith,underground,fine,,37.5311026437736,55.6591290377772,2,,"Воронцовская,Калужская","8,9","walk,walk","Обручевский,ЮЗАО",0,1
msk,"Москва, Винницкая улица, 8к3",23981169,40.5,10.8,16.5,1,6,15,,1,2022,monolith,,,,37.492662,55.701212,,,"Раменки,Ломоносовский проспект,Мичуринский проспект","9,20,2","walk,walk,transport","Раменки,ЗАО",0,0
msk,"Москва, Симоновская набережная, 3",66000000,143.8,38.7,44.0,3,4,19,,0,2024,monolith,underground,without,,37.6500110125168,55.7159754329452,2,,Автозаводская,7,transport,"Даниловский,ЮАО",0,1
msk,"Москва, Северный административный округ, район Беговой, Ленинградский проспект, вл8",27780181,40.8,,,1,3,36,,0,2027,monolith,underground,without,,37.5826308664078,55.78085421861,2,1,"Белорусская,Маяковская,Савёловская","5,18,5","walk,walk,transport","Беговой,САО",0,0
msk,"Москва, Кутузовский проезд, 16",37300000,50.4,8.0,29.6,2,17,46,,0,2026,monolith,,fine,,37.52118914891846,55.74616355749173,2,,Фили,4,walk,"Дорогомилово,ЗАО",0,1
msk,"Москва, Автозаводская улица",22041511,42.44,6.8,,2,4,20,,0,2024,monolith,underground,without,,37.6321237476071,55.7064943785236,,,"Тульская,ЗИЛ,Автозаводская","17,20,4","walk,walk,transport","Даниловский,ЮАО",0,0
msk,"Москва, Воробьевское шоссе, 4",742000000,595.0,50.0,240.0,6,13,13,,,,monolith,underground,,,37.535359,55.727693,2,,Кутузовская,10,transport,"Раменки,ЗАО",1,1
msk,"Москва, улица Новый Арбат, 32",234131835,184.6,,,3,12,13,,1,2013,monolithBrick,underground,without,,37.58067,55.753316,1,,"Смоленская,Баррикадная,Краснопресненская","8,14,14","walk,walk,walk","Арбат,ЦАО",1,0
msk,"Москва, бульвар Генерала Карбышева, 11",16300000,37.3,,,,2,30,2022,,,monolith,underground,,,37.468838,55.780411,1,2,"Народное Ополчение,Панфиловская,Полежаевская","19,6,6","walk,transport,transport","Хорошево-Мневники,СЗАО",0,1
msk,"Москва, 1-й Сетуньский проезд, вл10",59794071,92.02,,70.2,3,34,41,,0,2024,monolith,underground,,,37.541503,55.731936,2,2,"Лужники,Спортивная,Воробьёвы горы","3,4,4","transport,transport,transport","Раменки,ЗАО",0,0
msk,"Москва, улица 3-я Ямского Поля, 9",80000000,244.4,,,,5,6,2016,,,monolith,ground,,,37.580894,55.781626,1,,"Белорусская,Белорусская,Маяковская","7,9,4","walk,walk,transport","Беговой,САО",1,1
msk,"Москва, микрорайон Рублёво-Архангельское, квартал В19",45451860,101.91,27.5,41.8,3,2,12,,0,2025,monolith,,without,,37.3438052008762,55.789558187273,,,"Опалиха,Сетунь,Карамышевская","11,12,13","transport,transport,transport",ЗАО,0,0
msk,"Москва, улица 3-я Ямского Поля, 9",270000000,522.0,,,,6,6,2016,,,monolith,,,,37.580894,55.781626,1,,"Белорусская,Менделеевская,Новослободская","6,5,7","walk,transport,transport","Беговой,САО",1,1
msk,"Москва, улица Василисы Кожиной, вл25/1",62976450,108.3,,,3,12,17,,0,2024,monolith,,,,37.4922799384835,55.7339776945285,1,1,"Филёвский парк,Парк Победы,Фили","12,4,4","walk,transport,transport","Филевский парк,ЗАО",1,0
msk,"Россия, Москва, 3-я улица Ямского Поля, 9",90000000,190.0,,,,4,6,2017,,,monolith,ground,,0,37.580894,55.781626,2,0,"Белорусская,Маяковская,Динамо","7,4,5","walk,transport,transport","Беговой,САО",1,1
msk,"Москва, Шмитовский проезд",25820180,45.89,16.0,16.4,2,28,51,,0,,monolith,multilevel,without,,37.5255707156213,55.755131320244,4,2,,,,"Пресненский,ЦАО",0,0
msk,"Москва, Мичуринский проспект, 56",53000000,107.7,,,4,14,52,2020,,,monolith,underground,,,37.485664,55.695804,,,"Раменки,Мичуринский проспект,Мичуринский проспект","10,13,13","walk,walk,walk","Раменки,ЗАО",0,1
msk,"Москва, Южнопортовая улица",9178687,36.7,13.9,12.5,2,5,13,,0,2026,monolith,,without,,37.69878838363463,55.70481629827159,1,,"Кожуховская,Угрешская,Автозаводская","14,20,3","walk,walk,transport","Печатники,ЮВАО",1,0
msk,"Москва, Москва, Ружейный пер, 3",259000000,494.0,40.0,,5,15,16,2009,,,monolith,,,0,37.580517,55.742955,,,Смоленская,10,walk,"Хамовники,ЦАО",,1
msk,"Москва, Варшавское шоссе, 170Ек4",12979200,38.4,,,1,9,26,,1,2023,panel,multilevel,fine,,37.5824077349731,55.5815474179261,,,"Лесопарковая,Аннино,Бульвар Дмитрия Донского","7,12,7","walk,walk,transport","Чертаново Южное,ЮАО",0,0
msk,"Москва, Ефремова улица, 10с1к4/5",210000000,150.0,,,3,11,11,,,,monolithBrick,multilevel,,,37.573267,55.725564,,,"Фрунзенская,Спортивная,Парк Культуры","6,11,3","walk,walk,transport","Хамовники,ЦАО",,1
msk,"Москва, Мичуринский проспект",18057908,42.9,13.3,,1,2,23,,0,2025,monolith,underground,without,,37.4656579324785,55.6822842815802,1,1,"Озёрная,Мичуринский проспект,Раменки","19,4,5","walk,transport,transport","Очаково-Матвеевское,ЗАО",0,0
msk,"Россия, г. Москва, Ружейный пер., д. 3",103000000,121.0,,,3,7,16,,,,,,,,37.580517,55.742955,,,"Смоленская,Киевская","10,14","walk,walk","Хамовники,ЦАО",0,1
msk,"Москва, микрорайон Рублёво-Архангельское, квартал В20",45191412,86.94,6.0,50.2,3,3,13,,0,2025,monolithBrick,,fine,,37.3438008900958,55.7887728612671,,,"Опалиха,Сетунь,Карамышевская","11,12,13","transport,transport,transport",ЗАО,0,0
msk,"Москва, улица Кузнецкий Мост, 19с1",51900000,60.0,10.0,45.0,2,4,4,,,,,,,,37.625828,55.762308,,,Кузнецкий мост,3,walk,"Мещанский,ЦАО",1,1
msk,"Москва, Сосинская улица, 43",23267000,40.03,13.9,12.1,1,3,8,,0,2024,monolith,underground,,,37.6785563816135,55.72664673349171,1,1,"Дубровка,Пролетарская,Волгоградский проспект","15,15,2","walk,walk,transport","Южнопортовый,ЮВАО",0,0
msk,"Россия, Москва, улица Костякова, 17к1",26800000,60.0,18.0,32.0,3,4,10,1965,,,brick,ground,,1,37.5683,55.815731,1,,"Тимирязевская,Дмитровская,Гражданская","7,14,20","walk,walk,walk","Тимирязевский,САО",0,1
msk,"Москва, Багратионовский проезд, 5Ак1",40338000,97.2,,40.5,3,2,41,,1,2021,monolith,underground,without,,37.5095986063909,55.7433431076337,1,2,"Фили,Багратионовская,Парк Победы","6,11,17","walk,walk,walk","Филевский парк,ЗАО",0,0
msk,"Россия, Москва, набережная Тараса Шевченко, 3",65000000,140.0,20.0,110.0,4,5,8,1967,,,brick,,,2,37.571543,55.748356,1,0,"Киевская,Смоленская","6,17","walk,walk","Дорогомилово,ЗАО",0,1
msk,"Москва, Космодамианская набережная, 4/22с8",147998550,119.45,,,3,2,6,,0,2024,monolithBrick,underground,without,,37.6389599252698,55.7454796264396,1,,"Новокузнецкая,Китай-город","10,16","walk,walk","Замоскворечье,ЦАО",1,0
msk,"Москва, улица Большая Якиманка, 22К3",205000000,158.0,12.0,,3,6,16,2007,,,brick,underground,,1,37.61344,55.738252,4,,"Полянка,Третьяковская,Кропоткинская","8,11,15","walk,walk,walk","Якиманка,ЦАО",0,1
msk,"Москва, Западный административный округ, район Филёвский Парк, Багратионовский проезд, 5",40424357,79.23,,,3,2,57,,1,2023,monolith,underground,,,37.5095364775231,55.7423225102259,1,2,"Фили,Багратионовская,Парк Победы","5,14,17","walk,walk,walk","Филевский парк,ЗАО",0,0
msk,"Россия, г. Москва, Никитский б-р, д. 12",108508069,131.4,,,3,4,7,,,,,,,,37.60054,55.755388,,,"Арбатская,Александровский сад","6,11","walk,walk","Пресненский,ЦАО",0,1
msk,"Москва, проспект Академика Сахарова, 11",51520000,73.6,15.0,43.8,3,3,19,,0,2024,monolith,underground,,,37.643722,55.771125,4,1,"Красные ворота,Сухаревская,Сретенский бульвар","7,11,3","walk,walk,transport","Красносельский,ЦАО",1,0
msk,"Москва, Пресненский район,  улица 2-ая звенигородская улица 2",63463819,60.0,,,2,14,21,2021,,,monolith,,,2,37.556227,55.761293,,,Улица 1905 года,9,walk,"Пресненский,ЦАО",,1
msk,"Москва, Большой Кисельный переулок, 11",160946449,123.3,40.1,,3,5,7,,0,2026,monolith,underground,without,,37.6274237202377,55.7648534393045,1,,"Тургеневская,Сретенский бульвар,Чистые пруды","9,9,10","walk,walk,walk","Мещанский,ЦАО",0,0
msk,"Москва, Усачёва улица, 15",162000000,123.0,18.0,80.0,4,9,15,2022,,,monolith,underground,,,37.569611,55.726974,2,1,"Спортивная,Лужники,Фрунзенская","8,13,14","walk,walk,walk","Хамовники,ЦАО",0,1
msk,"Москва, жилой комплекс Река",76342700,133.7,32.1,50.0,3,2,14,,0,2026,monolith,underground,without,,37.48063193174056,55.69231274128903,1,1,"Мичуринский проспект,Раменки,Университет","11,3,5","walk,transport,transport","Раменки,ЗАО",0,0
msk,"Москва, Комсомольский проспект, д. 9А",94000000,106.4,10.0,,3,5,6,2013,,,,open,,,37.591189,55.730943,1,,Парк Культуры,7,walk,"Хамовники,ЦАО",1,1
msk,"Москва, 1-я улица Ямского Поля, 28с3",28499999,53.11,,15.8,1,4,21,,0,2024,monolith,,,,37.5854233447391,55.7831190790998,,,"Белорусская,Менделеевская,Савёловская","7,18,18","walk,walk,walk","Беговой,САО",1,0
msk,"Москва, Кутузовский проезд, 16А/1",55500000,88.8,6.5,,4,32,45,,0,2026,,,without,,37.5207647674,55.7449804534,,,"Международная,Кутузовская,Парк Победы","13,15,15","walk,walk,walk","Дорогомилово,ЗАО",0,1
msk,"Ленинградский проспект, 37/3",27000000,40.5,9.3,17.3,1,9,41,,,,,,,0,37.541853,55.79307,,,Динамо,17,walk,"Хорошевский,САО",0,1
msk,"Ленинградский проспект, 37/4",31500000,41.1,4.9,23.4,1,16,40,,,,,,,0,37.540533,55.793313,,,Динамо,17,walk,"Хорошевский,САО",0,1
msk,"Москва, Автозаводская улица, 26",34499660,91.21,8.2,,4,15,20,,0,2024,monolith,underground,without,,37.6322310359675,55.7059794529357,,,"Тульская,ЗИЛ,Автозаводская","17,20,4","walk,walk,transport","Даниловский,ЮАО",0,0
msk,"Москва, улица Золоторожский Вал",49189280,118.7,19.7,70.7,5,25,27,,0,2025,monolith,underground,without,,37.6910374790608,55.7529277317889,1,1,"Римская,Площадь Ильича,Авиамоторная","18,18,5","walk,walk,transport","Лефортово,ЮВАО",0,0
msk,"Москва, проспект Ленинградский, вл.37/4",52000000,72.0,,57.0,3,9,41,,,,monolith,,,,37.540533,55.793313,,,"Динамо,ЦСКА,Аэропорт","17,4,6","walk,transport,transport","Хорошевский,САО",0,1
msk,"Москва, Ленинградский проспект, 37/7",57000000,88.3,8.8,45.0,3,17,41,2021,,,monolith,underground,,,37.543183,55.793698,2,,"Аэропорт,Петровский Парк,Динамо","13,14,15","walk,walk,walk","Хорошевский,САО",0,1
msk,"Ленинградский проспект, 37/6",110000000,112.8,14.3,64.0,4,10,41,,,,,,,0,37.542213,55.794173,,,Динамо,15,walk,"Хорошевский,САО",0,1
msk,"Москва, Ленинградский проспект, 37/3",116000000,164.0,10.0,80.0,4,20,41,2021,,,monolith,multilevel,,,37.541853,55.79307,3,,"Аэропорт,Петровский Парк,Динамо","13,16,17","walk,walk,walk","Хорошевский,САО",0,1
msk,"Ленинградский проспект, 37/6",125000000,135.3,6.0,95.9,4,37,41,,,,,,,0,37.542213,55.794173,,,Динамо,15,walk,"Хорошевский,САО",0,1
msk,"Россия, г. Москва, Новопесковский М. пер., д. 8",165000000,207.1,,,4,3,14,,,,,,,,37.577561,55.749633,,,Смоленская,5,walk,"Арбат,ЦАО",0,1
msk,"Москва, Мосфильмовская, 1А",270000000,222.0,25.0,92.0,5,3,8,2020,,,monolithBrick,underground,,,37.525684,55.718902,1,,"Ломоносовский проспект,Кутузовская","4,11","transport,transport","Раменки,ЗАО",0,1
msk,"Москва, Минская улица, 2Вк3",417450000,379.0,,,6,5,10,2019,,,brick,underground,,,37.505031,55.716483,,1,"Минская,Минская,Ломоносовский проспект","13,13,16","walk,walk,walk","Раменки,ЗАО",0,1
msk,"Россия, Москва, 9-я улица Соколиной Горы, 3",12350000,32.0,6.5,18.0,1,3,9,1967,,,brick,ground,,1,37.731012,55.771373,1,,"Соколиная гора,Семёновская,Шоссе Энтузиастов","15,4,4","walk,transport,transport","Соколиная гора,ВАО",0,1
msk,"Россия, Москва, Большая Черкизовская улица, 11",21870000,56.3,5.3,39.4,3,2,9,1965,,,brick,ground,,0,37.726745,55.798525,1,,"Преображенская площадь,Черкизовская,Локомотив","9,15,17","walk,walk,walk","Преображенское,ВАО",0,1
msk,"Москва, Дербеневская улица",23180010,45.3,13.7,17.5,1,5,27,,0,2026,monolith,,without,,37.6449734179683,55.7209805531047,1,2,"Серпуховская,Пролетарская,Павелецкая","20,2,4","walk,transport,transport","Даниловский,ЮАО",0,0
msk,"Москва, Шелепихинская набережная, 34к2",63200000,84.0,16.0,63.0,3,12,19,,,,monolithBrick,underground,,1,37.508894,55.763057,3,,Шелепиха,19,walk,"Хорошево-Мневники,СЗАО",0,1
msk,"Москва, Гончарная ул., 38",76999999,92.0,21.0,54.0,3,13,14,1936,,,stalin,ground,,,37.650298,55.741191,1,,,,,"Таганский,ЦАО",0,1
msk,"Россия, Москва, Мерзляковский переулок, 13",90000000,169.0,,,4,6,6,1902,,,brick,ground,,,37.596929,55.756396,1,,"Арбатская,Тверская,Александровский сад","9,13,14","walk,walk,walk","Пресненский,ЦАО",0,1
msk,"Москва, Мосфильмовская улица, 8",100000000,130.0,,,3,22,53,2012,,,monolith,,,,37.527256,55.723587,3,1,"Ломоносовский проспект,Тестовская,Тестовская","4,5,6","transport,transport,transport","Раменки,ЗАО",0,1
msk,"Россия, Москва, Украинский бульвар, 6",19490000,36.6,9.0,18.5,1,7,12,1965,,,brick,ground,,1,37.565048,55.747647,2,,"Киевская,Выставочная,Смоленская","9,20,3","walk,walk,transport","Дорогомилово,ЗАО",0,1
msk,"Москва, Москва, Мосфильмовская ул, 8",79990000,108.0,15.0,,3,30,34,2011,,,monolith,,,0,37.527256,55.723587,1,0,Киевская,6,transport,"Раменки,ЗАО",,1
msk,"Москва, 1-й Сетуньский проезд, вл6",23990000,49.0,,,2,3,41,,,2024,monolith,,fine,0,37.540209,55.73222,0,0,"Воробьёвы горы,Парк Культуры,Спортивная","4,5,5","transport,transport,transport","Раменки,ЗАО",0,1
msk,"Россия, Москва, Космодамианская набережная, 46-50с1",38500000,63.0,,37.5,2,8,9,1963,,,brick,ground,,1,37.644764,55.735829,1,,"Павелецкая,Таганская,Марксистская","10,13,18","walk,walk,walk","Замоскворечье,ЦАО",0,1
msk,"Россия, Москва, улица Доватора, 17",38500000,56.0,,,2,5,6,1958,,,brick,ground,,1,37.564671,55.721782,1,,"Спортивная,Лужники,Фрунзенская","3,4,17","walk,walk,walk","Хамовники,ЦАО",0,1
msk,"Москва, Шмитовский проезд, 39к8",51216400,117.24,16.0,55.7,4,12,35,,1,,monolith,multilevel,without,,37.526286,55.75166,3,1,,,,"Пресненский,ЦАО",0,0
msk,"Москва, 1-й Сетуньский проезд, вл10",66854250,96.75,,73.7,3,40,41,,0,2024,monolith,underground,,,37.541503,55.731936,2,2,"Лужники,Спортивная,Воробьёвы горы","3,4,4","transport,transport,transport","Раменки,ЗАО",0,0
msk,"Россия, Москва, Вешняковская улица, 8к1",10800000,46.0,7.0,30.0,2,5,9,1972,,,panel,ground,,0,37.826655,55.736214,1,0,Выхино,9,transport,"Вешняки,ВАО",0,1
msk,"Москва, Южнопортовая улица",24343489,80.9,28.1,33.7,4,17,47,,0,2027,monolith,underground,without,,37.6944217473599,55.7058219418829,1,1,"Кожуховская,Угрешская,Автозаводская","9,20,3","walk,walk,transport","Печатники,ЮВАО",0,0
msk,"Россия, Москва город, проезд Береговой, дом 5, корпус 2",26900000,70.0,32.6,,2,3,21,2015,,,monolith,,,,37.50884,55.756386,,,"Фили,Шелепиха","16,4","walk,transport","Филевский парк,ЗАО",1,1
msk,"Москва, проспект Генерала Дорохова, вл1к2",41971287,107.3,5.7,70.9,4,7,52,,0,2024,monolith,underground,without,,37.4932678203868,55.7093294654005,8,4,"Раменки,Ломоносовский проспект,Минская","20,6,6","walk,transport,transport","Раменки,ЗАО",0,0
msk,"Москва, улица Архитектора Щусева, 15",48414247,101.8,30.5,61.1,4,5,16,,1,2023,monolithBrick,underground,without,,37.6334864423226,55.6973372537179,,,"ЗИЛ,Верхние котлы,Автозаводская","15,19,7","walk,walk,transport","Даниловский,ЮАО",0,0
msk,"Россия, Москва, улица Маросейка, 11/4с1",55000000,46.3,17.0,25.0,1,2,3,1917,,,monolithBrick,ground,,,37.636096,55.758103,1,,"Китай-город,Лубянка,Кузнецкий мост","3,7,12","walk,walk,walk","Басманный,ЦАО",1,1
msk,"Москва, 1-й Красногвардейский проезд, 22",59000000,61.0,10.0,29.0,2,12,79,2019,,,monolith,underground,,,37.536517,55.751366,2,,"Деловой центр,Международная","3,6","walk,walk","Пресненский,ЦАО",1,1
msk,"Москва, микрорайон Рублёво-Архангельское, квартал В19",98137312,160.96,51.0,51.2,3,1,7,,0,2025,monolith,,without,,37.3446259568342,55.7895309846153,,,"Опалиха,Сетунь,Карамышевская","11,12,13","transport,transport,transport",ЗАО,0,0
msk,"Москва, улица Мосфильмовская, 8",100000000,129.5,,103.0,3,22,32,,,,monolith,,,,37.527256,55.723587,3,3,"Ломоносовский проспект,Киевская,Минская","4,6,7","transport,transport,transport","Раменки,ЗАО",0,1
msk,"Москва, Мосфильмовская ул, 70к2",117000000,236.0,18.0,160.0,6,35,43,2004,,,monolith,underground,,,37.505355,55.714206,1,0,"Ломоносовский проспект,Минская","17,5","walk,transport","Раменки,ЗАО",0,1
msk,"г. Москва, Нагатинская набережная, д. 10",12300000,21.5,3.0,10.5,,16,26,,0,2024,monolith,underground,without,,37.6380824752626,55.682389125146,2,,Нагатинская,19,walk,"Нагатино-Садовники,ЮАО",0,1
msk,"Москва, Новоданиловская набережная, д. 8к1",17500000,39.6,9.0,22.8,2,15,24,,1,2023,monolith,underground,fine,,37.624832002878,55.6964907067811,2,,"Верхние котлы,Тульская","19,20","walk,walk","Донской,ЮАО",1,1
msk,"Москва, Академика Королева, 21",19000000,35.0,15.7,11.0,1,10,26,,0,2024,monolith,underground,without,1,37.6022541586287,55.8205830303055,2,,Бутырская,10,walk,"Марфино,СВАО",0,1
msk,"Москва, Авиационная, 66",23900000,54.0,8.0,12.0,2,16,30,2015,,,monolith,underground,,,37.459999,55.809611,2,,Щукинская,4,walk,"Щукино,СЗАО",0,1
msk,"Москва, Летниковская улица, 4-6а",24490000,59.0,15.4,38.6,3,2,27,,0,2025,monolith,,without,,37.64268249437239,55.7275539261162,,,Павелецкая,7,walk,"Замоскворечье,ЦАО",1,1
msk,"Москва, 1-й Сетуньский проезд, вл6",25990000,54.2,,,2,3,41,,,2024,monolith,,fine,0,37.540209,55.73222,0,0,"Воробьёвы горы,Парк Культуры,Спортивная","4,5,5","transport,transport,transport","Раменки,ЗАО",0,1
msk,"Москва, Подольское шоссе, 3",28200000,41.1,12.0,17.0,2,3,13,,0,2024,monolithBrick,underground,fine,,37.62448,55.713248,2,,Тульская,8,walk,"Даниловский,ЮАО",1,1
msk,"Москва, 1-я Ямского поля, д. 1, к. 2",29490000,45.7,5.0,31.0,1,6,10,2023,,,monolith,underground,,,37.581676,55.779271,2,,"Белорусская,Маяковская,Менделеевская","2,15,19","walk,walk,walk","Беговой,САО",1,1
msk,"Москва, ул. Бульвар Братьев Весниных, д.9",30500000,60.0,20.0,29.0,3,31,40,2023,,,monolithBrick,underground,,,37.640399,55.698934,5,,"ЗИЛ,Автозаводская,Технопарк","8,18,3","walk,walk,transport","Даниловский,ЮАО",0,1
msk,"Москва, Луговая, 20Вс5",34300000,127.0,20.0,72.0,3,3,6,2020,,,monolithBrick,ground,,,37.186058,55.538876,,,"Рассказовка,Новопеределкино,Филатов Луг","21,23,23","transport,transport,transport","Первомайское,ТАО (Троицкий)",0,1
msk,"Москва, Луговая, 20Вс5",34300000,127.0,20.0,73.0,3,3,6,2020,,,monolithBrick,ground,,,37.186058,55.538876,,,"Рассказовка,Новопеределкино,Филатов Луг","21,23,23","transport,transport,transport","Первомайское,ТАО (Троицкий)",0,1
msk,"Москва, Кутузовский проезд, 16",35000000,49.0,8.0,28.7,2,9,46,,0,2026,monolith,underground,fine,,37.52198117329283,55.74516360838248,,,Фили,4,walk,"Дорогомилово,ЗАО",0,1
msk,"Москва, улица Земляной Вал",35250000,47.0,,38.0,2,12,21,,0,2024,monolith,,fine,,37.6603567500141,55.755922531147,,,"Чкаловская,Курская","5,8","walk,walk","Таганский,ЦАО",1,1
msk,"Москва, ул. Сергея Макеева, 9к1",37000000,43.6,16.8,14.0,1,4,13,,,,monolith,underground,,,37.550208,55.760915,1,,Улица 1905 года,12,walk,"Пресненский,ЦАО",0,1
msk,"Москва, ул. Земляной Вал, д. 37,к 1",37300000,49.7,26.5,18.2,1,13,21,,0,2024,monolithBrick,multilevel,fine,,37.6594260234866,55.7559361443543,4,,"Чкаловская,Курская","2,4","walk,walk","Басманный,ЦАО",1,1
msk,"Москва, Генерала Дорохова,  д.39к1В",38000000,70.2,20.0,35.0,2,3,14,2021,,,monolith,underground,,,37.496632,55.716899,2,,Минская,5,transport,"Раменки,ЗАО",0,1
msk,"Москва, Луговая, 20Вс5",39700000,147.0,20.0,100.0,4,3,6,2020,,,monolithBrick,ground,,,37.186058,55.538876,,,"Рассказовка,Новопеределкино,Филатов Луг","21,23,23","transport,transport,transport","Первомайское,ТАО (Троицкий)",0,1
msk,"Москва, Луговая улица, 20Вк5",39700000,147.0,20.0,94.0,4,3,6,2020,,,monolithBrick,ground,,,37.186058,55.538876,,,"Рассказовка,Новопеределкино,Филатов Луг","21,23,23","transport,transport,transport","Первомайское,ТАО (Троицкий)",0,1
msk,"Москва, ул. Летниковская, д. 11",40900000,84.3,5.0,50.0,3,9,32,,0,2025,monolithBrick,underground,without,,37.6461621577939,55.7254529269888,4,,Павелецкая,16,walk,"Даниловский,ЮАО",0,1
msk,"Москва, Лобачевского, 120к1",41000000,106.0,13.1,63.9,4,31,39,2022,,,monolith,underground,,,37.470848,55.697235,3,,"Аминьевская,Мичуринский проспект","8,4","walk,transport","Раменки,ЗАО",0,1
msk,"Москва, ул. Летниковская, д. 11",41350000,80.3,8.0,48.0,3,12,32,,0,2025,monolithBrick,underground,without,,37.6450467088727,55.7263142841579,4,,Павелецкая,16,walk,"Даниловский,ЮАО",0,1
msk,"Москва, Врубеля, 4",44000000,59.0,25.0,15.5,2,12,12,,1,2023,brick,underground,without,,37.5020142170924,55.8062882789303,2,,"Сокол,Панфиловская","13,13","walk,walk","Сокол,САО",0,1
msk,"Москва, улица Академика Павлова, 28",45500000,70.0,,56.0,2,4,28,,,,monolith,,,,37.407349,55.746456,2,2,"Молодёжная,Крылатское,Кунцевская","11,3,7","walk,transport,transport","Кунцево,ЗАО",0,1
msk,"Москва, Даев переулок, 19",47600000,67.0,5.0,57.0,3,6,8,2017,,,monolithBrick,underground,,,37.637955,55.770294,1,,"Сухаревская,Сретенский бульвар","6,7","walk,walk","Красносельский,ЦАО",1,1
msk,"Москва, 1-й Красногвардейский проезд, 22с1",49800000,73.0,10.0,58.0,2,41,68,2020,,,monolith,underground,,,37.533742,55.751138,4,2,"Тестовская,Международная,Деловой центр","2,5,6","walk,walk,walk","Пресненский,ЦАО",1,1
msk,"Москва, Береговая, 4к2",50900000,121.0,15.0,90.0,3,2,6,,,,monolithBrick,underground,,1,37.467805,55.82842,1,,"Стрешнево,Водный стадион","6,12","transport,transport","Покровское-Стрешнево,СЗАО",0,1
msk,"Москва, Вересаева, 13",52000000,152.0,20.0,90.0,3,4,17,,,,monolithBrick,underground,,1,37.446057,55.718572,1,,"Давыдково,Кунцевская","8,13","walk,walk","Можайский,ЗАО",0,1
msk,"Москва, ул.1-й Сетуньский проезд, д. 6",54000000,97.0,15.0,70.0,4,12,41,2024,,,monolith,underground,,,37.540174,55.732235,2,,Кутузовская,7,transport,"Раменки,ЗАО",0,1
msk,"Москва, 3-я Ямского поля, 9",58500000,135.0,15.0,77.0,3,6,6,,,,monolith,,,,37.580894,55.781626,1,,Белорусская,7,walk,"Беговой,САО",1,1
msk,"Москва, Большая Якиманка, 22к3",60000000,49.3,8.0,36.3,1,2,11,,,,monolithBrick,underground,,,37.61344,55.738252,2,,"Полянка,Октябрьская","9,12","walk,walk","Якиманка,ЦАО",0,1
msk,"Москва, Мосфильмовская, 88к2с4",60000000,86.7,15.0,66.7,2,20,21,,,,monolith,underground,,,37.493156,55.704093,2,,"Раменки,Ломоносовский проспект","9,18","walk,walk","Раменки,ЗАО",0,1
msk,"Москва, ул. Мосфильмовская д. 88, корп. 2, стр. 6",61000000,115.4,17.1,58.5,3,9,18,,,,monolithBrick,underground,,1,37.493335,55.705483,1,,"Раменки,Ломоносовский проспект","14,18","walk,walk","Раменки,ЗАО",0,1
msk,"г.Москва, ул. Врубеля, д. 8",62000000,130.0,18.0,72.0,3,16,30,,,,monolithBrick,underground,,1,37.499318,55.805649,1,,"Панфиловская,Сокол","13,16","walk,walk","Сокол,САО",0,1
msk,"Москва, Хорошёво-Мнёвники район, Шелепихинская наб., д.34, к.2, строение 1",62000000,96.0,40.0,33.0,3,14,36,2018,,,monolith,,,0,37.508894,55.763057,3,,"Шелепиха,Хорошёвская,Полежаевская","10,4,4","walk,transport,transport","Хорошево-Мневники,СЗАО",,1
msk,"Москва, Мытная, 40к1-4",66600000,139.0,16.2,71.0,4,18,29,,,,monolith,underground,,,37.616225,55.722948,2,,Шаболовская,12,walk,"Якиманка,ЦАО",0,1
msk,"Москва, 2-ая Звенигородская, 12",66400000,56.58,10.0,,1,3,21,2023,,,,underground,,1,37.556568,55.762039,1,,Улица 1905 года,7,walk,"Пресненский,ЦАО",0,1
msk,"Москва, Озерковская набережная, 6",68000000,64.0,10.0,40.0,2,4,5,,,,,,,,37.63641,55.742321,2,,Новокузнецкая,6,walk,"Замоскворечье,ЦАО",1,1
msk,"Москва, Михалковская, 46с3",69000000,168.0,20.0,140.0,5,5,6,,,,monolithBrick,ground,,,37.515182,55.840846,1,,Коптево,7,walk,"Головинский,САО",1,1
msk,Россия г Москва  г Москва Пресненский р-н  1-й Красногвардейский проезд 22стр1,70000000,73.0,5.0,59.0,2,49,63,,,,brick,underground,,,37.533742,55.751138,,,"Деловой центр,Деловой центр","5,6","walk,walk","Пресненский,ЦАО",1,1
msk,"Москва, 1-й Пехотный переулок, 2",72160000,172.9,20.0,147.9,6,27,27,2022,,,monolith,underground,,,37.483454,55.805553,3,,"Стрешнево,Стрешнево,Щукинская","11,14,15","walk,walk,walk","Щукино,СЗАО",0,1
msk,"Москва, Басманный переулок, д. 5",71990000,117.9,15.0,80.0,3,12,18,,,,monolith,underground,,1,37.658212,55.771206,1,,"Комсомольская,Красные ворота","6,8","walk,walk","Красносельский,ЦАО",1,1
msk,"Москва, Новочерёмушкинская, 44с3",74900000,177.8,17.0,98.0,4,7,20,2005,,,monolith,underground,,1,37.565174,55.673818,2,,"Профсоюзная,Новые Черёмушки","6,12","walk,walk","Черемушки,ЮЗАО",0,1
msk,"Москва, 3-й Автозаводский проезд, 3",76200000,127.0,40.0,41.0,4,14,16,,,,monolith,underground,,,37.65585,55.707867,2,,Автозаводская,4,walk,"Даниловский,ЮАО",1,1
